%time,field.header.seq,field.header.stamp,field.header.frame_id,field.orientation.x,field.orientation.y,field.orientation.z,field.orientation.w,field.orientation_covariance0,field.orientation_covariance1,field.orientation_covariance2,field.orientation_covariance3,field.orientation_covariance4,field.orientation_covariance5,field.orientation_covariance6,field.orientation_covariance7,field.orientation_covariance8,field.angular_velocity.x,field.angular_velocity.y,field.angular_velocity.z,field.angular_velocity_covariance0,field.angular_velocity_covariance1,field.angular_velocity_covariance2,field.angular_velocity_covariance3,field.angular_velocity_covariance4,field.angular_velocity_covariance5,field.angular_velocity_covariance6,field.angular_velocity_covariance7,field.angular_velocity_covariance8,field.linear_acceleration.x,field.linear_acceleration.y,field.linear_acceleration.z,field.linear_acceleration_covariance0,field.linear_acceleration_covariance1,field.linear_acceleration_covariance2,field.linear_acceleration_covariance3,field.linear_acceleration_covariance4,field.linear_acceleration_covariance5,field.linear_acceleration_covariance6,field.linear_acceleration_covariance7,field.linear_acceleration_covariance8
2767050000000,1747,2767050000000,base_link,0.00929654893051,-0.0116135180914,0.0191620225286,-0.999705755736,1.0,0.0,0.0,0.0,1.0,0.0,0.0,0.0,1.0,0.00188062305097,-0.000283216795651,-0.00111421535257,1.21846967915e-07,0.0,0.0,0.0,1.21846967915e-07,0.0,0.0,0.0,1.21846967915e-07,-0.230043172836,-0.195315539837,9.84930038452,9e-08,0.0,0.0,0.0,9e-08,0.0,0.0,0.0,9e-08
2767070000000,1748,2767070000000,base_link,0.00926987804257,-0.0116772176199,0.0191771953941,-0.999704912799,1.0,0.0,0.0,0.0,1.0,0.0,0.0,0.0,1.0,0.00481039425358,0.000407224637456,-0.000620007805992,1.21846967915e-07,0.0,0.0,0.0,1.21846967915e-07,0.0,0.0,0.0,1.21846967915e-07,-0.293606132269,-0.152797728777,9.78567123413,9e-08,0.0,0.0,0.0,9e-08,0.0,0.0,0.0,9e-08
2767090000000,1749,2767090000000,base_link,0.00929097492747,-0.0116673278454,0.0191627390251,-0.999705123534,1.0,0.0,0.0,0.0,1.0,0.0,0.0,0.0,1.0,-0.00233327783644,-0.00856366381049,0.00324215460569,1.21846967915e-07,0.0,0.0,0.0,1.21846967915e-07,0.0,0.0,0.0,1.21846967915e-07,-0.228136926889,-0.168345570564,9.75978565216,9e-08,0.0,0.0,0.0,9e-08,0.0,0.0,0.0,9e-08
2767110000000,1750,2767106000000,base_link,0.0092863819088,-0.0116593018343,0.01916080027,-0.999705292121,1.0,0.0,0.0,0.0,1.0,0.0,0.0,0.0,1.0,0.00279273930937,-0.00637881830335,0.000433452893049,1.21846967915e-07,0.0,0.0,0.0,1.21846967915e-07,0.0,0.0,0.0,1.21846967915e-07,-0.271731317043,-0.184917911887,9.7617816925,9e-08,0.0,0.0,0.0,9e-08,0.0,0.0,0.0,9e-08
2767130000000,1751,2767130000000,base_link,0.00928804218182,-0.011666190786,0.0191626968782,-0.99970516568,1.0,0.0,0.0,0.0,1.0,0.0,0.0,0.0,1.0,0.00228792708367,-0.00518624531105,0.00166194548365,1.21846967915e-07,0.0,0.0,0.0,1.21846967915e-07,0.0,0.0,0.0,1.21846967915e-07,-0.270553052425,-0.207316592336,9.79924106598,9e-08,0.0,0.0,0.0,9e-08,0.0,0.0,0.0,9e-08
2767150000000,1752,2767150000000,base_link,0.00928999805901,-0.0116610159433,0.0191809464636,-0.999704870652,1.0,0.0,0.0,0.0,1.0,0.0,0.0,0.0,1.0,-0.000158997092512,-0.0059345792979,-0.000189831014723,1.21846967915e-07,0.0,0.0,0.0,1.21846967915e-07,0.0,0.0,0.0,1.21846967915e-07,-0.221141517162,-0.201050102711,9.76091384888,9e-08,0.0,0.0,0.0,9e-08,0.0,0.0,0.0,9e-08
2767170000000,1753,2767170000000,base_link,0.0092645239934,-0.0116895443383,0.0192118822504,-0.999704196303,1.0,0.0,0.0,0.0,1.0,0.0,0.0,0.0,1.0,0.00476926239207,-0.00237413030118,-0.00316282105632,1.21846967915e-07,0.0,0.0,0.0,1.21846967915e-07,0.0,0.0,0.0,1.21846967915e-07,-0.267966538668,-0.123371072114,9.77298164368,9e-08,0.0,0.0,0.0,9e-08,0.0,0.0,0.0,9e-08
2767190000000,1754,2767190000000,base_link,0.00925984923289,-0.0116736198266,0.0192065717475,-0.999704533478,1.0,0.0,0.0,0.0,1.0,0.0,0.0,0.0,1.0,0.001397330896,-0.008216727525,0.00242504896596,1.21846967915e-07,0.0,0.0,0.0,1.21846967915e-07,0.0,0.0,0.0,1.21846967915e-07,-0.168461591005,-0.273443967104,9.75617313385,9e-08,0.0,0.0,0.0,9e-08,0.0,0.0,0.0,9e-08
2767210000000,1755,2767210000000,base_link,0.00927985211073,-0.011683420039,0.0191840653304,-0.999704702065,1.0,0.0,0.0,0.0,1.0,0.0,0.0,0.0,1.0,-0.000806307303719,-0.00361111061648,0.00449347076938,1.21846967915e-07,0.0,0.0,0.0,1.21846967915e-07,0.0,0.0,0.0,1.21846967915e-07,-0.22854334116,-0.195537537336,9.77378749847,9e-08,0.0,0.0,0.0,9e-08,0.0,0.0,0.0,9e-08
2767230000000,1756,2767230000000,base_link,0.00932829052884,-0.0116569954468,0.0192025677969,-0.999704154156,1.0,0.0,0.0,0.0,1.0,0.0,0.0,0.0,1.0,-0.00583430798724,-0.00930583290756,0.000649830442853,1.21846967915e-07,0.0,0.0,0.0,1.21846967915e-07,0.0,0.0,0.0,1.21846967915e-07,-0.231801360846,-0.229719772935,9.84147262573,9e-08,0.0,0.0,0.0,9e-08,0.0,0.0,0.0,9e-08
2767250000000,1757,2767250000000,base_link,0.00932545450691,-0.0116591320944,0.0192240205428,-0.999703774834,1.0,0.0,0.0,0.0,1.0,0.0,0.0,0.0,1.0,0.000168593935086,-0.00618751952425,-0.000524557079189,1.21846967915e-07,0.0,0.0,0.0,1.21846967915e-07,0.0,0.0,0.0,1.21846967915e-07,-0.241640299559,-0.136183172464,9.80299758911,9e-08,0.0,0.0,0.0,9e-08,0.0,0.0,0.0,9e-08
2767270000000,1758,2767270000000,base_link,0.00932643409187,-0.0116464923204,0.0191982266715,-0.99970436489,1.0,0.0,0.0,0.0,1.0,0.0,0.0,0.0,1.0,0.0022656454239,-0.00792046170682,0.00560963107273,1.21846967915e-07,0.0,0.0,0.0,1.21846967915e-07,0.0,0.0,0.0,1.21846967915e-07,-0.407062649727,-0.21078915894,9.75199222565,9e-08,0.0,0.0,0.0,9e-08,0.0,0.0,0.0,9e-08
2767290000000,1759,2767290000000,base_link,0.00930338034196,-0.0116693010917,0.019196709385,-0.99970436489,1.0,0.0,0.0,0.0,1.0,0.0,0.0,0.0,1.0,0.00222780415788,-0.00391063839197,0.0023615793325,1.21846967915e-07,0.0,0.0,0.0,1.21846967915e-07,0.0,0.0,0.0,1.21846967915e-07,-0.166459470987,-0.169244885445,9.75485801697,9e-08,0.0,0.0,0.0,9e-08,0.0,0.0,0.0,9e-08
2767310000000,1760,2767310000000,base_link,0.0092727291287,-0.0116945588255,0.0192197637111,-0.999703901275,1.0,0.0,0.0,0.0,1.0,0.0,0.0,0.0,1.0,0.00413520168513,-0.00204466027208,0.000290985888569,1.21846967915e-07,0.0,0.0,0.0,1.21846967915e-07,0.0,0.0,0.0,1.21846967915e-07,-0.27900788188,-0.211131677032,9.79743671417,9e-08,0.0,0.0,0.0,9e-08,0.0,0.0,0.0,9e-08
2767330000000,1761,2767330000000,base_link,0.00923894176185,-0.011708248731,0.0191939698398,-0.999704575625,1.0,0.0,0.0,0.0,1.0,0.0,0.0,0.0,1.0,0.00589698180556,-0.00296668871306,0.00340812816285,1.21846967915e-07,0.0,0.0,0.0,1.21846967915e-07,0.0,0.0,0.0,1.21846967915e-07,-0.205288514495,-0.238000914454,9.76410770416,9e-08,0.0,0.0,0.0,9e-08,0.0,0.0,0.0,9e-08
2767350000000,1762,2767350000000,base_link,0.00923018344917,-0.0117699448025,0.0191866362882,-0.999704069862,1.0,0.0,0.0,0.0,1.0,0.0,0.0,0.0,1.0,0.00148738804273,-0.0032111518085,0.00194239034317,1.21846967915e-07,0.0,0.0,0.0,1.21846967915e-07,0.0,0.0,0.0,1.21846967915e-07,-0.140193805099,-0.166918188334,9.73244380951,9e-08,0.0,0.0,0.0,9e-08,0.0,0.0,0.0,9e-08
2767370000000,1763,2767370000000,base_link,0.00922459446425,-0.0117919486679,0.0192330821152,-0.999702974044,1.0,0.0,0.0,0.0,1.0,0.0,0.0,0.0,1.0,0.00229593226686,-0.00377645296976,-0.0047325193882,1.21846967915e-07,0.0,0.0,0.0,1.21846967915e-07,0.0,0.0,0.0,1.21846967915e-07,-0.283971905708,-0.154670447111,9.71461486816,9e-08,0.0,0.0,0.0,9e-08,0.0,0.0,0.0,9e-08
2767390000000,1764,2767390000000,base_link,0.00921319612895,-0.011776030577,0.01919864814,-0.999703943422,1.0,0.0,0.0,0.0,1.0,0.0,0.0,0.0,1.0,0.0024099946022,-0.0102258557454,0.00606542266905,1.21846967915e-07,0.0,0.0,0.0,1.21846967915e-07,0.0,0.0,0.0,1.21846967915e-07,-0.240498140454,-0.216396480799,9.82247924805,9e-08,0.0,0.0,0.0,9e-08,0.0,0.0,0.0,9e-08
2767410000000,1765,2767410000000,base_link,0.00920378396389,-0.0117255309969,0.0192250320672,-0.999704027715,1.0,0.0,0.0,0.0,1.0,0.0,0.0,0.0,1.0,0.00268697086722,-0.0136790666729,-0.00267055211589,1.21846967915e-07,0.0,0.0,0.0,1.21846967915e-07,0.0,0.0,0.0,1.21846967915e-07,-0.160102084279,-0.137904182076,9.73879814148,9e-08,0.0,0.0,0.0,9e-08,0.0,0.0,0.0,9e-08
2767430000000,1766,2767430000000,base_link,0.00917955660535,-0.01170456508,0.0192507416447,-0.999704027715,1.0,0.0,0.0,0.0,1.0,0.0,0.0,0.0,1.0,0.00475102942437,-0.0108784884214,-0.00148399430327,1.21846967915e-07,0.0,0.0,0.0,1.21846967915e-07,0.0,0.0,0.0,1.21846967915e-07,-0.219192683697,-0.165881201625,9.83862018585,9e-08,0.0,0.0,0.0,9e-08,0.0,0.0,0.0,9e-08
2767450000000,1767,2767450000000,base_link,0.00917682191696,-0.0116941196586,0.0192279823465,-0.999704617771,1.0,0.0,0.0,0.0,1.0,0.0,0.0,0.0,1.0,0.00315294950269,-0.00587935606018,0.00415168283507,1.21846967915e-07,0.0,0.0,0.0,1.21846967915e-07,0.0,0.0,0.0,1.21846967915e-07,-0.222863852978,-0.235033378005,9.78907585144,9e-08,0.0,0.0,0.0,9e-08,0.0,0.0,0.0,9e-08
2767470000000,1768,2767470000000,base_link,0.00917610871326,-0.0116710317467,0.0192560942945,-0.999704407037,1.0,0.0,0.0,0.0,1.0,0.0,0.0,0.0,1.0,0.000810558442026,-0.00958128832281,-0.00148663320579,1.21846967915e-07,0.0,0.0,0.0,1.21846967915e-07,0.0,0.0,0.0,1.21846967915e-07,-0.245860606432,-0.186911836267,9.76246070862,9e-08,0.0,0.0,0.0,9e-08,0.0,0.0,0.0,9e-08
2767490000000,1769,2767490000000,base_link,0.00914514543222,-0.011708982185,0.0192309326259,-0.999704702065,1.0,0.0,0.0,0.0,1.0,0.0,0.0,0.0,1.0,0.00465657981113,-0.000881791696884,0.00411240104586,1.21846967915e-07,0.0,0.0,0.0,1.21846967915e-07,0.0,0.0,0.0,1.21846967915e-07,-0.177372604609,-0.19171975553,9.86561107635,9e-08,0.0,0.0,0.0,9e-08,0.0,0.0,0.0,9e-08
2767510000000,1770,2767510000000,base_link,0.00917223276724,-0.0117382122592,0.0192335878774,-0.999704069862,1.0,0.0,0.0,0.0,1.0,0.0,0.0,0.0,1.0,-0.00394719326869,-0.00415493361652,0.000706403865479,1.21846967915e-07,0.0,0.0,0.0,1.21846967915e-07,0.0,0.0,0.0,1.21846967915e-07,-0.277681857347,-0.215247452259,9.69768810272,9e-08,0.0,0.0,0.0,9e-08,0.0,0.0,0.0,9e-08
2767530000000,1771,2767530000000,base_link,0.00916902400912,-0.0117357219731,0.0192185414525,-0.999704449184,1.0,0.0,0.0,0.0,1.0,0.0,0.0,0.0,1.0,0.000887771078851,-0.00599076738581,0.00411404808983,1.21846967915e-07,0.0,0.0,0.0,1.21846967915e-07,0.0,0.0,0.0,1.21846967915e-07,-0.257583498955,-0.154123321176,9.74971103668,9e-08,0.0,0.0,0.0,9e-08,0.0,0.0,0.0,9e-08
2767550000000,1772,2767546000000,base_link,0.00915716041213,-0.0117126221251,0.0191994067833,-0.999705123534,1.0,0.0,0.0,0.0,1.0,0.0,0.0,0.0,1.0,0.00205578282475,-0.00968186277896,0.00226888852194,1.21846967915e-07,0.0,0.0,0.0,1.21846967915e-07,0.0,0.0,0.0,1.21846967915e-07,-0.240208119154,-0.196289211512,9.71238136292,9e-08,0.0,0.0,0.0,9e-08,0.0,0.0,0.0,9e-08
2767570000000,1773,2767570000000,base_link,0.00912881682114,-0.0117141300274,0.0192216603193,-0.99970503924,1.0,0.0,0.0,0.0,1.0,0.0,0.0,0.0,1.0,0.00491950800642,-0.00669552572072,-0.00187822442967,1.21846967915e-07,0.0,0.0,0.0,1.21846967915e-07,0.0,0.0,0.0,1.21846967915e-07,-0.24916164577,-0.114428900182,9.80469703674,9e-08,0.0,0.0,0.0,9e-08,0.0,0.0,0.0,9e-08
2767590000000,1774,2767590000000,base_link,0.00911904904205,-0.0117059959326,0.0192086369431,-0.999705418561,1.0,0.0,0.0,0.0,1.0,0.0,0.0,0.0,1.0,0.00278197741136,-0.00743348104879,0.0031808456406,1.21846967915e-07,0.0,0.0,0.0,1.21846967915e-07,0.0,0.0,0.0,1.21846967915e-07,-0.26771479845,-0.149866908789,9.77426719666,9e-08,0.0,0.0,0.0,9e-08,0.0,0.0,0.0,9e-08
2767610000000,1775,2767610000000,base_link,0.00910629212943,-0.0117094462942,0.0192485921555,-0.999704744212,1.0,0.0,0.0,0.0,1.0,0.0,0.0,0.0,1.0,0.000834545353428,-0.00628152303398,-0.00096558133373,1.21846967915e-07,0.0,0.0,0.0,1.21846967915e-07,0.0,0.0,0.0,1.21846967915e-07,-0.276022255421,-0.172098770738,9.82034683228,9e-08,0.0,0.0,0.0,9e-08,0.0,0.0,0.0,9e-08
2767630000000,1776,2767630000000,base_link,0.00910879608028,-0.0117560829346,0.0192497301204,-0.999704112009,1.0,0.0,0.0,0.0,1.0,0.0,0.0,0.0,1.0,0.001907483791,-1.93649611901e-05,0.00119194609579,1.21846967915e-07,0.0,0.0,0.0,1.21846967915e-07,0.0,0.0,0.0,1.21846967915e-07,-0.296050727367,-0.134971901774,9.75700569153,9e-08,0.0,0.0,0.0,9e-08,0.0,0.0,0.0,9e-08
2767650000000,1777,2767646000000,base_link,0.0090966116898,-0.0117780862237,0.0192572322594,-0.999703859128,1.0,0.0,0.0,0.0,1.0,0.0,0.0,0.0,1.0,0.00148753426038,-0.00126982596703,0.000171958934516,1.21846967915e-07,0.0,0.0,0.0,1.21846967915e-07,0.0,0.0,0.0,1.21846967915e-07,-0.307337582111,-0.154079690576,9.74733352661,9e-08,0.0,0.0,0.0,9e-08,0.0,0.0,0.0,9e-08
2767670000000,1778,2767670000000,base_link,0.00910762971564,-0.0118118426389,0.0192616155317,-0.999703269072,1.0,0.0,0.0,0.0,1.0,0.0,0.0,0.0,1.0,0.000366454536561,-0.00308498274535,0.00314901769161,1.21846967915e-07,0.0,0.0,0.0,1.21846967915e-07,0.0,0.0,0.0,1.21846967915e-07,-0.222626775503,-0.183571100235,9.83391857147,9e-08,0.0,0.0,0.0,9e-08,0.0,0.0,0.0,9e-08
2767690000000,1779,2767690000000,base_link,0.00911480027752,-0.0118117171862,0.0192610254758,-0.999703184779,1.0,0.0,0.0,0.0,1.0,0.0,0.0,0.0,1.0,-4.71680541523e-05,-0.00510449195281,0.00301373144612,1.21846967915e-07,0.0,0.0,0.0,1.21846967915e-07,0.0,0.0,0.0,1.21846967915e-07,-0.15811792016,-0.137893125415,9.78733730316,9e-08,0.0,0.0,0.0,9e-08,0.0,0.0,0.0,9e-08
2767710000000,1780,2767710000000,base_link,0.00931656901282,-0.0118452872333,0.0192281930808,-0.999701541051,1.0,0.0,0.0,0.0,1.0,0.0,0.0,0.0,1.0,-0.0247339289635,4.41571173724e-05,0.00702742440626,1.21846967915e-07,0.0,0.0,0.0,1.21846967915e-07,0.0,0.0,0.0,1.21846967915e-07,0.0434089452028,-0.0640567243099,10.3233699799,9e-08,0.0,0.0,0.0,9e-08,0.0,0.0,0.0,9e-08
2767730000000,1781,2767730000000,base_link,0.0100419323277,-0.0119477117308,0.018932954407,-0.999698970094,1.0,0.0,0.0,0.0,1.0,0.0,0.0,0.0,1.0,-0.0933793485165,0.00483940541744,0.0392313487828,1.21846967915e-07,0.0,0.0,0.0,1.21846967915e-07,0.0,0.0,0.0,1.21846967915e-07,0.316157668829,0.440648704767,11.2316360474,9e-08,0.0,0.0,0.0,9e-08,0.0,0.0,0.0,9e-08
2767750000000,1782,2767750000000,base_link,0.0120372478125,-0.0125815087536,0.0183388102835,-0.999680214746,1.0,0.0,0.0,0.0,1.0,0.0,0.0,0.0,1.0,-0.250619083643,0.0825901180506,0.0681812688708,1.21846967915e-07,0.0,0.0,0.0,1.21846967915e-07,0.0,0.0,0.0,1.21846967915e-07,0.711674630642,0.736426353455,11.9444503784,9e-08,0.0,0.0,0.0,9e-08,0.0,0.0,0.0,9e-08
2767770000000,1783,2767770000000,base_link,0.0154730134636,-0.0145143849582,0.0175490626361,-0.999620956277,1.0,0.0,0.0,0.0,1.0,0.0,0.0,0.0,1.0,-0.367380619049,0.200698286295,0.0788654983044,1.21846967915e-07,0.0,0.0,0.0,1.21846967915e-07,0.0,0.0,0.0,1.21846967915e-07,0.518047571182,0.611115396023,12.5937194824,9e-08,0.0,0.0,0.0,9e-08,0.0,0.0,0.0,9e-08
2767790000000,1784,2767790000000,base_link,0.0206276296301,-0.0184635723637,0.0166267631502,-0.999478457782,1.0,0.0,0.0,0.0,1.0,0.0,0.0,0.0,1.0,-0.588303387165,0.459409594536,0.0924943387508,1.21846967915e-07,0.0,0.0,0.0,1.21846967915e-07,0.0,0.0,0.0,1.21846967915e-07,0.142849981785,0.170865282416,13.4026899338,9e-08,0.0,0.0,0.0,9e-08,0.0,0.0,0.0,9e-08
2767810000000,1785,2767810000000,base_link,0.027664940951,-0.0247000158547,0.0156884900086,-0.999188908933,1.0,0.0,0.0,0.0,1.0,0.0,0.0,0.0,1.0,-0.788698494434,0.683773338795,0.0937943607569,1.21846967915e-07,0.0,0.0,0.0,1.21846967915e-07,0.0,0.0,0.0,1.21846967915e-07,-0.207286462188,-0.0769658237696,13.7970161438,9e-08,0.0,0.0,0.0,9e-08,0.0,0.0,0.0,9e-08
2767830000000,1786,2767830000000,base_link,0.0365757208472,-0.0329271034038,0.0147091236898,-0.998679985737,1.0,0.0,0.0,0.0,1.0,0.0,0.0,0.0,1.0,-0.961750984192,0.857119441032,0.0985938608646,1.21846967915e-07,0.0,0.0,0.0,1.21846967915e-07,0.0,0.0,0.0,1.21846967915e-07,-0.64242297411,-0.609786748886,13.8558206558,9e-08,0.0,0.0,0.0,9e-08,0.0,0.0,0.0,9e-08
2767850000000,1787,2767850000000,base_link,0.0474012342116,-0.043684016516,0.0135025437106,-0.997828872278,1.0,0.0,0.0,0.0,1.0,0.0,0.0,0.0,1.0,-0.937963604927,0.885153055191,0.103410393,1.21846967915e-07,0.0,0.0,0.0,1.21846967915e-07,0.0,0.0,0.0,1.21846967915e-07,-0.366709917784,-0.19584774971,13.9841003418,9e-08,0.0,0.0,0.0,9e-08,0.0,0.0,0.0,9e-08
2767870000000,1788,2767866000000,base_link,0.0527958083152,-0.0508862924952,0.0124985214854,-0.99722971268,1.0,0.0,0.0,0.0,1.0,0.0,0.0,0.0,1.0,-0.496089935303,0.672706067562,0.112314671278,1.21846967915e-07,0.0,0.0,0.0,1.21846967915e-07,0.0,0.0,0.0,1.21846967915e-07,-0.23427888751,-0.062437556684,13.8836965561,9e-08,0.0,0.0,0.0,9e-08,0.0,0.0,0.0,9e-08
2767890000000,1789,2767890000000,base_link,0.0548716329241,-0.0548871267477,0.0117244524656,-0.996914791428,1.0,0.0,0.0,0.0,1.0,0.0,0.0,0.0,1.0,-0.25365114212,0.473961472511,0.110961489379,1.21846967915e-07,0.0,0.0,0.0,1.21846967915e-07,0.0,0.0,0.0,1.21846967915e-07,-0.301373004913,-0.252066135406,13.8387184143,9e-08,0.0,0.0,0.0,9e-08,0.0,0.0,0.0,9e-08
2767910000000,1790,2767910000000,base_link,0.0578999595988,-0.0586490788366,0.0106533324576,-0.996541286056,1.0,0.0,0.0,0.0,1.0,0.0,0.0,0.0,1.0,-0.331282496452,0.345584511757,0.112676516175,1.21846967915e-07,0.0,0.0,0.0,1.21846967915e-07,0.0,0.0,0.0,1.21846967915e-07,-0.4284247756,-0.592533648014,13.770409584,9e-08,0.0,0.0,0.0,9e-08,0.0,0.0,0.0,9e-08
2767930000000,1791,2767926000000,base_link,0.0646635375929,-0.0631802556508,0.0092664904073,-0.995862005299,1.0,0.0,0.0,0.0,1.0,0.0,0.0,0.0,1.0,-0.626489758492,0.369651824236,0.103118792176,1.21846967915e-07,0.0,0.0,0.0,1.21846967915e-07,0.0,0.0,0.0,1.21846967915e-07,-0.501230597496,-0.61596518755,13.6080904007,9e-08,0.0,0.0,0.0,9e-08,0.0,0.0,0.0,9e-08
2767950000000,1792,2767950000000,base_link,0.0690023951269,-0.0663325262876,0.00843383726812,-0.995373101856,1.0,0.0,0.0,0.0,1.0,0.0,0.0,0.0,1.0,-0.492929160595,0.373977035284,0.0937882736325,1.21846967915e-07,0.0,0.0,0.0,1.21846967915e-07,0.0,0.0,0.0,1.21846967915e-07,-0.509929895401,-0.0937308296561,13.5557107925,9e-08,0.0,0.0,0.0,9e-08,0.0,0.0,0.0,9e-08
2767970000000,1793,2767970000000,base_link,0.070986312688,-0.0702480190164,0.00743596848278,-0.994972791089,1.0,0.0,0.0,0.0,1.0,0.0,0.0,0.0,1.0,-0.0703572481871,0.291408926249,0.0959855020046,1.21846967915e-07,0.0,0.0,0.0,1.21846967915e-07,0.0,0.0,0.0,1.21846967915e-07,-0.489516019821,-0.128118649125,13.4118680954,9e-08,0.0,0.0,0.0,9e-08,0.0,0.0,0.0,9e-08
2767990000000,1794,2767990000000,base_link,0.0702943250262,-0.0719392452361,0.00690622474384,-0.99490497681,1.0,0.0,0.0,0.0,1.0,0.0,0.0,0.0,1.0,0.09510871768,0.196021139622,0.0884562507272,1.21846967915e-07,0.0,0.0,0.0,1.21846967915e-07,0.0,0.0,0.0,1.21846967915e-07,-0.494062125683,-0.487404435873,13.524769783,9e-08,0.0,0.0,0.0,9e-08,0.0,0.0,0.0,9e-08
2768010000000,1795,2768010000000,base_link,0.0712541513417,-0.0732639677708,0.00611837370463,-0.994745113813,1.0,0.0,0.0,0.0,1.0,0.0,0.0,0.0,1.0,-0.220624953508,0.101750016212,0.0809076800942,1.21846967915e-07,0.0,0.0,0.0,1.21846967915e-07,0.0,0.0,0.0,1.21846967915e-07,-0.507787168026,-0.923959553242,13.5535230637,9e-08,0.0,0.0,0.0,9e-08,0.0,0.0,0.0,9e-08
2768030000000,1796,2768026000000,base_link,0.0753720736963,-0.0744723007131,0.00514941765736,-0.994357278513,1.0,0.0,0.0,0.0,1.0,0.0,0.0,0.0,1.0,-0.477263778448,0.110716097057,0.0730964466929,1.21846967915e-07,0.0,0.0,0.0,1.21846967915e-07,0.0,0.0,0.0,1.21846967915e-07,-0.728240787983,-0.746047079563,13.5973234177,9e-08,0.0,0.0,0.0,9e-08,0.0,0.0,0.0,9e-08
2768050000000,1797,2768050000000,base_link,0.07871891493,-0.0757736878877,0.0043559610873,-0.994003413573,1.0,0.0,0.0,0.0,1.0,0.0,0.0,0.0,1.0,-0.21851618588,0.121273688972,0.0648854225874,1.21846967915e-07,0.0,0.0,0.0,1.21846967915e-07,0.0,0.0,0.0,1.21846967915e-07,-0.651724219322,-0.228342100978,13.8027534485,9e-08,0.0,0.0,0.0,9e-08,0.0,0.0,0.0,9e-08
2768070000000,1798,2768070000000,base_link,0.0778009645954,-0.0769226661724,0.0038818511884,-0.993989378673,1.0,0.0,0.0,0.0,1.0,0.0,0.0,0.0,1.0,0.154040321708,0.100337728858,0.0666457563639,1.21846967915e-07,0.0,0.0,0.0,1.21846967915e-07,0.0,0.0,0.0,1.21846967915e-07,-0.576059281826,-0.233130857348,13.6789169312,9e-08,0.0,0.0,0.0,9e-08,0.0,0.0,0.0,9e-08
2768090000000,1799,2768090000000,base_link,0.0751896758831,-0.0776012795361,0.00353177946467,-0.994138915691,1.0,0.0,0.0,0.0,1.0,0.0,0.0,0.0,1.0,0.212549239397,0.0454774908721,0.0594495274127,1.21846967915e-07,0.0,0.0,0.0,1.21846967915e-07,0.0,0.0,0.0,1.21846967915e-07,-0.603483974934,-0.880903720856,13.9583644867,9e-08,0.0,0.0,0.0,9e-08,0.0,0.0,0.0,9e-08
2768110000000,1800,2768110000000,base_link,0.0758924157246,-0.0779442346163,0.00300119278876,-0.994060396112,1.0,0.0,0.0,0.0,1.0,0.0,0.0,0.0,1.0,-0.233859091997,0.0162817277014,0.0463883951306,1.21846967915e-07,0.0,0.0,0.0,1.21846967915e-07,0.0,0.0,0.0,1.21846967915e-07,-0.67463773489,-1.18054080009,13.7363204956,9e-08,0.0,0.0,0.0,9e-08,0.0,0.0,0.0,9e-08
2768130000000,1801,2768130000000,base_link,0.0801090674835,-0.0782184770802,0.0022528333466,-0.99370990292,1.0,0.0,0.0,0.0,1.0,0.0,0.0,0.0,1.0,-0.465149015188,0.0160102136433,0.0448963753879,1.21846967915e-07,0.0,0.0,0.0,1.21846967915e-07,0.0,0.0,0.0,1.21846967915e-07,-0.805041670799,-0.71982139349,13.8665027618,9e-08,0.0,0.0,0.0,9e-08,0.0,0.0,0.0,9e-08
2768150000000,1802,2768150000000,base_link,0.0823220870401,-0.0785116355766,0.00164406426671,-0.993507092285,1.0,0.0,0.0,0.0,1.0,0.0,0.0,0.0,1.0,-0.174954563379,0.0187502894551,0.0457723513246,1.21846967915e-07,0.0,0.0,0.0,1.21846967915e-07,0.0,0.0,0.0,1.21846967915e-07,-0.779196083546,-0.288985073566,13.738527298,9e-08,0.0,0.0,0.0,9e-08,0.0,0.0,0.0,9e-08
2768170000000,1803,2768170000000,base_link,0.0788029915646,-0.078690140229,0.00135885654284,-0.993778728724,1.0,0.0,0.0,0.0,1.0,0.0,0.0,0.0,1.0,0.388521641493,-0.00130382960197,0.0485466644168,1.21846967915e-07,0.0,0.0,0.0,1.21846967915e-07,0.0,0.0,0.0,1.21846967915e-07,-0.819190561771,-0.558628499508,13.6307277679,9e-08,0.0,0.0,0.0,9e-08,0.0,0.0,0.0,9e-08
2768190000000,1804,2768186000000,base_link,0.0763381665567,-0.0786150486317,0.00117846803121,-0.993977324674,1.0,0.0,0.0,0.0,1.0,0.0,0.0,0.0,1.0,0.313491463661,-0.0202710647136,0.0463103726506,1.21846967915e-07,0.0,0.0,0.0,1.21846967915e-07,0.0,0.0,0.0,1.21846967915e-07,-0.814578235149,-1.19014441967,13.8023071289,9e-08,0.0,0.0,0.0,9e-08,0.0,0.0,0.0,9e-08
2768210000000,1805,2768210000000,base_link,0.0776578033991,-0.0783897547109,0.000654751291617,-0.993893283858,1.0,0.0,0.0,0.0,1.0,0.0,0.0,0.0,1.0,-0.213437542319,-0.0331932790577,0.0409022681415,1.21846967915e-07,0.0,0.0,0.0,1.21846967915e-07,0.0,0.0,0.0,1.21846967915e-07,-0.826178193092,-1.22951281071,13.465051651,9e-08,0.0,0.0,0.0,9e-08,0.0,0.0,0.0,9e-08
2768230000000,1806,2768230000000,base_link,0.0819515390274,-0.0782844148369,1.07052995218e-05,-0.993556994154,1.0,0.0,0.0,0.0,1.0,0.0,0.0,0.0,1.0,-0.457820653915,-0.0140499128029,0.0275113657117,1.21846967915e-07,0.0,0.0,0.0,1.21846967915e-07,0.0,0.0,0.0,1.21846967915e-07,-0.947798550129,-0.785950183868,13.5287189484,9e-08,0.0,0.0,0.0,9e-08,0.0,0.0,0.0,9e-08
2768250000000,1807,2768250000000,base_link,0.0830065702992,-0.078377189764,-0.000389858348726,-0.993461995157,1.0,0.0,0.0,0.0,1.0,0.0,0.0,0.0,1.0,-0.0380957126617,0.00210786401294,0.0327990315855,1.21846967915e-07,0.0,0.0,0.0,1.21846967915e-07,0.0,0.0,0.0,1.21846967915e-07,-0.96978777647,-0.534975647926,13.5365505219,9e-08,0.0,0.0,0.0,9e-08,0.0,0.0,0.0,9e-08
2768270000000,1808,2768270000000,base_link,0.0791232215394,-0.0783512813471,-0.00046163443174,-0.99378092036,1.0,0.0,0.0,0.0,1.0,0.0,0.0,0.0,1.0,0.451426923275,-0.0142700215802,0.0380631349981,1.21846967915e-07,0.0,0.0,0.0,1.21846967915e-07,0.0,0.0,0.0,1.21846967915e-07,-1.07936000824,-0.659871399403,13.5265254974,9e-08,0.0,0.0,0.0,9e-08,0.0,0.0,0.0,9e-08
2768290000000,1809,2768290000000,base_link,0.075901371436,-0.0780070339145,-0.000694032154429,-0.99405908956,1.0,0.0,0.0,0.0,1.0,0.0,0.0,0.0,1.0,0.175691246986,-0.0436505526304,0.0368021167815,1.21846967915e-07,0.0,0.0,0.0,1.21846967915e-07,0.0,0.0,0.0,1.21846967915e-07,-0.989633500576,-1.48472118378,13.7265281677,9e-08,0.0,0.0,0.0,9e-08,0.0,0.0,0.0,9e-08
2768310000000,1810,2768310000000,base_link,0.0790582705705,-0.077692096775,-0.00121825465621,-0.993837144256,1.0,0.0,0.0,0.0,1.0,0.0,0.0,0.0,1.0,-0.309482872486,-0.0434405691922,0.0258405208588,1.21846967915e-07,0.0,0.0,0.0,1.21846967915e-07,0.0,0.0,0.0,1.21846967915e-07,-1.06659173965,-1.29387021065,13.556974411,9e-08,0.0,0.0,0.0,9e-08,0.0,0.0,0.0,9e-08
2768330000000,1811,2768330000000,base_link,0.0825167789739,-0.0776005525853,-0.00164621375599,-0.993562515391,1.0,0.0,0.0,0.0,1.0,0.0,0.0,0.0,1.0,-0.449329912663,-0.017567936331,0.0188502259552,1.21846967915e-07,0.0,0.0,0.0,1.21846967915e-07,0.0,0.0,0.0,1.21846967915e-07,-1.10236799717,-0.746770679951,13.679898262,9e-08,0.0,0.0,0.0,9e-08,0.0,0.0,0.0,9e-08
2768350000000,1812,2768350000000,base_link,0.0824904809867,-0.077600329668,-0.00189938987499,-0.993564327706,1.0,0.0,0.0,0.0,1.0,0.0,0.0,0.0,1.0,0.214126288891,-0.00899398513138,0.0299802031368,1.21846967915e-07,0.0,0.0,0.0,1.21846967915e-07,0.0,0.0,0.0,1.21846967915e-07,-1.00332379341,-0.546675145626,13.5663948059,9e-08,0.0,0.0,0.0,9e-08,0.0,0.0,0.0,9e-08
2768370000000,1813,2768370000000,base_link,0.076790858345,-0.0773576154546,-0.00189273067293,-0.994039997038,1.0,0.0,0.0,0.0,1.0,0.0,0.0,0.0,1.0,0.529418587685,-0.0366420075297,0.0380927547812,1.21846967915e-07,0.0,0.0,0.0,1.21846967915e-07,0.0,0.0,0.0,1.21846967915e-07,-1.11805582047,-1.13843035698,13.6351518631,9e-08,0.0,0.0,0.0,9e-08,0.0,0.0,0.0,9e-08
2768386000000,1814,2768390000000,base_link,0.0749913912598,-0.077029910022,-0.00199304017238,-0.994202599579,1.0,0.0,0.0,0.0,1.0,0.0,0.0,0.0,1.0,0.216496527195,-0.0510906949639,0.0276887826622,1.21846967915e-07,0.0,0.0,0.0,1.21846967915e-07,0.0,0.0,0.0,1.21846967915e-07,-1.13197469711,-1.67099273205,13.6653699875,9e-08,0.0,0.0,0.0,9e-08,0.0,0.0,0.0,9e-08
2768410000000,1815,2768410000000,base_link,0.0780186010018,-0.0765753333764,-0.00248851852348,-0.994003666454,1.0,0.0,0.0,0.0,1.0,0.0,0.0,0.0,1.0,-0.388630479574,-0.0500762052834,0.0224754177034,1.21846967915e-07,0.0,0.0,0.0,1.21846967915e-07,0.0,0.0,0.0,1.21846967915e-07,-1.23286819458,-1.41629528999,13.4455213547,9e-08,0.0,0.0,0.0,9e-08,0.0,0.0,0.0,9e-08
2768430000000,1816,2768430000000,base_link,0.0816023273628,-0.0760488972596,-0.00300953786477,-0.993754831461,1.0,0.0,0.0,0.0,1.0,0.0,0.0,0.0,1.0,-0.216214805841,-0.0532043129206,0.0199987441301,1.21846967915e-07,0.0,0.0,0.0,1.21846967915e-07,0.0,0.0,0.0,1.21846967915e-07,-1.10880661011,-0.794246613979,13.6583690643,9e-08,0.0,0.0,0.0,9e-08,0.0,0.0,0.0,9e-08
2768450000000,1817,2768450000000,base_link,0.0790410380248,-0.0754983899416,-0.0030624743065,-0.994003582161,1.0,0.0,0.0,0.0,1.0,0.0,0.0,0.0,1.0,0.349744766951,-0.0795330256224,0.0265576206148,1.21846967915e-07,0.0,0.0,0.0,1.21846967915e-07,0.0,0.0,0.0,1.21846967915e-07,-1.12693095207,-0.674347221851,13.1137180328,9e-08,0.0,0.0,0.0,9e-08,0.0,0.0,0.0,9e-08
2768470000000,1818,2768466000000,base_link,0.0713033835529,-0.0742157232117,-0.00295651712934,-0.99468551817,1.0,0.0,0.0,0.0,1.0,0.0,0.0,0.0,1.0,0.691100656986,-0.122453466058,0.0329619050026,1.21846967915e-07,0.0,0.0,0.0,1.21846967915e-07,0.0,0.0,0.0,1.21846967915e-07,-1.10619819164,-1.32642686367,11.5759048462,9e-08,0.0,0.0,0.0,9e-08,0.0,0.0,0.0,9e-08
2768490000000,1819,2768490000000,base_link,0.0685771128459,-0.0733132345555,-0.00298804297203,-0.994943962645,1.0,0.0,0.0,0.0,1.0,0.0,0.0,0.0,1.0,0.329809725285,-0.121567063034,0.0213516261429,1.21846967915e-07,0.0,0.0,0.0,1.21846967915e-07,0.0,0.0,0.0,1.21846967915e-07,-1.12111759186,-1.57419276237,10.2090826035,9e-08,0.0,0.0,0.0,9e-08,0.0,0.0,0.0,9e-08
2768510000000,1820,2768510000000,base_link,0.0700714484577,-0.0725604727433,-0.00330321710519,-0.994893976482,1.0,0.0,0.0,0.0,1.0,0.0,0.0,0.0,1.0,-0.22758422792,-0.0737859383225,0.0155563103035,1.21846967915e-07,0.0,0.0,0.0,1.21846967915e-07,0.0,0.0,0.0,1.21846967915e-07,-1.17157995701,-1.4042018652,8.64989757538,9e-08,0.0,0.0,0.0,9e-08,0.0,0.0,0.0,9e-08
2768530000000,1821,2768530000000,base_link,0.0741858227392,-0.0723781465468,-0.00370222132005,-0.994607588647,1.0,0.0,0.0,0.0,1.0,0.0,0.0,0.0,1.0,-0.424330234528,-0.00653241854161,0.00839126110077,1.21846967915e-07,0.0,0.0,0.0,1.21846967915e-07,0.0,0.0,0.0,1.21846967915e-07,-1.00614273548,-0.916639208794,6.70688152313,9e-08,0.0,0.0,0.0,9e-08,0.0,0.0,0.0,9e-08
2768550000000,1822,2768550000000,base_link,0.0771131097943,-0.0725238705103,-0.00398582746368,-0.994373210022,1.0,0.0,0.0,0.0,1.0,0.0,0.0,0.0,1.0,-0.213177919388,0.0167402606457,0.0101527515799,1.21846967915e-07,0.0,0.0,0.0,1.21846967915e-07,0.0,0.0,0.0,1.21846967915e-07,-1.00535070896,-0.606583952904,5.91333770752,9e-08,0.0,0.0,0.0,9e-08,0.0,0.0,0.0,9e-08
2768570000000,1823,2768570000000,base_link,0.0776491862619,-0.0730042811984,-0.00425472435717,-0.994295238352,1.0,0.0,0.0,0.0,1.0,0.0,0.0,0.0,1.0,0.0021048411727,0.039066940546,0.0287214424461,1.21846967915e-07,0.0,0.0,0.0,1.21846967915e-07,0.0,0.0,0.0,1.21846967915e-07,-0.934603333473,-0.700718700886,5.37403774261,9e-08,0.0,0.0,0.0,9e-08,0.0,0.0,0.0,9e-08
2768586000000,1824,2768590000000,base_link,0.0776955846737,-0.0737631510109,-0.0044152195563,-0.994234884065,1.0,0.0,0.0,0.0,1.0,0.0,0.0,0.0,1.0,-0.0031707463786,0.0905132591724,0.0282701104879,1.21846967915e-07,0.0,0.0,0.0,1.21846967915e-07,0.0,0.0,0.0,1.21846967915e-07,-0.98193603754,-0.940466403961,5.20879459381,9e-08,0.0,0.0,0.0,9e-08,0.0,0.0,0.0,9e-08
2768610000000,1825,2768610000000,base_link,0.0789606776495,-0.0754315313751,-0.00467391691246,-0.99400880837,1.0,0.0,0.0,0.0,1.0,0.0,0.0,0.0,1.0,-0.149846464396,0.171745300293,0.0296005755663,1.21846967915e-07,0.0,0.0,0.0,1.21846967915e-07,0.0,0.0,0.0,1.21846967915e-07,-0.9611941576,-0.992779254913,5.53689861298,9e-08,0.0,0.0,0.0,9e-08,0.0,0.0,0.0,9e-08
2768630000000,1826,2768626000000,base_link,0.0808266628543,-0.0773407131483,-0.00492131891322,-0.993710830151,1.0,0.0,0.0,0.0,1.0,0.0,0.0,0.0,1.0,-0.174457043409,0.180396467447,0.0249032899737,1.21846967915e-07,0.0,0.0,0.0,1.21846967915e-07,0.0,0.0,0.0,1.21846967915e-07,-0.910306453705,-0.851490676403,5.80141210556,9e-08,0.0,0.0,0.0,9e-08,0.0,0.0,0.0,9e-08
2768650000000,1827,2768650000000,base_link,0.0814212738035,-0.0788114347534,-0.0051073972494,-0.993545825239,1.0,0.0,0.0,0.0,1.0,0.0,0.0,0.0,1.0,-0.0361717119813,0.131114333868,0.0275206509978,1.21846967915e-07,0.0,0.0,0.0,1.21846967915e-07,0.0,0.0,0.0,1.21846967915e-07,-0.943872392178,-0.823835790157,6.32219219208,9e-08,0.0,0.0,0.0,9e-08,0.0,0.0,0.0,9e-08
2768670000000,1828,2768670000000,base_link,0.0801313500161,-0.0794741712882,-0.00524947427573,-0.993597202247,1.0,0.0,0.0,0.0,1.0,0.0,0.0,0.0,1.0,0.156097382307,0.0436589159071,0.0289666056633,1.21846967915e-07,0.0,0.0,0.0,1.21846967915e-07,0.0,0.0,0.0,1.21846967915e-07,-0.982641637325,-0.784303367138,6.73088121414,9e-08,0.0,0.0,0.0,9e-08,0.0,0.0,0.0,9e-08
2768690000000,1829,2768690000000,base_link,0.0779848420759,-0.0791576174014,-0.00535079529955,-0.993792679331,1.0,0.0,0.0,0.0,1.0,0.0,0.0,0.0,1.0,0.221650436521,-0.0555249117315,0.0252028591931,1.21846967915e-07,0.0,0.0,0.0,1.21846967915e-07,0.0,0.0,0.0,1.21846967915e-07,-0.896779716015,-0.881301641464,7.09568500519,9e-08,0.0,0.0,0.0,9e-08,0.0,0.0,0.0,9e-08
2768710000000,1830,2768710000000,base_link,0.0759209390159,-0.0778602882192,-0.0054681321258,-0.994054326966,1.0,0.0,0.0,0.0,1.0,0.0,0.0,0.0,1.0,0.203560486436,-0.149674087763,0.0181624740362,1.21846967915e-07,0.0,0.0,0.0,1.21846967915e-07,0.0,0.0,0.0,1.21846967915e-07,-0.937775671482,-0.915522873402,7.43949460983,9e-08,0.0,0.0,0.0,9e-08,0.0,0.0,0.0,9e-08
2768730000000,1831,2768730000000,base_link,0.0729573671462,-0.0754325405945,-0.00556119236732,-0.994462814222,1.0,0.0,0.0,0.0,1.0,0.0,0.0,0.0,1.0,0.263627141714,-0.224766895175,0.0100203808397,1.21846967915e-07,0.0,0.0,0.0,1.21846967915e-07,0.0,0.0,0.0,1.21846967915e-07,-1.06697177887,-0.88803601265,7.60169839859,9e-08,0.0,0.0,0.0,9e-08,0.0,0.0,0.0,9e-08
2768750000000,1832,2768750000000,base_link,0.0703509599362,-0.0734718942265,-0.00561459242438,-0.994797080878,1.0,0.0,0.0,0.0,1.0,0.0,0.0,0.0,1.0,0.329790592194,-0.256350427866,0.0147048309445,1.21846967915e-07,0.0,0.0,0.0,1.21846967915e-07,0.0,0.0,0.0,1.21846967915e-07,-0.996787965298,-0.968748688698,7.77424907684,9e-08,0.0,0.0,0.0,9e-08,0.0,0.0,0.0,9e-08
2768770000000,1833,2768770000000,base_link,0.0665103515793,-0.0706646801677,-0.00558761844133,-0.995264658015,1.0,0.0,0.0,0.0,1.0,0.0,0.0,0.0,1.0,0.391748964787,-0.296076238155,0.0060095814988,1.21846967915e-07,0.0,0.0,0.0,1.21846967915e-07,0.0,0.0,0.0,1.21846967915e-07,-1.03930163383,-1.00328552723,7.87588977814,9e-08,0.0,0.0,0.0,9e-08,0.0,0.0,0.0,9e-08
2768790000000,1834,2768790000000,base_link,0.0627359967512,-0.0675017901715,-0.00554083543948,-0.995729369167,1.0,0.0,0.0,0.0,1.0,0.0,0.0,0.0,1.0,0.364790439606,-0.3362814188,0.00105818803422,1.21846967915e-07,0.0,0.0,0.0,1.21846967915e-07,0.0,0.0,0.0,1.21846967915e-07,-1.01363945007,-0.990218579769,7.88215732574,9e-08,0.0,0.0,0.0,9e-08,0.0,0.0,0.0,9e-08
2768810000000,1835,2768810000000,base_link,0.0559272433447,-0.0659488722513,0.0380921109499,-0.995525968476,1.0,0.0,0.0,0.0,1.0,0.0,0.0,0.0,1.0,0.322239547968,-0.348420500755,-3.2424024539e-05,1.21846967915e-07,0.0,0.0,0.0,1.21846967915e-07,0.0,0.0,0.0,1.21846967915e-07,-0.997310817242,-1.06557488441,7.91622495651,9e-08,0.0,0.0,0.0,9e-08,0.0,0.0,0.0,9e-08
2768830000000,1836,2768830000000,base_link,0.053075285961,-0.0623685356659,0.0377772318447,-0.99592471981,1.0,0.0,0.0,0.0,1.0,0.0,0.0,0.0,1.0,0.298783868551,-0.351385235786,0.00879521854222,1.21846967915e-07,0.0,0.0,0.0,1.21846967915e-07,0.0,0.0,0.0,1.21846967915e-07,-1.1310801506,-0.982564270496,8.04069709778,9e-08,0.0,0.0,0.0,9e-08,0.0,0.0,0.0,9e-08
2768850000000,1837,2768850000000,base_link,0.0504535791157,-0.0588219037176,0.0371237449585,-0.996301301901,1.0,0.0,0.0,0.0,1.0,0.0,0.0,0.0,1.0,0.27642250061,-0.347746908665,0.026998180896,1.21846967915e-07,0.0,0.0,0.0,1.21846967915e-07,0.0,0.0,0.0,1.21846967915e-07,-1.04169535637,-1.12208592892,7.90789842606,9e-08,0.0,0.0,0.0,9e-08,0.0,0.0,0.0,9e-08
2768870000000,1838,2768866000000,base_link,0.0485855695451,-0.056069649314,0.0364058576878,-0.996579344661,1.0,0.0,0.0,0.0,1.0,0.0,0.0,0.0,1.0,0.241681814194,-0.337373614311,0.0447301492095,1.21846967915e-07,0.0,0.0,0.0,1.21846967915e-07,0.0,0.0,0.0,1.21846967915e-07,-1.03579235077,-1.03629243374,7.81355428696,9e-08,0.0,0.0,0.0,9e-08,0.0,0.0,0.0,9e-08
2768890000000,1839,2768890000000,base_link,0.0464766907352,-0.0527711085333,0.035358887824,-0.996897679807,1.0,0.0,0.0,0.0,1.0,0.0,0.0,0.0,1.0,0.222526699305,-0.323102921247,0.0604876428843,1.21846967915e-07,0.0,0.0,0.0,1.21846967915e-07,0.0,0.0,0.0,1.21846967915e-07,-1.02924776077,-0.985492527485,7.742623806,9e-08,0.0,0.0,0.0,9e-08,0.0,0.0,0.0,9e-08
2768910000000,1840,2768910000000,base_link,0.044142166918,-0.0491465526598,0.0336941294546,-0.997246613566,1.0,0.0,0.0,0.0,1.0,0.0,0.0,0.0,1.0,0.205784708261,-0.293839991093,0.0768638849258,1.21846967915e-07,0.0,0.0,0.0,1.21846967915e-07,0.0,0.0,0.0,1.21846967915e-07,-1.06597578526,-0.969271361828,7.70060396194,9e-08,0.0,0.0,0.0,9e-08,0.0,0.0,0.0,9e-08
2768930000000,1841,2768930000000,base_link,0.04261047718,-0.0470243108294,0.0324152254834,-0.997457937865,1.0,0.0,0.0,0.0,1.0,0.0,0.0,0.0,1.0,0.203583210707,-0.260433971882,0.092882104218,1.21846967915e-07,0.0,0.0,0.0,1.21846967915e-07,0.0,0.0,0.0,1.21846967915e-07,-0.998553752899,-0.958828628063,7.71445941925,9e-08,0.0,0.0,0.0,9e-08,0.0,0.0,0.0,9e-08
2768950000000,1842,2768950000000,base_link,0.0407911742198,-0.0446132239692,0.0306033324659,-0.997701968118,1.0,0.0,0.0,0.0,1.0,0.0,0.0,0.0,1.0,0.187581852078,-0.228154689074,0.109749101102,1.21846967915e-07,0.0,0.0,0.0,1.21846967915e-07,0.0,0.0,0.0,1.21846967915e-07,-1.16230213642,-0.997834742069,7.81439590454,9e-08,0.0,0.0,0.0,9e-08,0.0,0.0,0.0,9e-08
2768970000000,1843,2768966000000,base_link,0.0391448381391,-0.042578175078,0.0286195224534,-0.997915694786,1.0,0.0,0.0,0.0,1.0,0.0,0.0,0.0,1.0,0.17004211247,-0.197865650058,0.11907351017,1.21846967915e-07,0.0,0.0,0.0,1.21846967915e-07,0.0,0.0,0.0,1.21846967915e-07,-1.12217569351,-1.06577122211,7.8617181778,9e-08,0.0,0.0,0.0,9e-08,0.0,0.0,0.0,9e-08
2768990000000,1844,2768990000000,base_link,0.0375650693837,-0.0408878594195,0.0265932705644,-0.998103163968,1.0,0.0,0.0,0.0,1.0,0.0,0.0,0.0,1.0,0.166403770447,-0.163862943649,0.123731806874,1.21846967915e-07,0.0,0.0,0.0,1.21846967915e-07,0.0,0.0,0.0,1.21846967915e-07,-1.08811223507,-1.0280315876,7.94373130798,9e-08,0.0,0.0,0.0,9e-08,0.0,0.0,0.0,9e-08
2769010000000,1845,2769010000000,base_link,0.0360930930044,-0.0394581043042,0.02445916489,-0.998269601873,1.0,0.0,0.0,0.0,1.0,0.0,0.0,0.0,1.0,0.153494760394,-0.140074670315,0.126741498709,1.21846967915e-07,0.0,0.0,0.0,1.21846967915e-07,0.0,0.0,0.0,1.21846967915e-07,-1.15304744244,-1.02474522591,8.09691143036,9e-08,0.0,0.0,0.0,9e-08,0.0,0.0,0.0,9e-08
2769030000000,1846,2769026000000,base_link,0.0346221115212,-0.038245511649,0.0223287681383,-0.99841875957,1.0,0.0,0.0,0.0,1.0,0.0,0.0,0.0,1.0,0.154299244285,-0.118176624179,0.125333994627,1.21846967915e-07,0.0,0.0,0.0,1.21846967915e-07,0.0,0.0,0.0,1.21846967915e-07,-1.11882674694,-0.954551875591,8.18820476532,9e-08,0.0,0.0,0.0,9e-08,0.0,0.0,0.0,9e-08
2769050000000,1847,2769050000000,base_link,0.0331824178168,-0.0372867019617,0.0202464609408,-0.998548318982,1.0,0.0,0.0,0.0,1.0,0.0,0.0,0.0,1.0,0.147736519575,-0.0925794094801,0.120254918933,1.21846967915e-07,0.0,0.0,0.0,1.21846967915e-07,0.0,0.0,0.0,1.21846967915e-07,-1.05664551258,-1.13895797729,8.18514442444,9e-08,0.0,0.0,0.0,9e-08,0.0,0.0,0.0,9e-08
2769070000000,1848,2769070000000,base_link,0.0318457122417,-0.0365052070294,0.0180643921529,-0.998662579089,1.0,0.0,0.0,0.0,1.0,0.0,0.0,0.0,1.0,0.137568831444,-0.0770442187786,0.12379039079,1.21846967915e-07,0.0,0.0,0.0,1.21846967915e-07,0.0,0.0,0.0,1.21846967915e-07,-1.06456923485,-0.965869307518,8.2465763092,9e-08,0.0,0.0,0.0,9e-08,0.0,0.0,0.0,9e-08
2769090000000,1849,2769090000000,base_link,0.0303850376385,-0.0357293117011,0.0155468765976,-0.998778482922,1.0,0.0,0.0,0.0,1.0,0.0,0.0,0.0,1.0,0.125673115253,-0.0668113082647,0.119402706623,1.21846967915e-07,0.0,0.0,0.0,1.21846967915e-07,0.0,0.0,0.0,1.21846967915e-07,-1.05505537987,-0.963264167309,8.24808120728,9e-08,0.0,0.0,0.0,9e-08,0.0,0.0,0.0,9e-08
2769110000000,1850,2769110000000,base_link,0.0293991482717,-0.0352380910049,0.0139390164738,-0.998849247481,1.0,0.0,0.0,0.0,1.0,0.0,0.0,0.0,1.0,0.126079186797,-0.0641018822789,0.111324571073,1.21846967915e-07,0.0,0.0,0.0,1.21846967915e-07,0.0,0.0,0.0,1.21846967915e-07,-1.06936335564,-0.985813379288,8.36146354675,9e-08,0.0,0.0,0.0,9e-08,0.0,0.0,0.0,9e-08
2769126000000,1851,2769130000000,base_link,0.028001580507,-0.0346045599929,0.0115228219423,-0.998942307722,1.0,0.0,0.0,0.0,1.0,0.0,0.0,0.0,1.0,0.117470696568,-0.0532359629869,0.111430838704,1.21846967915e-07,0.0,0.0,0.0,1.21846967915e-07,0.0,0.0,0.0,1.21846967915e-07,-1.0073517561,-0.987831890583,8.32491779327,9e-08,0.0,0.0,0.0,9e-08,0.0,0.0,0.0,9e-08
2769150000000,1852,2769146000000,base_link,0.0271190643533,-0.0342544019999,0.0100088228501,-0.998995075577,1.0,0.0,0.0,0.0,1.0,0.0,0.0,0.0,1.0,0.111669518054,-0.0475149825215,0.103248476982,1.21846967915e-07,0.0,0.0,0.0,1.21846967915e-07,0.0,0.0,0.0,1.21846967915e-07,-1.01717412472,-0.915066540241,8.35868835449,9e-08,0.0,0.0,0.0,9e-08,0.0,0.0,0.0,9e-08
2769170000000,1853,2769166000000,base_link,0.0261144787433,-0.0338797161873,0.00821876190017,-0.999050878004,1.0,0.0,0.0,0.0,1.0,0.0,0.0,0.0,1.0,0.100556828082,-0.0428487583995,0.0916314274073,1.21846967915e-07,0.0,0.0,0.0,1.21846967915e-07,0.0,0.0,0.0,1.21846967915e-07,-0.917843878269,-0.900538504124,8.33923435211,9e-08,0.0,0.0,0.0,9e-08,0.0,0.0,0.0,9e-08
2769190000000,1854,2769190000000,base_link,0.0251271621459,-0.0335603013568,0.00645546419902,-0.999099979083,1.0,0.0,0.0,0.0,1.0,0.0,0.0,0.0,1.0,0.0982140153646,-0.0367219485343,0.0935504958034,1.21846967915e-07,0.0,0.0,0.0,1.21846967915e-07,0.0,0.0,0.0,1.21846967915e-07,-1.06247997284,-0.971178770065,8.39824199677,9e-08,0.0,0.0,0.0,9e-08,0.0,0.0,0.0,9e-08
2769210000000,1855,2769210000000,base_link,0.0242098814276,-0.0332606234345,0.00482939663662,-0.999141830903,1.0,0.0,0.0,0.0,1.0,0.0,0.0,0.0,1.0,0.0906811356544,-0.0339543893933,0.0840217471123,1.21846967915e-07,0.0,0.0,0.0,1.21846967915e-07,0.0,0.0,0.0,1.21846967915e-07,-1.01753568649,-0.957575380802,8.43462944031,9e-08,0.0,0.0,0.0,9e-08,0.0,0.0,0.0,9e-08
2769230000000,1856,2769230000000,base_link,0.0232161673996,-0.0327935224248,0.00300182499149,-0.999188023849,1.0,0.0,0.0,0.0,1.0,0.0,0.0,0.0,1.0,0.0818529054523,-0.0447676517069,0.0749409645796,1.21846967915e-07,0.0,0.0,0.0,1.21846967915e-07,0.0,0.0,0.0,1.21846967915e-07,-0.965059041977,-0.927419304848,8.48002624512,9e-08,0.0,0.0,0.0,9e-08,0.0,0.0,0.0,9e-08
2769250000000,1857,2769250000000,base_link,0.0226812544155,-0.0324592356836,0.00190482681845,-0.999213902014,1.0,0.0,0.0,0.0,1.0,0.0,0.0,0.0,1.0,0.0657776892185,-0.0476189106703,0.0653349012136,1.21846967915e-07,0.0,0.0,0.0,1.21846967915e-07,0.0,0.0,0.0,1.21846967915e-07,-1.01807022095,-0.867749512196,8.35809707642,9e-08,0.0,0.0,0.0,9e-08,0.0,0.0,0.0,9e-08
2769270000000,1858,2769270000000,base_link,0.0219157254009,-0.0320016473493,0.000324741467777,-0.999247450906,1.0,0.0,0.0,0.0,1.0,0.0,0.0,0.0,1.0,0.0622113980353,-0.0425929687917,0.0599485710263,1.21846967915e-07,0.0,0.0,0.0,1.21846967915e-07,0.0,0.0,0.0,1.21846967915e-07,-0.94768768549,-0.86171579361,8.53044605255,9e-08,0.0,0.0,0.0,9e-08,0.0,0.0,0.0,9e-08
2769290000000,1859,2769290000000,base_link,0.0214493310095,-0.0317082078191,-0.0006283252176,-0.999266796309,1.0,0.0,0.0,0.0,1.0,0.0,0.0,0.0,1.0,0.0582871437073,-0.0427567735314,0.0525907799602,1.21846967915e-07,0.0,0.0,0.0,1.21846967915e-07,0.0,0.0,0.0,1.21846967915e-07,-0.965733647346,-0.802605450153,8.54974842072,9e-08,0.0,0.0,0.0,9e-08,0.0,0.0,0.0,9e-08
2769310000000,1860,2769310000000,base_link,0.020911843775,-0.0313532829516,-0.00174875703841,-0.999288038321,1.0,0.0,0.0,0.0,1.0,0.0,0.0,0.0,1.0,0.0511207692325,-0.0429193601012,0.0494526438415,1.21846967915e-07,0.0,0.0,0.0,1.21846967915e-07,0.0,0.0,0.0,1.21846967915e-07,-1.03249228001,-0.831254184246,8.50092887878,9e-08,0.0,0.0,0.0,9e-08,0.0,0.0,0.0,9e-08
2769330000000,1861,2769330000000,base_link,0.0204821625813,-0.03103233931,-0.00272947205641,-0.99930477062,1.0,0.0,0.0,0.0,1.0,0.0,0.0,0.0,1.0,0.0401140376925,-0.0388021245599,0.0370203778148,1.21846967915e-07,0.0,0.0,0.0,1.21846967915e-07,0.0,0.0,0.0,1.21846967915e-07,-0.998773515224,-0.848543763161,8.68618869781,9e-08,0.0,0.0,0.0,9e-08,0.0,0.0,0.0,9e-08
2769350000000,1862,2769350000000,base_link,0.0200144590034,-0.0307201049196,-0.00364018115904,-0.999321039303,1.0,0.0,0.0,0.0,1.0,0.0,0.0,0.0,1.0,0.0473467446864,-0.0385772995651,0.0363296084106,1.21846967915e-07,0.0,0.0,0.0,1.21846967915e-07,0.0,0.0,0.0,1.21846967915e-07,-0.97707515955,-0.849359810352,8.61343669891,9e-08,0.0,0.0,0.0,9e-08,0.0,0.0,0.0,9e-08
2769370000000,1863,2769370000000,base_link,0.0194779263291,-0.0302629308098,-0.00457204797961,-0.999341775553,1.0,0.0,0.0,0.0,1.0,0.0,0.0,0.0,1.0,0.0463038310409,-0.0461625047028,0.0199280660599,1.21846967915e-07,0.0,0.0,0.0,1.21846967915e-07,0.0,0.0,0.0,1.21846967915e-07,-0.985509037971,-0.82433450222,8.59844303131,9e-08,0.0,0.0,0.0,9e-08,0.0,0.0,0.0,9e-08
2769390000000,1864,2769390000000,base_link,0.0191309711673,-0.0299381442317,-0.00516020725058,-0.999355388985,1.0,0.0,0.0,0.0,1.0,0.0,0.0,0.0,1.0,0.0436220392585,-0.0475126504898,0.022945297882,1.21846967915e-07,0.0,0.0,0.0,1.21846967915e-07,0.0,0.0,0.0,1.21846967915e-07,-0.983892977238,-0.842038810253,8.58633422852,9e-08,0.0,0.0,0.0,9e-08,0.0,0.0,0.0,9e-08
2769410000000,1865,2769410000000,base_link,0.0188003841292,-0.0295635143954,-0.00586692560641,-0.999368875976,1.0,0.0,0.0,0.0,1.0,0.0,0.0,0.0,1.0,0.0260327979922,-0.0366630703211,0.0132762789726,1.21846967915e-07,0.0,0.0,0.0,1.21846967915e-07,0.0,0.0,0.0,1.21846967915e-07,-0.952486455441,-0.835253179073,8.59917449951,9e-08,0.0,0.0,0.0,9e-08,0.0,0.0,0.0,9e-08
2769430000000,1866,2769430000000,base_link,0.0186904905022,-0.0292823537568,-0.00646793966618,-0.999375535178,1.0,0.0,0.0,0.0,1.0,0.0,0.0,0.0,1.0,0.00922265276313,-0.0351271182299,0.0126638170332,1.21846967915e-07,0.0,0.0,0.0,1.21846967915e-07,0.0,0.0,0.0,1.21846967915e-07,-0.998435080051,-0.77288454771,8.66849040985,9e-08,0.0,0.0,0.0,9e-08,0.0,0.0,0.0,9e-08
2769450000000,1867,2769450000000,base_link,0.0186050634501,-0.0290364697012,-0.00698638804971,-0.999380803534,1.0,0.0,0.0,0.0,1.0,0.0,0.0,0.0,1.0,0.00930789299309,-0.0326692610979,0.0087344609201,1.21846967915e-07,0.0,0.0,0.0,1.21846967915e-07,0.0,0.0,0.0,1.21846967915e-07,-0.950350821018,-0.84857070446,8.67303466797,9e-08,0.0,0.0,0.0,9e-08,0.0,0.0,0.0,9e-08
2769470000000,1868,2769470000000,base_link,0.0184570180349,-0.0288473666701,-0.00737607781104,-0.999386198331,1.0,0.0,0.0,0.0,1.0,0.0,0.0,0.0,1.0,0.0196661539376,-0.028910337016,0.00924206525087,1.21846967915e-07,0.0,0.0,0.0,1.21846967915e-07,0.0,0.0,0.0,1.21846967915e-07,-0.856265664101,-0.750543057919,8.76135349274,9e-08,0.0,0.0,0.0,9e-08,0.0,0.0,0.0,9e-08
2769490000000,1869,2769490000000,base_link,0.0181762986211,-0.0285622488375,-0.00790295556428,-0.999395512784,1.0,0.0,0.0,0.0,1.0,0.0,0.0,0.0,1.0,0.0252427272499,-0.0326585583389,0.00282533373684,1.21846967915e-07,0.0,0.0,0.0,1.21846967915e-07,0.0,0.0,0.0,1.21846967915e-07,-0.899502635002,-0.756612062454,8.80396652222,9e-08,0.0,0.0,0.0,9e-08,0.0,0.0,0.0,9e-08
2769510000000,1870,2769510000000,base_link,0.0180377092465,-0.0283416785742,-0.00820004869943,-0.999401876959,1.0,0.0,0.0,0.0,1.0,0.0,0.0,0.0,1.0,0.0183435045183,-0.0349068231881,0.00133858423214,1.21846967915e-07,0.0,0.0,0.0,1.21846967915e-07,0.0,0.0,0.0,1.21846967915e-07,-0.825327813625,-0.733343839645,8.77096939087,9e-08,0.0,0.0,0.0,9e-08,0.0,0.0,0.0,9e-08
2769530000000,1871,2769530000000,base_link,0.0179076315596,-0.0279814040204,-0.00853317739006,-0.999411655027,1.0,0.0,0.0,0.0,1.0,0.0,0.0,0.0,1.0,0.0107830446213,-0.0364996269345,-0.00921050272882,1.21846967915e-07,0.0,0.0,0.0,1.21846967915e-07,0.0,0.0,0.0,1.21846967915e-07,-0.900258898735,-0.734359204769,8.78461647034,9e-08,0.0,0.0,0.0,9e-08,0.0,0.0,0.0,9e-08
2769550000000,1872,2769550000000,base_link,0.0178371215284,-0.0277415604642,-0.00873952836037,-0.999417808467,1.0,0.0,0.0,0.0,1.0,0.0,0.0,0.0,1.0,0.0133644873276,-0.0374545119703,-0.00811306666583,1.21846967915e-07,0.0,0.0,0.0,1.21846967915e-07,0.0,0.0,0.0,1.21846967915e-07,-0.926375448704,-0.751127123833,8.8109369278,9e-08,0.0,0.0,0.0,9e-08,0.0,0.0,0.0,9e-08
2769570000000,1873,2769570000000,base_link,0.0176094617042,-0.0273136471333,-0.00901533733703,-0.999431211165,1.0,0.0,0.0,0.0,1.0,0.0,0.0,0.0,1.0,0.0203993637115,-0.0441587902606,-0.00843638647348,1.21846967915e-07,0.0,0.0,0.0,1.21846967915e-07,0.0,0.0,0.0,1.21846967915e-07,-0.889694988728,-0.641394615173,8.87101840973,9e-08,0.0,0.0,0.0,9e-08,0.0,0.0,0.0,9e-08
2769590000000,1874,2769590000000,base_link,0.0173684512072,-0.0268468803349,-0.00917996292731,-0.999446552618,1.0,0.0,0.0,0.0,1.0,0.0,0.0,0.0,1.0,0.0253661200404,-0.0544467642903,-0.0145223848522,1.21846967915e-07,0.0,0.0,0.0,1.21846967915e-07,0.0,0.0,0.0,1.21846967915e-07,-0.969685435295,-0.769031345844,8.82490158081,9e-08,0.0,0.0,0.0,9e-08,0.0,0.0,0.0,9e-08
2769610000000,1875,2769610000000,base_link,0.0172200462267,-0.0264955580352,-0.0092494630805,-0.999457805826,1.0,0.0,0.0,0.0,1.0,0.0,0.0,0.0,1.0,0.0190935824066,-0.0503551736474,-0.0199474655092,1.21846967915e-07,0.0,0.0,0.0,1.21846967915e-07,0.0,0.0,0.0,1.21846967915e-07,-0.887987136841,-0.75398594141,8.83367919922,9e-08,0.0,0.0,0.0,9e-08,0.0,0.0,0.0,9e-08
2769630000000,1876,2769630000000,base_link,0.0170606405894,-0.0261697059321,-0.0092948973832,-0.999468764007,1.0,0.0,0.0,0.0,1.0,0.0,0.0,0.0,1.0,0.0168395489454,-0.0359457582235,-0.0221637450159,1.21846967915e-07,0.0,0.0,0.0,1.21846967915e-07,0.0,0.0,0.0,1.21846967915e-07,-0.863208055496,-0.707451045513,8.91207027435,9e-08,0.0,0.0,0.0,9e-08,0.0,0.0,0.0,9e-08
2769650000000,1877,2769650000000,base_link,0.0168716788161,-0.0259215100559,-0.00938981208605,-0.999477530552,1.0,0.0,0.0,0.0,1.0,0.0,0.0,0.0,1.0,0.0235909968615,-0.0281304530799,-0.0128419520333,1.21846967915e-07,0.0,0.0,0.0,1.21846967915e-07,0.0,0.0,0.0,1.21846967915e-07,-0.820170044899,-0.645054042339,8.88564586639,9e-08,0.0,0.0,0.0,9e-08,0.0,0.0,0.0,9e-08
2769670000000,1878,2769670000000,base_link,0.0166594256407,-0.025685584181,-0.0094306945291,-0.999486802858,1.0,0.0,0.0,0.0,1.0,0.0,0.0,0.0,1.0,0.0260839276016,-0.0298348888755,-0.0199005156755,1.21846967915e-07,0.0,0.0,0.0,1.21846967915e-07,0.0,0.0,0.0,1.21846967915e-07,-0.862227261066,-0.615314424038,8.88927650452,9e-08,0.0,0.0,0.0,9e-08,0.0,0.0,0.0,9e-08
2769690000000,1879,2769690000000,base_link,0.0164537190562,-0.0254164274917,-0.00951111071606,-0.999496328046,1.0,0.0,0.0,0.0,1.0,0.0,0.0,0.0,1.0,0.020980771631,-0.0353453010321,-0.0141324009746,1.21846967915e-07,0.0,0.0,0.0,1.21846967915e-07,0.0,0.0,0.0,1.21846967915e-07,-0.880849957466,-0.723095417023,9.00145149231,9e-08,0.0,0.0,0.0,9e-08,0.0,0.0,0.0,9e-08
2769710000000,1880,2769710000000,base_link,0.0162893502982,-0.0251476583559,-0.0094956849695,-0.999505937527,1.0,0.0,0.0,0.0,1.0,0.0,0.0,0.0,1.0,0.017011847347,-0.033216509968,-0.0233631357551,1.21846967915e-07,0.0,0.0,0.0,1.21846967915e-07,0.0,0.0,0.0,1.21846967915e-07,-0.870164573193,-0.739373266697,8.98285675049,9e-08,0.0,0.0,0.0,9e-08,0.0,0.0,0.0,9e-08
2769730000000,1881,2769730000000,base_link,0.0161545304324,-0.0248600324566,-0.00947149267846,-0.999515547009,1.0,0.0,0.0,0.0,1.0,0.0,0.0,0.0,1.0,0.0148237589747,-0.035989895463,-0.0214759707451,1.21846967915e-07,0.0,0.0,0.0,1.21846967915e-07,0.0,0.0,0.0,1.21846967915e-07,-0.740441918373,-0.720071017742,9.03034305573,9e-08,0.0,0.0,0.0,9e-08,0.0,0.0,0.0,9e-08
2769750000000,1882,2769750000000,base_link,0.0159778439287,-0.0246269989092,-0.00943086311649,-0.999524566435,1.0,0.0,0.0,0.0,1.0,0.0,0.0,0.0,1.0,0.0211882311851,-0.0284779369831,-0.0242262594402,1.21846967915e-07,0.0,0.0,0.0,1.21846967915e-07,0.0,0.0,0.0,1.21846967915e-07,-0.831215620041,-0.67903226614,9.12741756439,9e-08,0.0,0.0,0.0,9e-08,0.0,0.0,0.0,9e-08
2769770000000,1883,2769770000000,base_link,0.0157731906861,-0.0243680815991,-0.00937640938822,-0.999534681678,1.0,0.0,0.0,0.0,1.0,0.0,0.0,0.0,1.0,0.0250845327973,-0.0340085588396,-0.0234779026359,1.21846967915e-07,0.0,0.0,0.0,1.21846967915e-07,0.0,0.0,0.0,1.21846967915e-07,-0.828304767609,-0.691612064838,9.01935768127,9e-08,0.0,0.0,0.0,9e-08,0.0,0.0,0.0,9e-08
2769790000000,1884,2769790000000,base_link,0.0156638663709,-0.0240426980505,-0.00927323390306,-0.99954521839,1.0,0.0,0.0,0.0,1.0,0.0,0.0,0.0,1.0,0.0126923266798,-0.0392178706825,-0.0288621038198,1.21846967915e-07,0.0,0.0,0.0,1.21846967915e-07,0.0,0.0,0.0,1.21846967915e-07,-0.71796220541,-0.659653902054,9.03692245483,9e-08,0.0,0.0,0.0,9e-08,0.0,0.0,0.0,9e-08
2769810000000,1885,2769810000000,base_link,0.0155734100144,-0.0236998452916,-0.00917047988639,-0.999555755102,1.0,0.0,0.0,0.0,1.0,0.0,0.0,0.0,1.0,0.0130973225459,-0.0389421731234,-0.0266146324575,1.21846967915e-07,0.0,0.0,0.0,1.21846967915e-07,0.0,0.0,0.0,1.21846967915e-07,-0.800241887569,-0.702438652515,9.05903244019,9e-08,0.0,0.0,0.0,9e-08,0.0,0.0,0.0,9e-08
2769830000000,1886,2769830000000,base_link,0.0154112111606,-0.0233917432679,-0.00904597809589,-0.999566713283,1.0,0.0,0.0,0.0,1.0,0.0,0.0,0.0,1.0,0.0211012680084,-0.0302336625755,-0.026941973716,1.21846967915e-07,0.0,0.0,0.0,1.21846967915e-07,0.0,0.0,0.0,1.21846967915e-07,-0.792226791382,-0.672754585743,9.05585956573,9e-08,0.0,0.0,0.0,9e-08,0.0,0.0,0.0,9e-08
2769850000000,1887,2769850000000,base_link,0.015221109776,-0.0231041101246,-0.00892501664067,-0.999577418583,1.0,0.0,0.0,0.0,1.0,0.0,0.0,0.0,1.0,0.0209600515664,-0.0348685607314,-0.0284351203591,1.21846967915e-07,0.0,0.0,0.0,1.21846967915e-07,0.0,0.0,0.0,1.21846967915e-07,-0.780280828476,-0.650763452053,8.99413013458,9e-08,0.0,0.0,0.0,9e-08,0.0,0.0,0.0,9e-08
2769870000000,1888,2769870000000,base_link,0.0151194397236,-0.0228468971278,-0.00884055435625,-0.999585595071,1.0,0.0,0.0,0.0,1.0,0.0,0.0,0.0,1.0,0.0108242975548,-0.0310126207769,-0.0211595520377,1.21846967915e-07,0.0,0.0,0.0,1.21846967915e-07,0.0,0.0,0.0,1.21846967915e-07,-0.721813321114,-0.710638999939,9.07034873962,9e-08,0.0,0.0,0.0,9e-08,0.0,0.0,0.0,9e-08
2769890000000,1889,2769890000000,base_link,0.0150905411443,-0.0226100835349,-0.00877071702827,-0.999592043539,1.0,0.0,0.0,0.0,1.0,0.0,0.0,0.0,1.0,0.00554519752041,-0.0348582044244,-0.0252232309431,1.21846967915e-07,0.0,0.0,0.0,1.21846967915e-07,0.0,0.0,0.0,1.21846967915e-07,-0.731215536594,-0.63049018383,9.05326747894,9e-08,0.0,0.0,0.0,9e-08,0.0,0.0,0.0,9e-08
2769910000000,1890,2769910000000,base_link,0.0150239827094,-0.0223079729491,-0.00869814015513,-0.999600472909,1.0,0.0,0.0,0.0,1.0,0.0,0.0,0.0,1.0,0.0101511729881,-0.034374371171,-0.0229669120163,1.21846967915e-07,0.0,0.0,0.0,1.21846967915e-07,0.0,0.0,0.0,1.21846967915e-07,-0.731890797615,-0.644723594189,9.0946559906,9e-08,0.0,0.0,0.0,9e-08,0.0,0.0,0.0,9e-08
2769930000000,1891,2769930000000,base_link,0.0148973159538,-0.022069771803,-0.0085843015173,-0.99960860725,1.0,0.0,0.0,0.0,1.0,0.0,0.0,0.0,1.0,0.0168418157846,-0.0280098617077,-0.0270258262753,1.21846967915e-07,0.0,0.0,0.0,1.21846967915e-07,0.0,0.0,0.0,1.21846967915e-07,-0.718667149544,-0.671907067299,9.16090679169,9e-08,0.0,0.0,0.0,9e-08,0.0,0.0,0.0,9e-08
2769950000000,1892,2769950000000,base_link,0.0148173719433,-0.021829639475,-0.00848390772415,-0.999615940802,1.0,0.0,0.0,0.0,1.0,0.0,0.0,0.0,1.0,0.0090636042878,-0.0292155388743,-0.0252792555839,1.21846967915e-07,0.0,0.0,0.0,1.21846967915e-07,0.0,0.0,0.0,1.21846967915e-07,-0.712048351765,-0.602511942387,9.16850757599,9e-08,0.0,0.0,0.0,9e-08,0.0,0.0,0.0,9e-08
2769970000000,1893,2769970000000,base_link,0.0148166379954,-0.0216176266683,-0.00834684617279,-0.999621672773,1.0,0.0,0.0,0.0,1.0,0.0,0.0,0.0,1.0,0.000367760949302,-0.02865601331,-0.0299482643604,1.21846967915e-07,0.0,0.0,0.0,1.21846967915e-07,0.0,0.0,0.0,1.21846967915e-07,-0.75046902895,-0.598325312138,9.22417354584,9e-08,0.0,0.0,0.0,9e-08,0.0,0.0,0.0,9e-08
2769990000000,1894,2769990000000,base_link,0.0147714588787,-0.021367061349,-0.00818592950518,-0.999629090619,1.0,0.0,0.0,0.0,1.0,0.0,0.0,0.0,1.0,0.0063366512768,-0.027146641165,-0.0276094246656,1.21846967915e-07,0.0,0.0,0.0,1.21846967915e-07,0.0,0.0,0.0,1.21846967915e-07,-0.691048741341,-0.574874281883,9.20747661591,9e-08,0.0,0.0,0.0,9e-08,0.0,0.0,0.0,9e-08
2770010000000,1895,2770010000000,base_link,0.01469316551,-0.0211804881166,-0.0080325149766,-0.99963549694,1.0,0.0,0.0,0.0,1.0,0.0,0.0,0.0,1.0,0.0113003877923,-0.0233502984047,-0.0292394217104,1.21846967915e-07,0.0,0.0,0.0,1.21846967915e-07,0.0,0.0,0.0,1.21846967915e-07,-0.625484228134,-0.566147744656,9.22533130646,9e-08,0.0,0.0,0.0,9e-08,0.0,0.0,0.0,9e-08
2770030000000,1896,2770030000000,base_link,0.0146027193609,-0.0210134907783,-0.00789815082355,-0.999641397499,1.0,0.0,0.0,0.0,1.0,0.0,0.0,0.0,1.0,0.0142673160881,-0.0261875391006,-0.0317145250738,1.21846967915e-07,0.0,0.0,0.0,1.21846967915e-07,0.0,0.0,0.0,1.21846967915e-07,-0.707530498505,-0.575203239918,9.22282409668,9e-08,0.0,0.0,0.0,9e-08,0.0,0.0,0.0,9e-08
2770050000000,1897,2770050000000,base_link,0.0144924467416,-0.0208011213698,-0.00776698983098,-0.999648393875,1.0,0.0,0.0,0.0,1.0,0.0,0.0,0.0,1.0,0.0136068305001,-0.0266731232405,-0.0302086155862,1.21846967915e-07,0.0,0.0,0.0,1.21846967915e-07,0.0,0.0,0.0,1.21846967915e-07,-0.700219511986,-0.583099544048,9.30627727509,9e-08,0.0,0.0,0.0,9e-08,0.0,0.0,0.0,9e-08
2770070000000,1898,2770070000000,base_link,0.0143523269095,-0.0205653703384,-0.00765610147255,-0.999656191042,1.0,0.0,0.0,0.0,1.0,0.0,0.0,0.0,1.0,0.0160693787038,-0.0310625415295,-0.025087563321,1.21846967915e-07,0.0,0.0,0.0,1.21846967915e-07,0.0,0.0,0.0,1.21846967915e-07,-0.686928927898,-0.67043697834,9.37683296204,9e-08,0.0,0.0,0.0,9e-08,0.0,0.0,0.0,9e-08
2770090000000,1899,2770086000000,base_link,0.0141566947389,-0.0202983749922,-0.00757547455135,-0.999665084027,1.0,0.0,0.0,0.0,1.0,0.0,0.0,0.0,1.0,0.0216189157218,-0.0317322947085,-0.022687016055,1.21846967915e-07,0.0,0.0,0.0,1.21846967915e-07,0.0,0.0,0.0,1.21846967915e-07,-0.667191147804,-0.547067761421,9.28360843658,9e-08,0.0,0.0,0.0,9e-08,0.0,0.0,0.0,9e-08
2770110000000,1900,2770110000000,base_link,0.0139809153803,-0.0200809716694,-0.00751807054368,-0.999672333285,1.0,0.0,0.0,0.0,1.0,0.0,0.0,0.0,1.0,0.0202606096864,-0.0253959205002,-0.0216778386384,1.21846967915e-07,0.0,0.0,0.0,1.21846967915e-07,0.0,0.0,0.0,1.21846967915e-07,-0.755122363567,-0.614193677902,9.32820606232,9e-08,0.0,0.0,0.0,9e-08,0.0,0.0,0.0,9e-08
2770130000000,1901,2770130000000,base_link,0.0138572466486,-0.0199061221756,-0.0074312058889,-0.999678275991,1.0,0.0,0.0,0.0,1.0,0.0,0.0,0.0,1.0,0.0143700316548,-0.0207957085222,-0.0236461758614,1.21846967915e-07,0.0,0.0,0.0,1.21846967915e-07,0.0,0.0,0.0,1.21846967915e-07,-0.693263232708,-0.589914560318,9.29934883118,9e-08,0.0,0.0,0.0,9e-08,0.0,0.0,0.0,9e-08
2770150000000,1902,2770150000000,base_link,0.0137733230536,-0.0196466912009,-0.00726316640388,-0.999685735983,1.0,0.0,0.0,0.0,1.0,0.0,0.0,0.0,1.0,0.00752401305363,-0.0294216051698,-0.0277869217098,1.21846967915e-07,0.0,0.0,0.0,1.21846967915e-07,0.0,0.0,0.0,1.21846967915e-07,-0.648622095585,-0.610460519791,9.22081375122,9e-08,0.0,0.0,0.0,9e-08,0.0,0.0,0.0,9e-08
2770170000000,1903,2770170000000,base_link,0.0136754972547,-0.0194879111809,-0.00716568074328,-0.999690920046,1.0,0.0,0.0,0.0,1.0,0.0,0.0,0.0,1.0,0.0157471261919,-0.0209717061371,-0.0272771921009,1.21846967915e-07,0.0,0.0,0.0,1.21846967915e-07,0.0,0.0,0.0,1.21846967915e-07,-0.690106391907,-0.556474506855,9.16363716125,9e-08,0.0,0.0,0.0,9e-08,0.0,0.0,0.0,9e-08
2770190000000,1904,2770190000000,base_link,0.0135650991827,-0.0194300669363,-0.00704282267987,-0.999694418234,1.0,0.0,0.0,0.0,1.0,0.0,0.0,0.0,1.0,0.0135722700506,-0.00810643658042,-0.0226121246815,1.21846967915e-07,0.0,0.0,0.0,1.21846967915e-07,0.0,0.0,0.0,1.21846967915e-07,-0.688456177711,-0.515664517879,9.26536369324,9e-08,0.0,0.0,0.0,9e-08,0.0,0.0,0.0,9e-08
2770210000000,1905,2770206000000,base_link,0.0135095097944,-0.0194238848497,-0.00690976507912,-0.999696230549,1.0,0.0,0.0,0.0,1.0,0.0,0.0,0.0,1.0,0.00525133032352,-0.00537401204929,-0.024651851505,1.21846967915e-07,0.0,0.0,0.0,1.21846967915e-07,0.0,0.0,0.0,1.21846967915e-07,-0.651132047176,-0.575815737247,9.34356784821,9e-08,0.0,0.0,0.0,9e-08,0.0,0.0,0.0,9e-08
2770230000000,1906,2770230000000,base_link,0.0135261225674,-0.0194036579844,-0.00674969134847,-0.999697494954,1.0,0.0,0.0,0.0,1.0,0.0,0.0,0.0,1.0,-0.00109074043576,-0.00692119076848,-0.0266711954027,1.21846967915e-07,0.0,0.0,0.0,1.21846967915e-07,0.0,0.0,0.0,1.21846967915e-07,-0.731002986431,-0.53923791647,9.24679851532,9e-08,0.0,0.0,0.0,9e-08,0.0,0.0,0.0,9e-08
2770250000000,1907,2770250000000,base_link,0.0134961166455,-0.0194017218636,-0.00664225903162,-0.999698632919,1.0,0.0,0.0,0.0,1.0,0.0,0.0,0.0,1.0,0.00562453921884,-0.00597081892192,-0.019076930359,1.21846967915e-07,0.0,0.0,0.0,1.21846967915e-07,0.0,0.0,0.0,1.21846967915e-07,-0.703835785389,-0.522973716259,9.34628772736,9e-08,0.0,0.0,0.0,9e-08,0.0,0.0,0.0,9e-08
2770270000000,1908,2770270000000,base_link,0.0134040340133,-0.0193798394174,-0.00654253958804,-0.999700993142,1.0,0.0,0.0,0.0,1.0,0.0,0.0,0.0,1.0,0.0123610980809,-0.00704006385058,-0.0191529989243,1.21846967915e-07,0.0,0.0,0.0,1.21846967915e-07,0.0,0.0,0.0,1.21846967915e-07,-0.650842130184,-0.544460594654,9.23537826538,9e-08,0.0,0.0,0.0,9e-08,0.0,0.0,0.0,9e-08
2770290000000,1909,2770290000000,base_link,0.0133445085045,-0.0193416184819,-0.00637934699061,-0.999703606247,1.0,0.0,0.0,0.0,1.0,0.0,0.0,0.0,1.0,0.00796800665557,-0.00833019427955,-0.0265246294439,1.21846967915e-07,0.0,0.0,0.0,1.21846967915e-07,0.0,0.0,0.0,1.21846967915e-07,-0.646083474159,-0.500142216682,9.26101398468,9e-08,0.0,0.0,0.0,9e-08,0.0,0.0,0.0,9e-08
