%time,field.header.seq,field.header.stamp,field.header.frame_id,field.orientation.x,field.orientation.y,field.orientation.z,field.orientation.w,field.orientation_covariance0,field.orientation_covariance1,field.orientation_covariance2,field.orientation_covariance3,field.orientation_covariance4,field.orientation_covariance5,field.orientation_covariance6,field.orientation_covariance7,field.orientation_covariance8,field.angular_velocity.x,field.angular_velocity.y,field.angular_velocity.z,field.angular_velocity_covariance0,field.angular_velocity_covariance1,field.angular_velocity_covariance2,field.angular_velocity_covariance3,field.angular_velocity_covariance4,field.angular_velocity_covariance5,field.angular_velocity_covariance6,field.angular_velocity_covariance7,field.angular_velocity_covariance8,field.linear_acceleration.x,field.linear_acceleration.y,field.linear_acceleration.z,field.linear_acceleration_covariance0,field.linear_acceleration_covariance1,field.linear_acceleration_covariance2,field.linear_acceleration_covariance3,field.linear_acceleration_covariance4,field.linear_acceleration_covariance5,field.linear_acceleration_covariance6,field.linear_acceleration_covariance7,field.linear_acceleration_covariance8
2759550000000,1372,2759550000000,base_link,0.00969247556108,-0.0109979774041,0.016448734862,-0.999757301332,1.0,0.0,0.0,0.0,1.0,0.0,0.0,0.0,1.0,-0.00452590314671,-0.0104273855686,-0.00210597692057,1.21846967915e-07,0.0,0.0,0.0,1.21846967915e-07,0.0,0.0,0.0,1.21846967915e-07,-0.162159413099,-0.156584113836,9.7629442215,9e-08,0.0,0.0,0.0,9e-08,0.0,0.0,0.0,9e-08
2759570000000,1373,2759570000000,base_link,0.00970799918381,-0.0110173513719,0.0164549304488,-0.999756837717,1.0,0.0,0.0,0.0,1.0,0.0,0.0,0.0,1.0,0.000476918066852,-0.00560417957604,0.00270099914633,1.21846967915e-07,0.0,0.0,0.0,1.21846967915e-07,0.0,0.0,0.0,1.21846967915e-07,-0.150500759482,-0.150543853641,9.78964519501,9e-08,0.0,0.0,0.0,9e-08,0.0,0.0,0.0,9e-08
2759590000000,1374,2759590000000,base_link,0.00973533800052,-0.0109802845358,0.0164368915976,-0.999757259185,1.0,0.0,0.0,0.0,1.0,0.0,0.0,0.0,1.0,-0.00410808017477,-0.0111728636548,0.00616945512593,1.21846967915e-07,0.0,0.0,0.0,1.21846967915e-07,0.0,0.0,0.0,1.21846967915e-07,-0.155385300517,-0.240339398384,9.83212757111,9e-08,0.0,0.0,0.0,9e-08,0.0,0.0,0.0,9e-08
2759610000000,1375,2759610000000,base_link,0.00972743653655,-0.0109768300582,0.0165151582953,-0.999756036927,1.0,0.0,0.0,0.0,1.0,0.0,0.0,0.0,1.0,0.00599516322836,-0.00419203517959,-0.00531507795677,1.21846967915e-07,0.0,0.0,0.0,1.21846967915e-07,0.0,0.0,0.0,1.21846967915e-07,-0.260995060205,-0.175445631146,9.77471065521,9e-08,0.0,0.0,0.0,9e-08,0.0,0.0,0.0,9e-08
2759630000000,1376,2759630000000,base_link,0.00973839743366,-0.011008258354,0.0165663245694,-0.999754772521,1.0,0.0,0.0,0.0,1.0,0.0,0.0,0.0,1.0,-0.00147132424172,-0.00241146702319,-0.00437735999003,1.21846967915e-07,0.0,0.0,0.0,1.21846967915e-07,0.0,0.0,0.0,1.21846967915e-07,-0.184667915106,-0.134018748999,9.83102226257,9e-08,0.0,0.0,0.0,9e-08,0.0,0.0,0.0,9e-08
2759650000000,1377,2759650000000,base_link,0.00974765142457,-0.0110024683072,0.0165811181132,-0.999754477493,1.0,0.0,0.0,0.0,1.0,0.0,0.0,0.0,1.0,0.000874496996403,-0.00704853003845,0.0032170068007,1.21846967915e-07,0.0,0.0,0.0,1.21846967915e-07,0.0,0.0,0.0,1.21846967915e-07,-0.210561662912,-0.265242218971,9.80150604248,9e-08,0.0,0.0,0.0,9e-08,0.0,0.0,0.0,9e-08
2759670000000,1378,2759670000000,base_link,0.00973723670781,-0.0110159202312,0.0166187552489,-0.99975384529,1.0,0.0,0.0,0.0,1.0,0.0,0.0,0.0,1.0,0.00418194103986,-0.00460865907371,-0.00252547254786,1.21846967915e-07,0.0,0.0,0.0,1.21846967915e-07,0.0,0.0,0.0,1.21846967915e-07,-0.24689874053,-0.21199478209,9.78812408447,9e-08,0.0,0.0,0.0,9e-08,0.0,0.0,0.0,9e-08
2759690000000,1379,2759690000000,base_link,0.00974697571674,-0.0110259928753,0.0166711859285,-0.999752749472,1.0,0.0,0.0,0.0,1.0,0.0,0.0,0.0,1.0,0.00101450015791,-0.00748561322689,0.000147248269059,1.21846967915e-07,0.0,0.0,0.0,1.21846967915e-07,0.0,0.0,0.0,1.21846967915e-07,-0.210984870791,-0.162948042154,9.80094909668,9e-08,0.0,0.0,0.0,9e-08,0.0,0.0,0.0,9e-08
2759710000000,1380,2759710000000,base_link,0.00972999975642,-0.0110622365308,0.0166697950825,-0.999752538738,1.0,0.0,0.0,0.0,1.0,0.0,0.0,0.0,1.0,0.00316579965875,-0.00190834514797,0.00425142515451,1.21846967915e-07,0.0,0.0,0.0,1.21846967915e-07,0.0,0.0,0.0,1.21846967915e-07,-0.202314779162,-0.214249283075,9.80303573608,9e-08,0.0,0.0,0.0,9e-08,0.0,0.0,0.0,9e-08
2759730000000,1381,2759730000000,base_link,0.0097299240238,-0.0111031196324,0.0166887190175,-0.999751737948,1.0,0.0,0.0,0.0,1.0,0.0,0.0,0.0,1.0,0.00127911544405,-0.00209561735392,0.00179377268068,1.21846967915e-07,0.0,0.0,0.0,1.21846967915e-07,0.0,0.0,0.0,1.21846967915e-07,-0.316708803177,-0.239018946886,9.85038280487,9e-08,0.0,0.0,0.0,9e-08,0.0,0.0,0.0,9e-08
2759750000000,1382,2759750000000,base_link,0.00973223139912,-0.0111059936853,0.0167102560571,-0.999751358626,1.0,0.0,0.0,0.0,1.0,0.0,0.0,0.0,1.0,0.00147368852049,-0.0100668743253,0.00178353348747,1.21846967915e-07,0.0,0.0,0.0,1.21846967915e-07,0.0,0.0,0.0,1.21846967915e-07,-0.214495643973,-0.138032406569,9.74952983856,9e-08,0.0,0.0,0.0,9e-08,0.0,0.0,0.0,9e-08
2759770000000,1383,2759770000000,base_link,0.0097283358614,-0.0110632208079,0.0167437628016,-0.99975131648,1.0,0.0,0.0,0.0,1.0,0.0,0.0,0.0,1.0,0.00128511548974,-0.00934197381139,-0.00165674614254,1.21846967915e-07,0.0,0.0,0.0,1.21846967915e-07,0.0,0.0,0.0,1.21846967915e-07,-0.258678495884,-0.199327662587,9.75879955292,9e-08,0.0,0.0,0.0,9e-08,0.0,0.0,0.0,9e-08
2759790000000,1384,2759790000000,base_link,0.00974642649062,-0.0110952822942,0.016749494773,-0.99975064213,1.0,0.0,0.0,0.0,1.0,0.0,0.0,0.0,1.0,-0.000860352185555,-0.000843307934701,0.00249207043089,1.21846967915e-07,0.0,0.0,0.0,1.21846967915e-07,0.0,0.0,0.0,1.21846967915e-07,-0.299704492092,-0.250743001699,9.81209945679,9e-08,0.0,0.0,0.0,9e-08,0.0,0.0,0.0,9e-08
2759810000000,1385,2759810000000,base_link,0.00968983681439,-0.0111149210381,0.0167436363611,-0.999751105745,1.0,0.0,0.0,0.0,1.0,0.0,0.0,0.0,1.0,0.00562371034175,-0.00701051019132,0.00346045847982,1.21846967915e-07,0.0,0.0,0.0,1.21846967915e-07,0.0,0.0,0.0,1.21846967915e-07,-0.265155136585,-0.148880779743,9.76723194122,9e-08,0.0,0.0,0.0,9e-08,0.0,0.0,0.0,9e-08
2759830000000,1386,2759826000000,base_link,0.00970182018417,-0.0111241085572,0.0167501691226,-0.999750810717,1.0,0.0,0.0,0.0,1.0,0.0,0.0,0.0,1.0,0.000300630694255,-0.00220873206854,0.00119503331371,1.21846967915e-07,0.0,0.0,0.0,1.21846967915e-07,0.0,0.0,0.0,1.21846967915e-07,-0.215175583959,-0.179966703057,9.75788497925,9e-08,0.0,0.0,0.0,9e-08,0.0,0.0,0.0,9e-08
2759850000000,1387,2759850000000,base_link,0.00971169365966,-0.0111639420212,0.0167896607196,-0.999749588459,1.0,0.0,0.0,0.0,1.0,0.0,0.0,0.0,1.0,1.80312053999e-05,-0.00377357495017,-0.000898127676919,1.21846967915e-07,0.0,0.0,0.0,1.21846967915e-07,0.0,0.0,0.0,1.21846967915e-07,-0.223573163152,-0.182228416204,9.77562141418,9e-08,0.0,0.0,0.0,9e-08,0.0,0.0,0.0,9e-08
2759870000000,1388,2759870000000,base_link,0.00969621020814,-0.011184149871,0.0168256962751,-0.999748871962,1.0,0.0,0.0,0.0,1.0,0.0,0.0,0.0,1.0,0.00314608355984,-0.00581020256504,-0.000203691568458,1.21846967915e-07,0.0,0.0,0.0,1.21846967915e-07,0.0,0.0,0.0,1.21846967915e-07,-0.199439793825,-0.194236695766,9.79824256897,9e-08,0.0,0.0,0.0,9e-08,0.0,0.0,0.0,9e-08
2759890000000,1389,2759890000000,base_link,0.00970395271592,-0.0111645706842,0.0168230410237,-0.999749082697,1.0,0.0,0.0,0.0,1.0,0.0,0.0,0.0,1.0,-0.00073845370207,-0.00781070906669,0.00402726046741,1.21846967915e-07,0.0,0.0,0.0,1.21846967915e-07,0.0,0.0,0.0,1.21846967915e-07,-0.263862431049,-0.19870249927,9.73201370239,9e-08,0.0,0.0,0.0,9e-08,0.0,0.0,0.0,9e-08
2759910000000,1390,2759910000000,base_link,0.00970446876786,-0.0112022423112,0.0168460953498,-0.999748281906,1.0,0.0,0.0,0.0,1.0,0.0,0.0,0.0,1.0,0.0025922190398,-0.00180039298721,0.00153163983487,1.21846967915e-07,0.0,0.0,0.0,1.21846967915e-07,0.0,0.0,0.0,1.21846967915e-07,-0.246532529593,-0.165404230356,9.77246761322,9e-08,0.0,0.0,0.0,9e-08,0.0,0.0,0.0,9e-08
2759930000000,1391,2759930000000,base_link,0.00971260878957,-0.0112030058112,0.0168468961399,-0.999748155466,1.0,0.0,0.0,0.0,1.0,0.0,0.0,0.0,1.0,0.00160047935788,-0.00579018099234,0.0029598956462,1.21846967915e-07,0.0,0.0,0.0,1.21846967915e-07,0.0,0.0,0.0,1.21846967915e-07,-0.193685367703,-0.146982133389,9.74195957184,9e-08,0.0,0.0,0.0,9e-08,0.0,0.0,0.0,9e-08
2759950000000,1392,2759950000000,base_link,0.00970626733523,-0.0112226788406,0.016815159563,-0.999748534788,1.0,0.0,0.0,0.0,1.0,0.0,0.0,0.0,1.0,0.000756318331696,-0.00238358625211,0.00471753394231,1.21846967915e-07,0.0,0.0,0.0,1.21846967915e-07,0.0,0.0,0.0,1.21846967915e-07,-0.275808632374,-0.195668905973,9.77715206146,9e-08,0.0,0.0,0.0,9e-08,0.0,0.0,0.0,9e-08
2759970000000,1393,2759970000000,base_link,0.00966744020959,-0.0112448619124,0.0167746564416,-0.999749335578,1.0,0.0,0.0,0.0,1.0,0.0,0.0,0.0,1.0,0.002279011067,-0.00223538163118,0.00583743490279,1.21846967915e-07,0.0,0.0,0.0,1.21846967915e-07,0.0,0.0,0.0,1.21846967915e-07,-0.134870380163,-0.118110999465,9.74948787689,9e-08,0.0,0.0,0.0,9e-08,0.0,0.0,0.0,9e-08
2759990000000,1394,2759990000000,base_link,0.00970648432565,-0.0112676854186,0.0167987222921,-0.999748281906,1.0,0.0,0.0,0.0,1.0,0.0,0.0,0.0,1.0,-0.00431654322892,-0.00431596767157,-0.00340089690872,1.21846967915e-07,0.0,0.0,0.0,1.21846967915e-07,0.0,0.0,0.0,1.21846967915e-07,-0.225507646799,-0.166386783123,9.79411125183,9e-08,0.0,0.0,0.0,9e-08,0.0,0.0,0.0,9e-08
2760010000000,1395,2760010000000,base_link,0.00970283030913,-0.0112468020668,0.0168171826117,-0.999748281906,1.0,0.0,0.0,0.0,1.0,0.0,0.0,0.0,1.0,0.0018187809037,-0.00799991935492,0.00022982765222,1.21846967915e-07,0.0,0.0,0.0,1.21846967915e-07,0.0,0.0,0.0,1.21846967915e-07,-0.15486356616,-0.150946632028,9.72537231445,9e-08,0.0,0.0,0.0,9e-08,0.0,0.0,0.0,9e-08
2760030000000,1396,2760030000000,base_link,0.00969584603303,-0.01125899543,0.0167716640153,-0.999748956256,1.0,0.0,0.0,0.0,1.0,0.0,0.0,0.0,1.0,0.0017667543143,-0.00380607019179,0.00643196608871,1.21846967915e-07,0.0,0.0,0.0,1.21846967915e-07,0.0,0.0,0.0,1.21846967915e-07,-0.173010081053,-0.155192285776,9.76706218719,9e-08,0.0,0.0,0.0,9e-08,0.0,0.0,0.0,9e-08
2760050000000,1397,2760050000000,base_link,0.00970488900158,-0.0112591694503,0.0167544259543,-0.99974916699,1.0,0.0,0.0,0.0,1.0,0.0,0.0,0.0,1.0,-0.000880539126229,-0.0075297979638,0.00351087376475,1.21846967915e-07,0.0,0.0,0.0,1.21846967915e-07,0.0,0.0,0.0,1.21846967915e-07,-0.21086089313,-0.155436456203,9.74041557312,9e-08,0.0,0.0,0.0,9e-08,0.0,0.0,0.0,9e-08
2760070000000,1398,2760070000000,base_link,0.00970760138177,-0.0112254672827,0.0167449007665,-0.999749672752,1.0,0.0,0.0,0.0,1.0,0.0,0.0,0.0,1.0,0.00537043390796,-0.00923422630876,0.00487834680825,1.21846967915e-07,0.0,0.0,0.0,1.21846967915e-07,0.0,0.0,0.0,1.21846967915e-07,-0.246363520622,-0.132350593805,9.77054309845,9e-08,0.0,0.0,0.0,9e-08,0.0,0.0,0.0,9e-08
2760090000000,1399,2760090000000,base_link,0.0097362705407,-0.0111828870296,0.0166971062403,-0.999750684277,1.0,0.0,0.0,0.0,1.0,0.0,0.0,0.0,1.0,-0.00257901567966,-0.00997522380203,0.00737696839496,1.21846967915e-07,0.0,0.0,0.0,1.21846967915e-07,0.0,0.0,0.0,1.21846967915e-07,-0.172295331955,-0.201559975743,9.78009033203,9e-08,0.0,0.0,0.0,9e-08,0.0,0.0,0.0,9e-08
2760110000000,1400,2760110000000,base_link,0.00974587804652,-0.0111553750157,0.016694956751,-0.999750979305,1.0,0.0,0.0,0.0,1.0,0.0,0.0,0.0,1.0,0.000574092613533,-0.0102329161018,0.00325069762766,1.21846967915e-07,0.0,0.0,0.0,1.21846967915e-07,0.0,0.0,0.0,1.21846967915e-07,-0.157937601209,-0.142592966557,9.82925987244,9e-08,0.0,0.0,0.0,9e-08,0.0,0.0,0.0,9e-08
2760130000000,1401,2760130000000,base_link,0.00967846473856,-0.0111233560055,0.0166950410447,-0.999751906535,1.0,0.0,0.0,0.0,1.0,0.0,0.0,0.0,1.0,0.00890265591443,-0.00935147982091,0.00318071711808,1.21846967915e-07,0.0,0.0,0.0,1.21846967915e-07,0.0,0.0,0.0,1.21846967915e-07,-0.213784962893,-0.192099899054,9.82590770721,9e-08,0.0,0.0,0.0,9e-08,0.0,0.0,0.0,9e-08
2760150000000,1402,2760150000000,base_link,0.00970119152112,-0.0111238771611,0.0166810904379,-0.999751948682,1.0,0.0,0.0,0.0,1.0,0.0,0.0,0.0,1.0,-0.00273016514257,-0.00439155008644,0.00178226339631,1.21846967915e-07,0.0,0.0,0.0,1.21846967915e-07,0.0,0.0,0.0,1.21846967915e-07,-0.20988586545,-0.165871396661,9.69718837738,9e-08,0.0,0.0,0.0,9e-08,0.0,0.0,0.0,9e-08
2760166000000,1403,2760170000000,base_link,0.00974207659835,-0.0111452337595,0.016668530677,-0.999751527214,1.0,0.0,0.0,0.0,1.0,0.0,0.0,0.0,1.0,-0.00362794613466,-0.00512535637245,0.0029312921688,1.21846967915e-07,0.0,0.0,0.0,1.21846967915e-07,0.0,0.0,0.0,1.21846967915e-07,-0.23486122489,-0.143449440598,9.77756690979,9e-08,0.0,0.0,0.0,9e-08,0.0,0.0,0.0,9e-08
2760190000000,1404,2760190000000,base_link,0.00975113496038,-0.0112149755162,0.0166474151059,-0.999750979305,1.0,0.0,0.0,0.0,1.0,0.0,0.0,0.0,1.0,0.00121332588606,0.000762114184909,0.0027604738716,1.21846967915e-07,0.0,0.0,0.0,1.21846967915e-07,0.0,0.0,0.0,1.21846967915e-07,-0.277414232492,-0.074813246727,9.80154132843,9e-08,0.0,0.0,0.0,9e-08,0.0,0.0,0.0,9e-08
2760210000000,1405,2760210000000,base_link,0.0097064353464,-0.0112500827709,0.0166731246835,-0.99975064213,1.0,0.0,0.0,0.0,1.0,0.0,0.0,0.0,1.0,0.00346701056696,-0.00397696439177,0.000107327621663,1.21846967915e-07,0.0,0.0,0.0,1.21846967915e-07,0.0,0.0,0.0,1.21846967915e-07,-0.263944804668,-0.150169834495,9.78410434723,9e-08,0.0,0.0,0.0,9e-08,0.0,0.0,0.0,9e-08
2760230000000,1406,2760230000000,base_link,0.00968765966625,-0.0112138568137,0.0166698372293,-0.999751232186,1.0,0.0,0.0,0.0,1.0,0.0,0.0,0.0,1.0,0.0034376308322,-0.0111045390368,0.0031030238606,1.21846967915e-07,0.0,0.0,0.0,1.21846967915e-07,0.0,0.0,0.0,1.21846967915e-07,-0.203558936715,-0.173005849123,9.75308895111,9e-08,0.0,0.0,0.0,9e-08,0.0,0.0,0.0,9e-08
2760250000000,1407,2760250000000,base_link,0.00973996118876,-0.0112175039155,0.0166952939258,-0.999750220661,1.0,0.0,0.0,0.0,1.0,0.0,0.0,0.0,1.0,-0.00356823531911,-0.00408131023869,-0.000764243828598,1.21846967915e-07,0.0,0.0,0.0,1.21846967915e-07,0.0,0.0,0.0,1.21846967915e-07,-0.222614139318,-0.225061163306,9.80440616608,9e-08,0.0,0.0,0.0,9e-08,0.0,0.0,0.0,9e-08
2760270000000,1408,2760270000000,base_link,0.00976269192258,-0.0112198676787,0.0167072636308,-0.999749883487,1.0,0.0,0.0,0.0,1.0,0.0,0.0,0.0,1.0,-0.00137172604445,-0.00524871936068,-0.000577401719056,1.21846967915e-07,0.0,0.0,0.0,1.21846967915e-07,0.0,0.0,0.0,1.21846967915e-07,-0.256160914898,-0.164964973927,9.78115749359,9e-08,0.0,0.0,0.0,9e-08,0.0,0.0,0.0,9e-08
2760290000000,1409,2760290000000,base_link,0.00977019183903,-0.0111874405356,0.0166481316023,-0.999751105745,1.0,0.0,0.0,0.0,1.0,0.0,0.0,0.0,1.0,-0.00155543885194,-0.0114609841257,0.00821816455573,1.21846967915e-07,0.0,0.0,0.0,1.21846967915e-07,0.0,0.0,0.0,1.21846967915e-07,-0.126644223928,-0.216125816107,9.80773162842,9e-08,0.0,0.0,0.0,9e-08,0.0,0.0,0.0,9e-08
2760310000000,1410,2760310000000,base_link,0.00977850876226,-0.0112007080671,0.0166516719376,-0.999750852864,1.0,0.0,0.0,0.0,1.0,0.0,0.0,0.0,1.0,0.000489670957904,-0.00576006853953,5.23155831615e-05,1.21846967915e-07,0.0,0.0,0.0,1.21846967915e-07,0.0,0.0,0.0,1.21846967915e-07,-0.248509556055,-0.131863430142,9.75343036652,9e-08,0.0,0.0,0.0,9e-08,0.0,0.0,0.0,9e-08
2760330000000,1411,2760330000000,base_link,0.00976335038477,-0.011170241164,0.0166715231033,-0.999750979305,1.0,0.0,0.0,0.0,1.0,0.0,0.0,0.0,1.0,0.000793110230006,-0.0081798331812,-0.00301436823793,1.21846967915e-07,0.0,0.0,0.0,1.21846967915e-07,0.0,0.0,0.0,1.21846967915e-07,-0.205130860209,-0.114850379527,9.82126331329,9e-08,0.0,0.0,0.0,9e-08,0.0,0.0,0.0,9e-08
2760350000000,1412,2760350000000,base_link,0.00975372205248,-0.0111919076899,0.0167296857542,-0.999749883487,1.0,0.0,0.0,0.0,1.0,0.0,0.0,0.0,1.0,0.00295191654004,-0.00339530548081,-0.00132676085923,1.21846967915e-07,0.0,0.0,0.0,1.21846967915e-07,0.0,0.0,0.0,1.21846967915e-07,-0.164804711938,-0.104648806155,9.80169963837,9e-08,0.0,0.0,0.0,9e-08,0.0,0.0,0.0,9e-08
2760370000000,1413,2760370000000,base_link,0.00973210104846,-0.0111795319923,0.0167473452837,-0.999749925634,1.0,0.0,0.0,0.0,1.0,0.0,0.0,0.0,1.0,0.00167485768907,-0.00897786766291,0.000337914971169,1.21846967915e-07,0.0,0.0,0.0,1.21846967915e-07,0.0,0.0,0.0,1.21846967915e-07,-0.26329678297,-0.164417117834,9.78694343567,9e-08,0.0,0.0,0.0,9e-08,0.0,0.0,0.0,9e-08
2760390000000,1414,2760390000000,base_link,0.00974577613676,-0.0111659991496,0.0167772273993,-0.999749377724,1.0,0.0,0.0,0.0,1.0,0.0,0.0,0.0,1.0,0.000576726975851,-0.00762428529561,-0.00139857293107,1.21846967915e-07,0.0,0.0,0.0,1.21846967915e-07,0.0,0.0,0.0,1.21846967915e-07,-0.212872564793,-0.169250354171,9.84154605865,9e-08,0.0,0.0,0.0,9e-08,0.0,0.0,0.0,9e-08
2760410000000,1415,2760410000000,base_link,0.00972579828361,-0.0112018163152,0.0168185313109,-0.999748534788,1.0,0.0,0.0,0.0,1.0,0.0,0.0,0.0,1.0,0.00386804621667,-0.00236570322886,-0.0033863435965,1.21846967915e-07,0.0,0.0,0.0,1.21846967915e-07,0.0,0.0,0.0,1.21846967915e-07,-0.185307055712,-0.195167779922,9.79407596588,9e-08,0.0,0.0,0.0,9e-08,0.0,0.0,0.0,9e-08
2760430000000,1416,2760430000000,base_link,0.00970584191548,-0.0111979136158,0.0168589922854,-0.999748113319,1.0,0.0,0.0,0.0,1.0,0.0,0.0,0.0,1.0,0.0031319251284,-0.00645582564175,-0.00436678389087,1.21846967915e-07,0.0,0.0,0.0,1.21846967915e-07,0.0,0.0,0.0,1.21846967915e-07,-0.230263456702,-0.214581370354,9.77350902557,9e-08,0.0,0.0,0.0,9e-08,0.0,0.0,0.0,9e-08
2760450000000,1417,2760450000000,base_link,0.00973266179911,-0.0112496910192,0.0168995375537,-0.999746511739,1.0,0.0,0.0,0.0,1.0,0.0,0.0,0.0,1.0,-0.00390391470864,-4.56220004708e-05,-0.00332266651094,1.21846967915e-07,0.0,0.0,0.0,1.21846967915e-07,0.0,0.0,0.0,1.21846967915e-07,-0.201144859195,-0.214345395565,9.8549861908,9e-08,0.0,0.0,0.0,9e-08,0.0,0.0,0.0,9e-08
2760470000000,1418,2760470000000,base_link,0.00975041401878,-0.0112704676046,0.016901687043,-0.999746132417,1.0,0.0,0.0,0.0,1.0,0.0,0.0,0.0,1.0,0.000338143436238,-0.00316012324765,0.00260257371701,1.21846967915e-07,0.0,0.0,0.0,1.21846967915e-07,0.0,0.0,0.0,1.21846967915e-07,-0.196062237024,-0.142535999417,9.78139209747,9e-08,0.0,0.0,0.0,9e-08,0.0,0.0,0.0,9e-08
2760490000000,1419,2760490000000,base_link,0.00973168172025,-0.011306776456,0.0169327492703,-0.999745331627,1.0,0.0,0.0,0.0,1.0,0.0,0.0,0.0,1.0,0.00510259671137,-0.00263217743486,-0.000640602433123,1.21846967915e-07,0.0,0.0,0.0,1.21846967915e-07,0.0,0.0,0.0,1.21846967915e-07,-0.311798304319,-0.0841390863061,9.78314495087,9e-08,0.0,0.0,0.0,9e-08,0.0,0.0,0.0,9e-08
2760510000000,1420,2760510000000,base_link,0.00973899098806,-0.0113144754175,0.0169636429103,-0.999744699424,1.0,0.0,0.0,0.0,1.0,0.0,0.0,0.0,1.0,0.000189860875253,-0.00619091372937,-0.00238518347032,1.21846967915e-07,0.0,0.0,0.0,1.21846967915e-07,0.0,0.0,0.0,1.21846967915e-07,-0.226144045591,-0.163363903761,9.76585102081,9e-08,0.0,0.0,0.0,9e-08,0.0,0.0,0.0,9e-08
2760530000000,1421,2760530000000,base_link,0.00974178239359,-0.0113297636929,0.0169982454729,-0.999743898634,1.0,0.0,0.0,0.0,1.0,0.0,0.0,0.0,1.0,0.0013537586201,-0.00563015276566,-0.000878526305314,1.21846967915e-07,0.0,0.0,0.0,1.21846967915e-07,0.0,0.0,0.0,1.21846967915e-07,-0.178927332163,-0.19889511168,9.77131271362,9e-08,0.0,0.0,0.0,9e-08,0.0,0.0,0.0,9e-08
2760550000000,1422,2760550000000,base_link,0.00975095921131,-0.0113258078161,0.0170077285138,-0.9997436879,1.0,0.0,0.0,0.0,1.0,0.0,0.0,0.0,1.0,-0.00170165800955,-0.00699069304392,0.00177426193841,1.21846967915e-07,0.0,0.0,0.0,1.21846967915e-07,0.0,0.0,0.0,1.21846967915e-07,-0.151048824191,-0.188002184033,9.81461811066,9e-08,0.0,0.0,0.0,9e-08,0.0,0.0,0.0,9e-08
2760570000000,1423,2760570000000,base_link,0.00975255511161,-0.0113476640028,0.0170237443163,-0.999743097844,1.0,0.0,0.0,0.0,1.0,0.0,0.0,0.0,1.0,0.00197263318114,-0.00324641866609,0.00211588107049,1.21846967915e-07,0.0,0.0,0.0,1.21846967915e-07,0.0,0.0,0.0,1.21846967915e-07,-0.152928471565,-0.0858529657125,9.77908420563,9e-08,0.0,0.0,0.0,9e-08,0.0,0.0,0.0,9e-08
2760590000000,1424,2760590000000,base_link,0.00978023126774,-0.0113491679538,0.017026315274,-0.999742802816,1.0,0.0,0.0,0.0,1.0,0.0,0.0,0.0,1.0,-0.00159744964913,-0.00595413241535,0.0021882886067,1.21846967915e-07,0.0,0.0,0.0,1.21846967915e-07,0.0,0.0,0.0,1.21846967915e-07,-0.202690824866,-0.149069741368,9.80916690826,9e-08,0.0,0.0,0.0,9e-08,0.0,0.0,0.0,9e-08
2760610000000,1425,2760610000000,base_link,0.00980492759229,-0.0113467462387,0.0170449020342,-0.999742339201,1.0,0.0,0.0,0.0,1.0,0.0,0.0,0.0,1.0,0.00096364307683,-0.0058272909373,0.0026021853555,1.21846967915e-07,0.0,0.0,0.0,1.21846967915e-07,0.0,0.0,0.0,1.21846967915e-07,-0.254784047604,-0.185274213552,9.76167869568,9e-08,0.0,0.0,0.0,9e-08,0.0,0.0,0.0,9e-08
2760630000000,1426,2760630000000,base_link,0.00980078312474,-0.0113831936314,0.0170403080277,-0.999741959879,1.0,0.0,0.0,0.0,1.0,0.0,0.0,0.0,1.0,-0.000226145988563,-0.00480048311874,0.00218684948049,1.21846967915e-07,0.0,0.0,0.0,1.21846967915e-07,0.0,0.0,0.0,1.21846967915e-07,-0.15250916779,-0.169598117471,9.77987480164,9e-08,0.0,0.0,0.0,9e-08,0.0,0.0,0.0,9e-08
2760650000000,1427,2760650000000,base_link,0.00976754037421,-0.0114191034872,0.017020203981,-0.999742254907,1.0,0.0,0.0,0.0,1.0,0.0,0.0,0.0,1.0,0.00528820604086,-0.0015835132217,0.00557189388201,1.21846967915e-07,0.0,0.0,0.0,1.21846967915e-07,0.0,0.0,0.0,1.21846967915e-07,-0.242771431804,-0.191393360496,9.74004077911,9e-08,0.0,0.0,0.0,9e-08,0.0,0.0,0.0,9e-08
2760670000000,1428,2760670000000,base_link,0.00976670015373,-0.0114413450871,0.0169970653612,-0.999742381348,1.0,0.0,0.0,0.0,1.0,0.0,0.0,0.0,1.0,0.000593428150751,-0.00221160869114,0.00430812127888,1.21846967915e-07,0.0,0.0,0.0,1.21846967915e-07,0.0,0.0,0.0,1.21846967915e-07,-0.277939736843,-0.212022170424,9.64196109772,9e-08,0.0,0.0,0.0,9e-08,0.0,0.0,0.0,9e-08
2760690000000,1429,2760690000000,base_link,0.00977414771589,-0.0114265560708,0.0170065484021,-0.999742339201,1.0,0.0,0.0,0.0,1.0,0.0,0.0,0.0,1.0,-0.000693818728905,-0.00751448329538,0.000504742143676,1.21846967915e-07,0.0,0.0,0.0,1.21846967915e-07,0.0,0.0,0.0,1.21846967915e-07,-0.28614282608,-0.155933558941,9.75879764557,9e-08,0.0,0.0,0.0,9e-08,0.0,0.0,0.0,9e-08
2760710000000,1430,2760710000000,base_link,0.00974848761146,-0.0114144157205,0.0170441855378,-0.999742128467,1.0,0.0,0.0,0.0,1.0,0.0,0.0,0.0,1.0,0.00407806923613,-0.00643813796341,-0.00206768186763,1.21846967915e-07,0.0,0.0,0.0,1.21846967915e-07,0.0,0.0,0.0,1.21846967915e-07,-0.147420212626,-0.115874044597,9.76900196075,9e-08,0.0,0.0,0.0,9e-08,0.0,0.0,0.0,9e-08
2760730000000,1431,2760730000000,base_link,0.00978530024945,-0.0114023485509,0.0170823705826,-0.999741201236,1.0,0.0,0.0,0.0,1.0,0.0,0.0,0.0,1.0,-0.00285584526137,-0.00823945552111,0.000140708798426,1.21846967915e-07,0.0,0.0,0.0,1.21846967915e-07,0.0,0.0,0.0,1.21846967915e-07,-0.272857487202,-0.113638877869,9.8306684494,9e-08,0.0,0.0,0.0,9e-08,0.0,0.0,0.0,9e-08
2760750000000,1432,2760750000000,base_link,0.0097961319072,-0.0114065659523,0.0171024324824,-0.999740695474,1.0,0.0,0.0,0.0,1.0,0.0,0.0,0.0,1.0,-0.00188175484072,-0.00430356757715,-0.00172169436701,1.21846967915e-07,0.0,0.0,0.0,1.21846967915e-07,0.0,0.0,0.0,1.21846967915e-07,-0.241538733244,-0.28785610199,9.78496456146,9e-08,0.0,0.0,0.0,9e-08,0.0,0.0,0.0,9e-08
2760770000000,1433,2760770000000,base_link,0.00982157246936,-0.0114030127754,0.0171048348528,-0.999740400446,1.0,0.0,0.0,0.0,1.0,0.0,0.0,0.0,1.0,-0.00265899230726,-0.00905685778707,0.0010158456862,1.21846967915e-07,0.0,0.0,0.0,1.21846967915e-07,0.0,0.0,0.0,1.21846967915e-07,-0.178589448333,-0.176309481263,9.8182182312,9e-08,0.0,0.0,0.0,9e-08,0.0,0.0,0.0,9e-08
2760790000000,1434,2760790000000,base_link,0.0098073014806,-0.0114328188291,0.0171339583251,-0.999739768243,1.0,0.0,0.0,0.0,1.0,0.0,0.0,0.0,1.0,0.00412063673139,-0.00193445128389,-0.00122310593724,1.21846967915e-07,0.0,0.0,0.0,1.21846967915e-07,0.0,0.0,0.0,1.21846967915e-07,-0.226776435971,-0.182200297713,9.74749469757,9e-08,0.0,0.0,0.0,9e-08,0.0,0.0,0.0,9e-08
2760810000000,1435,2760810000000,base_link,0.00979954316775,-0.0114286219249,0.0171462230581,-0.999739726096,1.0,0.0,0.0,0.0,1.0,0.0,0.0,0.0,1.0,0.000187896308489,-0.00304728141055,-0.00172156654298,1.21846967915e-07,0.0,0.0,0.0,1.21846967915e-07,0.0,0.0,0.0,1.21846967915e-07,-0.193283587694,-0.168201819062,9.77966213226,9e-08,0.0,0.0,0.0,9e-08,0.0,0.0,0.0,9e-08
2760830000000,1436,2760830000000,base_link,0.00979976773143,-0.0114224375334,0.0171790133062,-0.999739220334,1.0,0.0,0.0,0.0,1.0,0.0,0.0,0.0,1.0,0.000706700142473,-0.00967702548951,0.000168082988239,1.21846967915e-07,0.0,0.0,0.0,1.21846967915e-07,0.0,0.0,0.0,1.21846967915e-07,-0.28660133481,-0.21574960649,9.80038642883,9e-08,0.0,0.0,0.0,9e-08,0.0,0.0,0.0,9e-08
2760850000000,1437,2760846000000,base_link,0.009798832022,-0.0114273785106,0.0171769059638,-0.999739220334,1.0,0.0,0.0,0.0,1.0,0.0,0.0,0.0,1.0,0.00392776122317,-0.00459764292464,0.0033624637872,1.21846967915e-07,0.0,0.0,0.0,1.21846967915e-07,0.0,0.0,0.0,1.21846967915e-07,-0.288975387812,-0.164681509137,9.84006214142,9e-08,0.0,0.0,0.0,9e-08,0.0,0.0,0.0,9e-08
2760870000000,1438,2760870000000,base_link,0.00979084363017,-0.0114353418777,0.0171644304966,-0.999739388921,1.0,0.0,0.0,0.0,1.0,0.0,0.0,0.0,1.0,0.0008898191154,-0.00386593583971,0.00650464743376,1.21846967915e-07,0.0,0.0,0.0,1.21846967915e-07,0.0,0.0,0.0,1.21846967915e-07,-0.322149127722,-0.189463108778,9.79494762421,9e-08,0.0,0.0,0.0,9e-08,0.0,0.0,0.0,9e-08
2760890000000,1439,2760890000000,base_link,0.00980776188553,-0.0114330182857,0.0171686873283,-0.999739178187,1.0,0.0,0.0,0.0,1.0,0.0,0.0,0.0,1.0,0.000645757303573,-0.00646211346611,-0.00134070264176,1.21846967915e-07,0.0,0.0,0.0,1.21846967915e-07,0.0,0.0,0.0,1.21846967915e-07,-0.280161499977,-0.186475992203,9.80975151062,9e-08,0.0,0.0,0.0,9e-08,0.0,0.0,0.0,9e-08
2760910000000,1440,2760910000000,base_link,0.00982078180436,-0.0114402433422,0.0171890021093,-0.999738588131,1.0,0.0,0.0,0.0,1.0,0.0,0.0,0.0,1.0,0.00030736104236,-0.00607483135536,-0.000232000485994,1.21846967915e-07,0.0,0.0,0.0,1.21846967915e-07,0.0,0.0,0.0,1.21846967915e-07,-0.205227404833,-0.151662036777,9.83483886719,9e-08,0.0,0.0,0.0,9e-08,0.0,0.0,0.0,9e-08
2760930000000,1441,2760930000000,base_link,0.00983954349044,-0.0114407651564,0.0171841130749,-0.999738503838,1.0,0.0,0.0,0.0,1.0,0.0,0.0,0.0,1.0,0.000860682572238,-0.00513413734734,0.00223982543685,1.21846967915e-07,0.0,0.0,0.0,1.21846967915e-07,0.0,0.0,0.0,1.21846967915e-07,-0.325999200344,-0.142938524485,9.80311584473,9e-08,0.0,0.0,0.0,9e-08,0.0,0.0,0.0,9e-08
2760950000000,1442,2760950000000,base_link,0.00986375850127,-0.0114591434872,0.0171772009917,-0.999738166663,1.0,0.0,0.0,0.0,1.0,0.0,0.0,0.0,1.0,-0.00208305427805,-0.00382129987702,0.00316747883335,1.21846967915e-07,0.0,0.0,0.0,1.21846967915e-07,0.0,0.0,0.0,1.21846967915e-07,-0.268113851547,-0.154524996877,9.72916507721,9e-08,0.0,0.0,0.0,9e-08,0.0,0.0,0.0,9e-08
2760970000000,1443,2760970000000,base_link,0.0098590474385,-0.011435949385,0.0172187577843,-0.999737745194,1.0,0.0,0.0,0.0,1.0,0.0,0.0,0.0,1.0,0.00186464120634,-0.00931565463543,-0.000921144732274,1.21846967915e-07,0.0,0.0,0.0,1.21846967915e-07,0.0,0.0,0.0,1.21846967915e-07,-0.188397273421,-0.108281105757,9.86664962769,9e-08,0.0,0.0,0.0,9e-08,0.0,0.0,0.0,9e-08
2760990000000,1444,2760990000000,base_link,0.00982202513639,-0.0114129453552,0.0171837337532,-0.999738967453,1.0,0.0,0.0,0.0,1.0,0.0,0.0,0.0,1.0,0.00521480292082,-0.00814507901669,0.00824383366853,1.21846967915e-07,0.0,0.0,0.0,1.21846967915e-07,0.0,0.0,0.0,1.21846967915e-07,-0.235421538353,-0.288280516863,9.83705329895,9e-08,0.0,0.0,0.0,9e-08,0.0,0.0,0.0,9e-08
2761010000000,1445,2761010000000,base_link,0.00984281135292,-0.0114237218599,0.017179055453,-0.999738756719,1.0,0.0,0.0,0.0,1.0,0.0,0.0,0.0,1.0,-0.00175830314402,-0.00554727436975,0.00256581907161,1.21846967915e-07,0.0,0.0,0.0,1.21846967915e-07,0.0,0.0,0.0,1.21846967915e-07,-0.310600787401,-0.285466194153,9.78147506714,9e-08,0.0,0.0,0.0,9e-08,0.0,0.0,0.0,9e-08
2761030000000,1446,2761030000000,base_link,0.00981597377091,-0.0114334465043,0.0171780439287,-0.999738925306,1.0,0.0,0.0,0.0,1.0,0.0,0.0,0.0,1.0,0.00371790584177,-0.00845638569444,0.00375729054213,1.21846967915e-07,0.0,0.0,0.0,1.21846967915e-07,0.0,0.0,0.0,1.21846967915e-07,-0.134764000773,-0.14495177567,9.74247074127,9e-08,0.0,0.0,0.0,9e-08,0.0,0.0,0.0,9e-08
2761050000000,1447,2761050000000,base_link,0.00982283712177,-0.0114503289513,0.0171586985252,-0.999738967453,1.0,0.0,0.0,0.0,1.0,0.0,0.0,0.0,1.0,0.000992572982796,-0.00477221468464,0.00343939289451,1.21846967915e-07,0.0,0.0,0.0,1.21846967915e-07,0.0,0.0,0.0,1.21846967915e-07,-0.264437288046,-0.14321115613,9.81132125854,9e-08,0.0,0.0,0.0,9e-08,0.0,0.0,0.0,9e-08
2761070000000,1448,2761070000000,base_link,0.0098095322178,-0.0114817570001,0.0171403646461,-0.999739093893,1.0,0.0,0.0,0.0,1.0,0.0,0.0,0.0,1.0,0.00250770780258,-0.0028102803044,0.00451895967126,1.21846967915e-07,0.0,0.0,0.0,1.21846967915e-07,0.0,0.0,0.0,1.21846967915e-07,-0.224607884884,-0.127042591572,9.7899980545,9e-08,0.0,0.0,0.0,9e-08,0.0,0.0,0.0,9e-08
2761090000000,1449,2761090000000,base_link,0.0098576001223,-0.0114981750909,0.0171466445265,-0.999738293103,1.0,0.0,0.0,0.0,1.0,0.0,0.0,0.0,1.0,-0.00376580981538,-0.00576399173588,-0.000577333616093,1.21846967915e-07,0.0,0.0,0.0,1.21846967915e-07,0.0,0.0,0.0,1.21846967915e-07,-0.204446017742,-0.162647098303,9.83975982666,9e-08,0.0,0.0,0.0,9e-08,0.0,0.0,0.0,9e-08
2761110000000,1450,2761110000000,base_link,0.00986096404997,-0.0115264805687,0.0171681815661,-0.999737576607,1.0,0.0,0.0,0.0,1.0,0.0,0.0,0.0,1.0,-0.000305783818476,-0.000148431252455,2.27119016927e-05,1.21846967915e-07,0.0,0.0,0.0,1.21846967915e-07,0.0,0.0,0.0,1.21846967915e-07,-0.194290488958,-0.163201421499,9.78038311005,9e-08,0.0,0.0,0.0,9e-08,0.0,0.0,0.0,9e-08
2761130000000,1451,2761130000000,base_link,0.00987896009574,-0.011554680103,0.0171160880614,-0.999737998075,1.0,0.0,0.0,0.0,1.0,0.0,0.0,0.0,1.0,0.0021645417437,-0.00402142805979,0.00623636879027,1.21846967915e-07,0.0,0.0,0.0,1.21846967915e-07,0.0,0.0,0.0,1.21846967915e-07,-0.244656279683,-0.108705997467,9.81293296814,9e-08,0.0,0.0,0.0,9e-08,0.0,0.0,0.0,9e-08
2761150000000,1452,2761150000000,base_link,0.00987781612161,-0.0115978800465,0.0171488361627,-0.999736944404,1.0,0.0,0.0,0.0,1.0,0.0,0.0,0.0,1.0,0.0008007370634,-0.000477040652186,-0.00206350022927,1.21846967915e-07,0.0,0.0,0.0,1.21846967915e-07,0.0,0.0,0.0,1.21846967915e-07,-0.189798682928,-0.195441678166,9.84366703033,9e-08,0.0,0.0,0.0,9e-08,0.0,0.0,0.0,9e-08
2761170000000,1453,2761170000000,base_link,0.0098333542422,-0.0116183340274,0.0171556639521,-0.999737028698,1.0,0.0,0.0,0.0,1.0,0.0,0.0,0.0,1.0,0.00235562957823,-0.00407776795328,0.00338561460376,1.21846967915e-07,0.0,0.0,0.0,1.21846967915e-07,0.0,0.0,0.0,1.21846967915e-07,-0.121419772506,-0.145407795906,9.83915042877,9e-08,0.0,0.0,0.0,9e-08,0.0,0.0,0.0,9e-08
2761190000000,1454,2761190000000,base_link,0.00986589514893,-0.011645930088,0.0171215671517,-0.999736902257,1.0,0.0,0.0,0.0,1.0,0.0,0.0,0.0,1.0,-0.00430553965271,-0.00213235383853,0.00670791044831,1.21846967915e-07,0.0,0.0,0.0,1.21846967915e-07,0.0,0.0,0.0,1.21846967915e-07,-0.202302366495,-0.105694107711,9.74304962158,9e-08,0.0,0.0,0.0,9e-08,0.0,0.0,0.0,9e-08
2761210000000,1455,2761210000000,base_link,0.00982201361186,-0.0116343727142,0.0171717640482,-0.999736691523,1.0,0.0,0.0,0.0,1.0,0.0,0.0,0.0,1.0,0.00536193698645,-0.00614074571058,-0.000445786805358,1.21846967915e-07,0.0,0.0,0.0,1.21846967915e-07,0.0,0.0,0.0,1.21846967915e-07,-0.169644325972,-0.214156627655,9.74707126617,9e-08,0.0,0.0,0.0,9e-08,0.0,0.0,0.0,9e-08
2761230000000,1456,2761230000000,base_link,0.00977158581312,-0.0115857936145,0.0172131522535,-0.999737028698,1.0,0.0,0.0,0.0,1.0,0.0,0.0,0.0,1.0,0.00568857695907,-0.0120483702049,-0.00215728487819,1.21846967915e-07,0.0,0.0,0.0,1.21846967915e-07,0.0,0.0,0.0,1.21846967915e-07,-0.187921062112,-0.196705326438,9.87954425812,9e-08,0.0,0.0,0.0,9e-08,0.0,0.0,0.0,9e-08
2761250000000,1457,2761250000000,base_link,0.00977560869688,-0.0115775797535,0.0172228881755,-0.999736902257,1.0,0.0,0.0,0.0,1.0,0.0,0.0,0.0,1.0,0.000294913654216,-0.00832894351333,0.000412718276493,1.21846967915e-07,0.0,0.0,0.0,1.21846967915e-07,0.0,0.0,0.0,1.21846967915e-07,-0.18703366816,-0.177820369601,9.68001461029,9e-08,0.0,0.0,0.0,9e-08,0.0,0.0,0.0,9e-08
2761270000000,1458,2761270000000,base_link,0.00977439055418,-0.0115668518989,0.0172354900832,-0.999736775817,1.0,0.0,0.0,0.0,1.0,0.0,0.0,0.0,1.0,-0.000696308910847,-0.00958235189319,-0.0019582004752,1.21846967915e-07,0.0,0.0,0.0,1.21846967915e-07,0.0,0.0,0.0,1.21846967915e-07,-0.197953313589,-0.146394044161,9.82023239136,9e-08,0.0,0.0,0.0,9e-08,0.0,0.0,0.0,9e-08
2761290000000,1459,2761290000000,base_link,0.00980105691462,-0.0115488967652,0.0172543718713,-0.999736438642,1.0,0.0,0.0,0.0,1.0,0.0,0.0,0.0,1.0,-0.00197702017613,-0.0068484544754,0.000953617331106,1.21846967915e-07,0.0,0.0,0.0,1.21846967915e-07,0.0,0.0,0.0,1.21846967915e-07,-0.225179836154,-0.206138283014,9.84234428406,9e-08,0.0,0.0,0.0,9e-08,0.0,0.0,0.0,9e-08
2761310000000,1460,2761310000000,base_link,0.00981651599999,-0.0115616668487,0.017276161792,-0.999735722146,1.0,0.0,0.0,0.0,1.0,0.0,0.0,0.0,1.0,-0.000280199979898,-0.00391974020749,0.000670738925692,1.21846967915e-07,0.0,0.0,0.0,1.21846967915e-07,0.0,0.0,0.0,1.21846967915e-07,-0.24056263268,-0.241545423865,9.80819320679,9e-08,0.0,0.0,0.0,9e-08,0.0,0.0,0.0,9e-08
2761330000000,1461,2761330000000,base_link,0.009771634957,-0.0115838004473,0.0172656250799,-0.99973605932,1.0,0.0,0.0,0.0,1.0,0.0,0.0,0.0,1.0,0.00627534836531,-0.00392955867574,0.00254244240932,1.21846967915e-07,0.0,0.0,0.0,1.21846967915e-07,0.0,0.0,0.0,1.21846967915e-07,-0.228292375803,-0.182131588459,9.82360458374,9e-08,0.0,0.0,0.0,9e-08,0.0,0.0,0.0,9e-08
2761350000000,1462,2761350000000,base_link,0.00979073134833,-0.0115898248948,0.017255299102,-0.999736017174,1.0,0.0,0.0,0.0,1.0,0.0,0.0,0.0,1.0,-0.00244412012398,-0.00570656917989,0.00254921894521,1.21846967915e-07,0.0,0.0,0.0,1.21846967915e-07,0.0,0.0,0.0,1.21846967915e-07,-0.267306953669,-0.192225456238,9.81249904633,9e-08,0.0,0.0,0.0,9e-08,0.0,0.0,0.0,9e-08
2761370000000,1463,2761370000000,base_link,0.00987385917462,-0.011565771145,0.0172201907772,-0.999736143614,1.0,0.0,0.0,0.0,1.0,0.0,0.0,0.0,1.0,-0.0116553884,-0.00941352546215,0.00512008415535,1.21846967915e-07,0.0,0.0,0.0,1.21846967915e-07,0.0,0.0,0.0,1.21846967915e-07,-0.240290462971,-0.0633824169636,9.73356628418,9e-08,0.0,0.0,0.0,9e-08,0.0,0.0,0.0,9e-08
2761390000000,1464,2761390000000,base_link,0.0105994704727,-0.011653117237,0.016964275113,-0.999732013223,1.0,0.0,0.0,0.0,1.0,0.0,0.0,0.0,1.0,-0.0845798999071,0.00278064236045,0.0307107530534,1.21846967915e-07,0.0,0.0,0.0,1.21846967915e-07,0.0,0.0,0.0,1.21846967915e-07,0.0691429153085,0.0340382754803,10.4340906143,9e-08,0.0,0.0,0.0,9e-08,0.0,0.0,0.0,9e-08
2761410000000,1465,2761410000000,base_link,0.0120633255808,-0.0121033586198,0.0165276759093,-0.999717388266,1.0,0.0,0.0,0.0,1.0,0.0,0.0,0.0,1.0,-0.188431665301,0.0484461858869,0.0556867942214,1.21846967915e-07,0.0,0.0,0.0,1.21846967915e-07,0.0,0.0,0.0,1.21846967915e-07,0.477158993483,0.554608285427,11.3928461075,9e-08,0.0,0.0,0.0,9e-08,0.0,0.0,0.0,9e-08
2761430000000,1466,2761430000000,base_link,0.0161363374818,-0.0143355231586,0.015646933216,-0.999644600659,1.0,0.0,0.0,0.0,1.0,0.0,0.0,0.0,1.0,-0.383327543736,0.210709869862,0.0757819116116,1.21846967915e-07,0.0,0.0,0.0,1.21846967915e-07,0.0,0.0,0.0,1.21846967915e-07,0.762160897255,0.789616346359,12.4120988846,9e-08,0.0,0.0,0.0,9e-08,0.0,0.0,0.0,9e-08
2761450000000,1467,2761450000000,base_link,0.0203041255675,-0.0174289758926,0.0149811815969,-0.99952970835,1.0,0.0,0.0,0.0,1.0,0.0,0.0,0.0,1.0,-0.573312580585,0.428211033344,0.0866498947144,1.21846967915e-07,0.0,0.0,0.0,1.21846967915e-07,0.0,0.0,0.0,1.21846967915e-07,0.153883934021,0.14715372026,13.1049461365,9e-08,0.0,0.0,0.0,9e-08,0.0,0.0,0.0,9e-08
2761470000000,1468,2761470000000,base_link,0.0285175735074,-0.0247189379786,0.0139419667532,-0.999190384073,1.0,0.0,0.0,0.0,1.0,0.0,0.0,0.0,1.0,-0.744413733482,0.652476191521,0.0915358513594,1.21846967915e-07,0.0,0.0,0.0,1.21846967915e-07,0.0,0.0,0.0,1.21846967915e-07,-0.251471221447,-0.204102367163,13.3741149902,9e-08,0.0,0.0,0.0,9e-08,0.0,0.0,0.0,9e-08
2761490000000,1469,2761490000000,base_link,0.0354497717405,-0.0312844681786,0.0131977377022,-0.998794540871,1.0,0.0,0.0,0.0,1.0,0.0,0.0,0.0,1.0,-0.887942254543,0.809957146645,0.0969367399812,1.21846967915e-07,0.0,0.0,0.0,1.21846967915e-07,0.0,0.0,0.0,1.21846967915e-07,-0.613124012947,-0.49427691102,13.589468956,9e-08,0.0,0.0,0.0,9e-08,0.0,0.0,0.0,9e-08
2761510000000,1470,2761510000000,base_link,0.0448107861691,-0.04041363444,0.0122187928518,-0.998102953234,1.0,0.0,0.0,0.0,1.0,0.0,0.0,0.0,1.0,-0.954812467098,0.901416420937,0.103194504976,1.21846967915e-07,0.0,0.0,0.0,1.21846967915e-07,0.0,0.0,0.0,1.21846967915e-07,-0.419129431248,-0.338332235813,13.6866941452,9e-08,0.0,0.0,0.0,9e-08,0.0,0.0,0.0,9e-08
2761530000000,1471,2761530000000,base_link,0.0519196728816,-0.0483651179844,0.0112046975298,-0.997416507513,1.0,0.0,0.0,0.0,1.0,0.0,0.0,0.0,1.0,-0.594311773777,0.704066812992,0.110986560583,1.21846967915e-07,0.0,0.0,0.0,1.21846967915e-07,0.0,0.0,0.0,1.21846967915e-07,-0.351424753666,-0.137254625559,13.847902298,9e-08,0.0,0.0,0.0,9e-08,0.0,0.0,0.0,9e-08
2761550000000,1472,2761550000000,base_link,0.0552914758333,-0.0539026741192,0.0102181240998,-0.996961911605,1.0,0.0,0.0,0.0,1.0,0.0,0.0,0.0,1.0,-0.252441942692,0.464251995087,0.113616779447,1.21846967915e-07,0.0,0.0,0.0,1.21846967915e-07,0.0,0.0,0.0,1.21846967915e-07,-0.249307006598,-0.106807872653,13.8108167648,9e-08,0.0,0.0,0.0,9e-08,0.0,0.0,0.0,9e-08
2761570000000,1473,2761570000000,base_link,0.0577661540561,-0.0578027172703,0.00924609133262,-0.996612472084,1.0,0.0,0.0,0.0,1.0,0.0,0.0,0.0,1.0,-0.299288988113,0.348556369543,0.105828806758,1.21846967915e-07,0.0,0.0,0.0,1.21846967915e-07,0.0,0.0,0.0,1.21846967915e-07,-0.331848740578,-0.330651164055,13.8492012024,9e-08,0.0,0.0,0.0,9e-08,0.0,0.0,0.0,9e-08
2761590000000,1474,2761590000000,base_link,0.0637401305174,-0.0622077815764,0.00796094962783,-0.995994009228,1.0,0.0,0.0,0.0,1.0,0.0,0.0,0.0,1.0,-0.573813140392,0.357265114784,0.0948570668697,1.21846967915e-07,0.0,0.0,0.0,1.21846967915e-07,0.0,0.0,0.0,1.21846967915e-07,-0.484383791685,-0.627781450748,13.7200708389,9e-08,0.0,0.0,0.0,9e-08,0.0,0.0,0.0,9e-08
2761610000000,1475,2761610000000,base_link,0.0695237740335,-0.0660646922849,0.0069060983033,-0.995366442654,1.0,0.0,0.0,0.0,1.0,0.0,0.0,0.0,1.0,-0.618202924728,0.373722821474,0.0943616405129,1.21846967915e-07,0.0,0.0,0.0,1.21846967915e-07,0.0,0.0,0.0,1.21846967915e-07,-0.488542437553,-0.558413743973,13.6878232956,9e-08,0.0,0.0,0.0,9e-08,0.0,0.0,0.0,9e-08
2761630000000,1476,2761630000000,base_link,0.0719353254969,-0.0694082297654,0.006129121151,-0.994972496061,1.0,0.0,0.0,0.0,1.0,0.0,0.0,0.0,1.0,-0.189162641764,0.310436546803,0.0852960422635,1.21846967915e-07,0.0,0.0,0.0,1.21846967915e-07,0.0,0.0,0.0,1.21846967915e-07,-0.514433324337,-0.228592991829,13.6022033691,9e-08,0.0,0.0,0.0,9e-08,0.0,0.0,0.0,9e-08
2761650000000,1477,2761650000000,base_link,0.0712965140487,-0.0713161671159,0.00561627829832,-0.994886600784,1.0,0.0,0.0,0.0,1.0,0.0,0.0,0.0,1.0,0.118141651154,0.198302611709,0.0888907909393,1.21846967915e-07,0.0,0.0,0.0,1.21846967915e-07,0.0,0.0,0.0,1.21846967915e-07,-0.440050989389,-0.18900822103,13.6298789978,9e-08,0.0,0.0,0.0,9e-08,0.0,0.0,0.0,9e-08
2761670000000,1478,2761670000000,base_link,0.0709826491638,-0.0728183623947,0.00497556190726,-0.994803571492,1.0,0.0,0.0,0.0,1.0,0.0,0.0,0.0,1.0,-0.0700622722507,0.113786458969,0.075874119997,1.21846967915e-07,0.0,0.0,0.0,1.21846967915e-07,0.0,0.0,0.0,1.21846967915e-07,-0.539106190205,-0.588485062122,13.6108083725,9e-08,0.0,0.0,0.0,9e-08,0.0,0.0,0.0,9e-08
2761690000000,1479,2761690000000,base_link,0.0751855159809,-0.074195422219,0.00400449851757,-0.99439744446,1.0,0.0,0.0,0.0,1.0,0.0,0.0,0.0,1.0,-0.439649134874,0.101187437773,0.0613952800632,1.21846967915e-07,0.0,0.0,0.0,1.21846967915e-07,0.0,0.0,0.0,1.21846967915e-07,-0.62015837431,-0.852417826653,13.5869894028,9e-08,0.0,0.0,0.0,9e-08,0.0,0.0,0.0,9e-08
2761710000000,1480,2761710000000,base_link,0.0787165282001,-0.0752283763212,0.00331948578872,-0.994049016463,1.0,0.0,0.0,0.0,1.0,0.0,0.0,0.0,1.0,-0.40118509531,0.11943269521,0.0626852363348,1.21846967915e-07,0.0,0.0,0.0,1.21846967915e-07,0.0,0.0,0.0,1.21846967915e-07,-0.647191464901,-0.548028945923,13.7124900818,9e-08,0.0,0.0,0.0,9e-08,0.0,0.0,0.0,9e-08
2761730000000,1481,2761730000000,base_link,0.0792393982161,-0.076564203398,0.00271320337289,-0.993907360906,1.0,0.0,0.0,0.0,1.0,0.0,0.0,0.0,1.0,0.0732322335243,0.0952122062445,0.0585364960134,1.21846967915e-07,0.0,0.0,0.0,1.21846967915e-07,0.0,0.0,0.0,1.21846967915e-07,-0.630826354027,-0.272941291332,13.8029670715,9e-08,0.0,0.0,0.0,9e-08,0.0,0.0,0.0,9e-08
2761750000000,1482,2761750000000,base_link,0.0767828875384,-0.077095509256,0.00253833609842,-0.994059468882,1.0,0.0,0.0,0.0,1.0,0.0,0.0,0.0,1.0,0.330495119095,0.0435336828232,0.0541953109205,1.21846967915e-07,0.0,0.0,0.0,1.21846967915e-07,0.0,0.0,0.0,1.21846967915e-07,-0.628872275352,-0.345566064119,13.6671113968,9e-08,0.0,0.0,0.0,9e-08,0.0,0.0,0.0,9e-08
2761770000000,1483,2761770000000,base_link,0.0754080600256,-0.0773816204514,0.00213456928968,-0.994143425404,1.0,0.0,0.0,0.0,1.0,0.0,0.0,0.0,1.0,0.0897135138512,0.0139229213819,0.0548110716045,1.21846967915e-07,0.0,0.0,0.0,1.21846967915e-07,0.0,0.0,0.0,1.21846967915e-07,-0.627960145473,-1.00980508327,13.8278255463,9e-08,0.0,0.0,0.0,9e-08,0.0,0.0,0.0,9e-08
2761790000000,1484,2761790000000,base_link,0.0786776956414,-0.0775726836403,0.00142258257779,-0.993876425119,1.0,0.0,0.0,0.0,1.0,0.0,0.0,0.0,1.0,-0.398071855307,0.00879912916571,0.0474692434072,1.21846967915e-07,0.0,0.0,0.0,1.21846967915e-07,0.0,0.0,0.0,1.21846967915e-07,-0.752752482891,-1.17501080036,13.7707281113,9e-08,0.0,0.0,0.0,9e-08,0.0,0.0,0.0,9e-08
2761810000000,1485,2761810000000,base_link,0.0825568762672,-0.0779353725829,0.000742753911308,-0.993534108415,1.0,0.0,0.0,0.0,1.0,0.0,0.0,0.0,1.0,-0.287555605173,0.0305819772184,0.0395771041512,1.21846967915e-07,0.0,0.0,0.0,1.21846967915e-07,0.0,0.0,0.0,1.21846967915e-07,-0.740815520287,-0.733341872692,13.7374944687,9e-08,0.0,0.0,0.0,9e-08,0.0,0.0,0.0,9e-08
2761830000000,1486,2761830000000,base_link,0.0816619449032,-0.078285113388,0.000456028900888,-0.993580764976,1.0,0.0,0.0,0.0,1.0,0.0,0.0,0.0,1.0,0.168307766318,0.0250768456608,0.0417682267725,1.21846967915e-07,0.0,0.0,0.0,1.21846967915e-07,0.0,0.0,0.0,1.21846967915e-07,-0.749761044979,-0.239079669118,13.7466335297,9e-08,0.0,0.0,0.0,9e-08,0.0,0.0,0.0,9e-08
2761850000000,1487,2761850000000,base_link,0.0768972221117,-0.0782955452269,0.0003283239499,-0.993960086613,1.0,0.0,0.0,0.0,1.0,0.0,0.0,0.0,1.0,0.405230104923,-0.0179200135171,0.0407909303904,1.21846967915e-07,0.0,0.0,0.0,1.21846967915e-07,0.0,0.0,0.0,1.21846967915e-07,-0.856780171394,-0.542745351791,13.7165870667,9e-08,0.0,0.0,0.0,9e-08,0.0,0.0,0.0,9e-08
2761870000000,1488,2761870000000,base_link,0.0765656619918,-0.0780880471544,7.45156281673e-05,-0.99400198058,1.0,0.0,0.0,0.0,1.0,0.0,0.0,0.0,1.0,-0.0987626761198,-0.0358592160046,0.0312874950469,1.21846967915e-07,0.0,0.0,0.0,1.21846967915e-07,0.0,0.0,0.0,1.21846967915e-07,-0.850225389004,-1.23960494995,13.8132514954,9e-08,0.0,0.0,0.0,9e-08,0.0,0.0,0.0,9e-08
2761890000000,1489,2761890000000,base_link,0.0806068739541,-0.0779102998178,-0.000508838902072,-0.993696289488,1.0,0.0,0.0,0.0,1.0,0.0,0.0,0.0,1.0,-0.471413463354,-0.0232169218361,0.0259116590023,1.21846967915e-07,0.0,0.0,0.0,1.21846967915e-07,0.0,0.0,0.0,1.21846967915e-07,-0.876206696033,-1.28415477276,13.6537809372,9e-08,0.0,0.0,0.0,9e-08,0.0,0.0,0.0,9e-08
2761910000000,1490,2761910000000,base_link,0.083742904554,-0.0779698538087,-0.000986784164185,-0.993431944454,1.0,0.0,0.0,0.0,1.0,0.0,0.0,0.0,1.0,-0.275653660297,-0.000693405978382,0.0256444141269,1.21846967915e-07,0.0,0.0,0.0,1.21846967915e-07,0.0,0.0,0.0,1.21846967915e-07,-0.990160703659,-0.681686162949,13.7055215836,9e-08,0.0,0.0,0.0,9e-08,0.0,0.0,0.0,9e-08
2761930000000,1491,2761930000000,base_link,0.0810403913341,-0.077983967076,-0.00108456485273,-0.993654816989,1.0,0.0,0.0,0.0,1.0,0.0,0.0,0.0,1.0,0.457380324602,-0.0134615106508,0.0380677171052,1.21846967915e-07,0.0,0.0,0.0,1.21846967915e-07,0.0,0.0,0.0,1.21846967915e-07,-0.996125042439,-0.346205621958,13.5254735947,9e-08,0.0,0.0,0.0,9e-08,0.0,0.0,0.0,9e-08
2761950000000,1492,2761950000000,base_link,0.0754480324425,-0.0776922887408,-0.0010443989061,-0.994117968708,1.0,0.0,0.0,0.0,1.0,0.0,0.0,0.0,1.0,0.435430169106,-0.0389309935272,0.0323395468295,1.21846967915e-07,0.0,0.0,0.0,1.21846967915e-07,0.0,0.0,0.0,1.21846967915e-07,-1.01063394547,-0.83888310194,13.5252218246,9e-08,0.0,0.0,0.0,9e-08,0.0,0.0,0.0,9e-08
2761966000000,1493,2761970000000,base_link,0.076507949456,-0.0773206719103,-0.00144407747053,-0.994065411587,1.0,0.0,0.0,0.0,1.0,0.0,0.0,0.0,1.0,-0.0684253573418,-0.0497065074742,0.033015076071,1.21846967915e-07,0.0,0.0,0.0,1.21846967915e-07,0.0,0.0,0.0,1.21846967915e-07,-1.09629011154,-1.52306413651,13.6683521271,9e-08,0.0,0.0,0.0,9e-08,0.0,0.0,0.0,9e-08
2761990000000,1494,2761990000000,base_link,0.0804827528023,-0.0771280108455,-0.00188607147086,-0.993765705348,1.0,0.0,0.0,0.0,1.0,0.0,0.0,0.0,1.0,-0.524333119392,-0.0220098420978,0.0162776988,1.21846967915e-07,0.0,0.0,0.0,1.21846967915e-07,0.0,0.0,0.0,1.21846967915e-07,-1.07677078247,-1.45941567421,13.5079021454,9e-08,0.0,0.0,0.0,9e-08,0.0,0.0,0.0,9e-08
2762010000000,1495,2762010000000,base_link,0.0826533665378,-0.0772421040108,-0.00229312573378,-0.993577814697,1.0,0.0,0.0,0.0,1.0,0.0,0.0,0.0,1.0,-0.0491930991411,0.00740921543911,0.0230748113245,1.21846967915e-07,0.0,0.0,0.0,1.21846967915e-07,0.0,0.0,0.0,1.21846967915e-07,-1.05499577522,-0.716586053371,13.7090101242,9e-08,0.0,0.0,0.0,9e-08,0.0,0.0,0.0,9e-08
2762030000000,1496,2762026000000,base_link,0.0792519678551,-0.0772595638367,-0.00222994760786,-0.993853665821,1.0,0.0,0.0,0.0,1.0,0.0,0.0,0.0,1.0,0.458190470934,-0.00654924148694,0.027973683551,1.21846967915e-07,0.0,0.0,0.0,1.21846967915e-07,0.0,0.0,0.0,1.21846967915e-07,-1.11493957043,-0.548872768879,13.340013504,9e-08,0.0,0.0,0.0,9e-08,0.0,0.0,0.0,9e-08
2762050000000,1497,2762050000000,base_link,0.0738827604743,-0.0768319990404,-0.00217106846049,-0.994300548855,1.0,0.0,0.0,0.0,1.0,0.0,0.0,0.0,1.0,0.383035123348,-0.0509167835116,0.0287951640785,1.21846967915e-07,0.0,0.0,0.0,1.21846967915e-07,0.0,0.0,0.0,1.21846967915e-07,-1.00288534164,-1.03654527664,13.5451755524,9e-08,0.0,0.0,0.0,9e-08,0.0,0.0,0.0,9e-08
2762070000000,1498,2762070000000,base_link,0.0755861117332,-0.0762118112515,-0.0024681194488,-0.994219542612,1.0,0.0,0.0,0.0,1.0,0.0,0.0,0.0,1.0,-0.264051765203,-0.0707764029503,0.0115095339715,1.21846967915e-07,0.0,0.0,0.0,1.21846967915e-07,0.0,0.0,0.0,1.21846967915e-07,-1.09683763981,-1.65162932873,13.609629631,9e-08,0.0,0.0,0.0,9e-08,0.0,0.0,0.0,9e-08
2762090000000,1499,2762090000000,base_link,0.0789389991875,-0.0756121877497,-0.00283096166763,-0.994003792895,1.0,0.0,0.0,0.0,1.0,0.0,0.0,0.0,1.0,-0.394408524036,-0.0844731405377,0.00950304791331,1.21846967915e-07,0.0,0.0,0.0,1.21846967915e-07,0.0,0.0,0.0,1.21846967915e-07,-1.2328158617,-1.27991390228,13.5107803345,9e-08,0.0,0.0,0.0,9e-08,0.0,0.0,0.0,9e-08
2762110000000,1500,2762110000000,base_link,0.0781616387623,-0.0742804461184,-0.00306786910311,-0.994164920297,1.0,0.0,0.0,0.0,1.0,0.0,0.0,0.0,1.0,0.0795185044408,-0.121863424778,0.0195399932563,1.21846967915e-07,0.0,0.0,0.0,1.21846967915e-07,0.0,0.0,0.0,1.21846967915e-07,-1.11902499199,-0.657038509846,13.6133832932,9e-08,0.0,0.0,0.0,9e-08,0.0,0.0,0.0,9e-08
2762130000000,1501,2762130000000,base_link,0.0715558431754,-0.0727390556906,-0.00294998436782,-0.994776428922,1.0,0.0,0.0,0.0,1.0,0.0,0.0,0.0,1.0,0.676445782185,-0.162702083588,0.0281646847725,1.21846967915e-07,0.0,0.0,0.0,1.21846967915e-07,0.0,0.0,0.0,1.21846967915e-07,-1.16432714462,-0.6901730299,13.1851005554,9e-08,0.0,0.0,0.0,9e-08,0.0,0.0,0.0,9e-08
2762150000000,1502,2762150000000,base_link,0.066291513782,-0.0710552347626,-0.00290598305798,-0.995262887847,1.0,0.0,0.0,0.0,1.0,0.0,0.0,0.0,1.0,0.481305539608,-0.178784549236,0.0231950115412,1.21846967915e-07,0.0,0.0,0.0,1.21846967915e-07,0.0,0.0,0.0,1.21846967915e-07,-1.16572058201,-1.30936861038,11.3531675339,9e-08,0.0,0.0,0.0,9e-08,0.0,0.0,0.0,9e-08
2762170000000,1503,2762170000000,base_link,0.06606247974,-0.0699730698107,-0.00309269359688,-0.995354177921,1.0,0.0,0.0,0.0,1.0,0.0,0.0,0.0,1.0,-0.103010751307,-0.127988263965,0.0140490178019,1.21846967915e-07,0.0,0.0,0.0,1.21846967915e-07,0.0,0.0,0.0,1.21846967915e-07,-1.18171620369,-1.52637326717,10.1235952377,9e-08,0.0,0.0,0.0,9e-08,0.0,0.0,0.0,9e-08
2762190000000,1504,2762190000000,base_link,0.0701028030376,-0.069236743335,-0.00349397374155,-0.995127975785,1.0,0.0,0.0,0.0,1.0,0.0,0.0,0.0,1.0,-0.398872196674,-0.0463910400867,0.00810065399855,1.21846967915e-07,0.0,0.0,0.0,1.21846967915e-07,0.0,0.0,0.0,1.21846967915e-07,-1.06135165691,-1.23645317554,7.86773777008,9e-08,0.0,0.0,0.0,9e-08,0.0,0.0,0.0,9e-08
2762210000000,1505,2762210000000,base_link,0.0729143460799,-0.0692911965282,-0.00372780445709,-0.99492128764,1.0,0.0,0.0,0.0,1.0,0.0,0.0,0.0,1.0,-0.317219793797,0.0152297243476,0.00803038291633,1.21846967915e-07,0.0,0.0,0.0,1.21846967915e-07,0.0,0.0,0.0,1.21846967915e-07,-1.0558205843,-0.867846786976,6.82087230682,9e-08,0.0,0.0,0.0,9e-08,0.0,0.0,0.0,9e-08
2762230000000,1506,2762230000000,base_link,0.0746983579692,-0.0697495444935,-0.0039524893065,-0.994756029847,1.0,0.0,0.0,0.0,1.0,0.0,0.0,0.0,1.0,-0.116284549236,0.0532930269837,0.0185676589608,1.21846967915e-07,0.0,0.0,0.0,1.21846967915e-07,0.0,0.0,0.0,1.21846967915e-07,-1.02009046078,-0.748734951019,5.65908241272,9e-08,0.0,0.0,0.0,9e-08,0.0,0.0,0.0,9e-08
2762250000000,1507,2762250000000,base_link,0.0753240852288,-0.0706630728252,-0.00412647149716,-0.994643666349,1.0,0.0,0.0,0.0,1.0,0.0,0.0,0.0,1.0,-0.0561729595065,0.105560161173,0.0213597044349,1.21846967915e-07,0.0,0.0,0.0,1.21846967915e-07,0.0,0.0,0.0,1.21846967915e-07,-0.869439959526,-0.776086807251,5.20727014542,9e-08,0.0,0.0,0.0,9e-08,0.0,0.0,0.0,9e-08
2762270000000,1508,2762270000000,base_link,0.0763687133084,-0.0721638931247,-0.00426669406215,-0.994455649258,1.0,0.0,0.0,0.0,1.0,0.0,0.0,0.0,1.0,-0.134777650237,0.159924149513,0.018127316609,1.21846967915e-07,0.0,0.0,0.0,1.21846967915e-07,0.0,0.0,0.0,1.21846967915e-07,-0.95522993803,-0.929882645607,5.10383892059,9e-08,0.0,0.0,0.0,9e-08,0.0,0.0,0.0,9e-08
2762290000000,1509,2762290000000,base_link,0.0780568402942,-0.0740104642728,-0.00446495283755,-0.994187932476,1.0,0.0,0.0,0.0,1.0,0.0,0.0,0.0,1.0,-0.17474527657,0.183046236634,0.0256670676172,1.21846967915e-07,0.0,0.0,0.0,1.21846967915e-07,0.0,0.0,0.0,1.21846967915e-07,-0.987070083618,-0.910801231861,5.34004306793,9e-08,0.0,0.0,0.0,9e-08,0.0,0.0,0.0,9e-08
2762310000000,1510,2762310000000,base_link,0.0792015847551,-0.07594478944,-0.00469406310605,-0.993950477132,1.0,0.0,0.0,0.0,1.0,0.0,0.0,0.0,1.0,-0.0657824799418,0.141156733036,0.0281394980848,1.21846967915e-07,0.0,0.0,0.0,1.21846967915e-07,0.0,0.0,0.0,1.21846967915e-07,-0.855076372623,-0.71479254961,5.62917566299,9e-08,0.0,0.0,0.0,9e-08,0.0,0.0,0.0,9e-08
2762330000000,1511,2762330000000,base_link,0.0787019321373,-0.0765617578107,-0.00479239170363,-0.99394234279,1.0,0.0,0.0,0.0,1.0,0.0,0.0,0.0,1.0,0.0686015859246,0.0668878108263,0.0247914604843,1.21846967915e-07,0.0,0.0,0.0,1.21846967915e-07,0.0,0.0,0.0,1.21846967915e-07,-0.919049561024,-0.690279245377,6.0567946434,9e-08,0.0,0.0,0.0,9e-08,0.0,0.0,0.0,9e-08
2762350000000,1512,2762350000000,base_link,0.0766366695122,-0.076219329031,-0.00489560933563,-0.994129516944,1.0,0.0,0.0,0.0,1.0,0.0,0.0,0.0,1.0,0.189925655723,-0.0628017783165,0.021460480988,1.21846967915e-07,0.0,0.0,0.0,1.21846967915e-07,0.0,0.0,0.0,1.21846967915e-07,-0.837745368481,-0.792463183403,6.64331102371,9e-08,0.0,0.0,0.0,9e-08,0.0,0.0,0.0,9e-08
2762370000000,1513,2762370000000,base_link,0.0749240264578,-0.0752202754624,-0.00494959944857,-0.994335910061,1.0,0.0,0.0,0.0,1.0,0.0,0.0,0.0,1.0,0.215748220682,-0.13687863946,0.0148109458387,1.21846967915e-07,0.0,0.0,0.0,1.21846967915e-07,0.0,0.0,0.0,1.21846967915e-07,-0.969173073769,-0.928432762623,7.14798307419,9e-08,0.0,0.0,0.0,9e-08,0.0,0.0,0.0,9e-08
2762390000000,1514,2762390000000,base_link,0.0719159548218,-0.0728183776235,-0.00503414602669,-0.994736305122,1.0,0.0,0.0,0.0,1.0,0.0,0.0,0.0,1.0,0.261991262436,-0.224562197924,0.0106613859534,1.21846967915e-07,0.0,0.0,0.0,1.21846967915e-07,0.0,0.0,0.0,1.21846967915e-07,-0.928085684776,-0.939944863319,7.48320198059,9e-08,0.0,0.0,0.0,9e-08,0.0,0.0,0.0,9e-08
2762410000000,1515,2762410000000,base_link,0.0686876921824,-0.070199534212,-0.00504666364069,-0.995152589545,1.0,0.0,0.0,0.0,1.0,0.0,0.0,0.0,1.0,0.333200097084,-0.27674895525,0.00851538404822,1.21846967915e-07,0.0,0.0,0.0,1.21846967915e-07,0.0,0.0,0.0,1.21846967915e-07,-1.07826554775,-0.794433891773,7.65688467026,9e-08,0.0,0.0,0.0,9e-08,0.0,0.0,0.0,9e-08
2762430000000,1516,2762430000000,base_link,0.0650661814187,-0.0672162755658,-0.00506512396034,-0.995601706363,1.0,0.0,0.0,0.0,1.0,0.0,0.0,0.0,1.0,0.365276515484,-0.312170416117,0.00984769314528,1.21846967915e-07,0.0,0.0,0.0,1.21846967915e-07,0.0,0.0,0.0,1.21846967915e-07,-0.935882866383,-0.86877566576,7.84633684158,9e-08,0.0,0.0,0.0,9e-08,0.0,0.0,0.0,9e-08
2762450000000,1517,2762450000000,base_link,0.0590426708858,-0.0663968448479,0.0333416132137,-0.99548672976,1.0,0.0,0.0,0.0,1.0,0.0,0.0,0.0,1.0,0.347418993711,-0.325797975063,0.00947261415422,1.21846967915e-07,0.0,0.0,0.0,1.21846967915e-07,0.0,0.0,0.0,1.21846967915e-07,-0.982334017754,-0.988071203232,7.93846035004,9e-08,0.0,0.0,0.0,9e-08,0.0,0.0,0.0,9e-08
2762470000000,1518,2762470000000,base_link,0.0565138873047,-0.0637131801597,0.0331961222926,-0.995813705011,1.0,0.0,0.0,0.0,1.0,0.0,0.0,0.0,1.0,0.327436387539,-0.330697208643,4.36329282821e-05,1.21846967915e-07,0.0,0.0,0.0,1.21846967915e-07,0.0,0.0,0.0,1.21846967915e-07,-1.02004671097,-1.01300048828,7.90118074417,9e-08,0.0,0.0,0.0,9e-08,0.0,0.0,0.0,9e-08
2762490000000,1519,2762490000000,base_link,0.0535390721869,-0.0603193114395,0.0329916257837,-0.996196145514,1.0,0.0,0.0,0.0,1.0,0.0,0.0,0.0,1.0,0.302445650101,-0.336872577667,0.00727867428213,1.21846967915e-07,0.0,0.0,0.0,1.21846967915e-07,0.0,0.0,0.0,1.21846967915e-07,-0.968026459217,-0.984140098095,8.0277633667,9e-08,0.0,0.0,0.0,9e-08,0.0,0.0,0.0,9e-08
2762510000000,1520,2762510000000,base_link,0.0508944641271,-0.0569072277075,0.0324956838172,-0.996551738475,1.0,0.0,0.0,0.0,1.0,0.0,0.0,0.0,1.0,0.26208370924,-0.331836223602,0.0228587724268,1.21846967915e-07,0.0,0.0,0.0,1.21846967915e-07,0.0,0.0,0.0,1.21846967915e-07,-1.02312779427,-1.07434558868,8.05466747284,9e-08,0.0,0.0,0.0,9e-08,0.0,0.0,0.0,9e-08
2762530000000,1521,2762530000000,base_link,0.0486372886673,-0.0535836968092,0.0317788502178,-0.996871801642,1.0,0.0,0.0,0.0,1.0,0.0,0.0,0.0,1.0,0.228637173772,-0.326605468988,0.0406440347433,1.21846967915e-07,0.0,0.0,0.0,1.21846967915e-07,0.0,0.0,0.0,1.21846967915e-07,-1.09992218018,-1.05479347706,7.89022254944,9e-08,0.0,0.0,0.0,9e-08,0.0,0.0,0.0,9e-08
2762550000000,1522,2762550000000,base_link,0.0462682395018,-0.0498240462921,0.0305733239098,-0.997217195066,1.0,0.0,0.0,0.0,1.0,0.0,0.0,0.0,1.0,0.205129489303,-0.303338557482,0.0656038448215,1.21846967915e-07,0.0,0.0,0.0,1.21846967915e-07,0.0,0.0,0.0,1.21846967915e-07,-1.05280411243,-1.09301924706,7.82848882675,9e-08,0.0,0.0,0.0,9e-08,0.0,0.0,0.0,9e-08
2762566000000,1523,2762570000000,base_link,0.0443004472673,-0.047058631535,0.0293654373783,-0.997477198974,1.0,0.0,0.0,0.0,1.0,0.0,0.0,0.0,1.0,0.20763233304,-0.269505470991,0.0732337683439,1.21846967915e-07,0.0,0.0,0.0,1.21846967915e-07,0.0,0.0,0.0,1.21846967915e-07,-1.04193079472,-0.993609666824,7.79551410675,9e-08,0.0,0.0,0.0,9e-08,0.0,0.0,0.0,9e-08
2762590000000,1524,2762590000000,base_link,0.0427140459809,-0.0450851308721,0.0282807460851,-0.997668798548,1.0,0.0,0.0,0.0,1.0,0.0,0.0,0.0,1.0,0.208026766777,-0.237547785044,0.0939389765263,1.21846967915e-07,0.0,0.0,0.0,1.21846967915e-07,0.0,0.0,0.0,1.21846967915e-07,-1.02363407612,-1.04314994812,7.73511314392,9e-08,0.0,0.0,0.0,9e-08,0.0,0.0,0.0,9e-08
2762610000000,1525,2762610000000,base_link,0.0404717468769,-0.0425518074498,0.0264312580787,-0.997924292743,1.0,0.0,0.0,0.0,1.0,0.0,0.0,0.0,1.0,0.18968385458,-0.202145859599,0.103974401951,1.21846967915e-07,0.0,0.0,0.0,1.21846967915e-07,0.0,0.0,0.0,1.21846967915e-07,-1.0035431385,-0.942999720573,7.77712154388,9e-08,0.0,0.0,0.0,9e-08,0.0,0.0,0.0,9e-08
2762630000000,1526,2762626000000,base_link,0.0389028304411,-0.040763790622,0.0248392873167,-0.998102152444,1.0,0.0,0.0,0.0,1.0,0.0,0.0,0.0,1.0,0.164394199848,-0.180672496557,0.104470089078,1.21846967915e-07,0.0,0.0,0.0,1.21846967915e-07,0.0,0.0,0.0,1.21846967915e-07,-0.994135677814,-1.00900840759,7.85441684723,9e-08,0.0,0.0,0.0,9e-08,0.0,0.0,0.0,9e-08
2762650000000,1527,2762650000000,base_link,0.0377402735037,-0.0395137460468,0.0235247271117,-0.998228930164,1.0,0.0,0.0,0.0,1.0,0.0,0.0,0.0,1.0,0.150680586696,-0.149417549372,0.112085990608,1.21846967915e-07,0.0,0.0,0.0,1.21846967915e-07,0.0,0.0,0.0,1.21846967915e-07,-1.01863670349,-0.970124304295,7.83326339722,9e-08,0.0,0.0,0.0,9e-08,0.0,0.0,0.0,9e-08
2762670000000,1528,2762670000000,base_link,0.0362410217749,-0.0382026353802,0.0217781195625,-0.998375137582,1.0,0.0,0.0,0.0,1.0,0.0,0.0,0.0,1.0,0.156531006098,-0.129221320152,0.116302832961,1.21846967915e-07,0.0,0.0,0.0,1.21846967915e-07,0.0,0.0,0.0,1.21846967915e-07,-1.05570852757,-0.964252352715,7.86028146744,9e-08,0.0,0.0,0.0,9e-08,0.0,0.0,0.0,9e-08
2762690000000,1529,2762690000000,base_link,0.034698889332,-0.0370844113298,0.0200559571855,-0.998508195183,1.0,0.0,0.0,0.0,1.0,0.0,0.0,0.0,1.0,0.159051343799,-0.10929492116,0.113087326288,1.21846967915e-07,0.0,0.0,0.0,1.21846967915e-07,0.0,0.0,0.0,1.21846967915e-07,-1.07749247551,-1.05305695534,8.07066059113,9e-08,0.0,0.0,0.0,9e-08,0.0,0.0,0.0,9e-08
2762710000000,1530,2762710000000,base_link,0.0329276827583,-0.0359456835785,0.0179695617437,-0.998649513566,1.0,0.0,0.0,0.0,1.0,0.0,0.0,0.0,1.0,0.148718580604,-0.0944101810455,0.112364262342,1.21846967915e-07,0.0,0.0,0.0,1.21846967915e-07,0.0,0.0,0.0,1.21846967915e-07,-0.978118062019,-1.00730538368,8.04110622406,9e-08,0.0,0.0,0.0,9e-08,0.0,0.0,0.0,9e-08
2762730000000,1531,2762730000000,base_link,0.0319443655017,-0.0353286112402,0.016550308767,-0.998727990998,1.0,0.0,0.0,0.0,1.0,0.0,0.0,0.0,1.0,0.121250092983,-0.0780899077654,0.110039442778,1.21846967915e-07,0.0,0.0,0.0,1.21846967915e-07,0.0,0.0,0.0,1.21846967915e-07,-1.01603794098,-1.0490449667,8.10410499573,9e-08,0.0,0.0,0.0,9e-08,0.0,0.0,0.0,9e-08
2762750000000,1532,2762750000000,base_link,0.0308053592684,-0.0346440971942,0.0148530551774,-0.998814392037,1.0,0.0,0.0,0.0,1.0,0.0,0.0,0.0,1.0,0.115844413638,-0.0697017610073,0.10549428314,1.21846967915e-07,0.0,0.0,0.0,1.21846967915e-07,0.0,0.0,0.0,1.21846967915e-07,-1.01132798195,-0.993102729321,8.24688529968,9e-08,0.0,0.0,0.0,9e-08,0.0,0.0,0.0,9e-08
2762770000000,1533,2762770000000,base_link,0.0294172789898,-0.0339611024104,0.012829964302,-0.998907747307,1.0,0.0,0.0,0.0,1.0,0.0,0.0,0.0,1.0,0.118449002504,-0.058681897819,0.100860670209,1.21846967915e-07,0.0,0.0,0.0,1.21846967915e-07,0.0,0.0,0.0,1.21846967915e-07,-0.949495792389,-0.953394949436,8.25450611115,9e-08,0.0,0.0,0.0,9e-08,0.0,0.0,0.0,9e-08
2762790000000,1534,2762790000000,base_link,0.0285150361354,-0.0335089246778,0.0115818275302,-0.998964476965,1.0,0.0,0.0,0.0,1.0,0.0,0.0,0.0,1.0,0.114772871137,-0.0604406371713,0.0896870940924,1.21846967915e-07,0.0,0.0,0.0,1.21846967915e-07,0.0,0.0,0.0,1.21846967915e-07,-0.967432975769,-0.920214056969,8.30293083191,9e-08,0.0,0.0,0.0,9e-08,0.0,0.0,0.0,9e-08
