%time,field.header.seq,field.header.stamp,field.header.frame_id,field.orientation.x,field.orientation.y,field.orientation.z,field.orientation.w,field.orientation_covariance0,field.orientation_covariance1,field.orientation_covariance2,field.orientation_covariance3,field.orientation_covariance4,field.orientation_covariance5,field.orientation_covariance6,field.orientation_covariance7,field.orientation_covariance8,field.angular_velocity.x,field.angular_velocity.y,field.angular_velocity.z,field.angular_velocity_covariance0,field.angular_velocity_covariance1,field.angular_velocity_covariance2,field.angular_velocity_covariance3,field.angular_velocity_covariance4,field.angular_velocity_covariance5,field.angular_velocity_covariance6,field.angular_velocity_covariance7,field.angular_velocity_covariance8,field.linear_acceleration.x,field.linear_acceleration.y,field.linear_acceleration.z,field.linear_acceleration_covariance0,field.linear_acceleration_covariance1,field.linear_acceleration_covariance2,field.linear_acceleration_covariance3,field.linear_acceleration_covariance4,field.linear_acceleration_covariance5,field.linear_acceleration_covariance6,field.linear_acceleration_covariance7,field.linear_acceleration_covariance8
2767642000000,1776,2767630000000,base_link,0.00910684835258,-0.0117474741938,0.0192522167844,-0.99970423845,1.0,0.0,0.0,0.0,1.0,0.0,0.0,0.0,1.0,0.00301155098714,-0.0029262881726,0.000683334539644,1.21846967915e-07,0.0,0.0,0.0,1.21846967915e-07,0.0,0.0,0.0,1.21846967915e-07,-0.185976192355,-0.234902068973,9.79442596436,9e-08,0.0,0.0,0.0,9e-08,0.0,0.0,0.0,9e-08
2767650000000,1777,2767650000000,base_link,0.00910318618657,-0.0117835960186,0.0192703399293,-0.999703479806,1.0,0.0,0.0,0.0,1.0,0.0,0.0,0.0,1.0,0.00148599781096,-0.00127132097259,0.00017201868468,1.21846967915e-07,0.0,0.0,0.0,1.21846967915e-07,0.0,0.0,0.0,1.21846967915e-07,-0.197190403938,-0.0984008163214,9.75459957123,9e-08,0.0,0.0,0.0,9e-08,0.0,0.0,0.0,9e-08
2767670000000,1778,2767670000000,base_link,0.00911228661313,-0.0118035650637,0.019267642531,-0.999703226925,1.0,0.0,0.0,0.0,1.0,0.0,0.0,0.0,1.0,0.000365008425433,-0.00308566633612,0.00314904679544,1.21846967915e-07,0.0,0.0,0.0,1.21846967915e-07,0.0,0.0,0.0,1.21846967915e-07,-0.262243211269,-0.136259108782,9.82148456573,9e-08,0.0,0.0,0.0,9e-08,0.0,0.0,0.0,9e-08
2767690000000,1779,2767690000000,base_link,0.00911725047468,-0.0118097055797,0.0192603932731,-0.999703226925,1.0,0.0,0.0,0.0,1.0,0.0,0.0,0.0,1.0,-4.92291292176e-05,-0.00510538229719,0.00301376613788,1.21846967915e-07,0.0,0.0,0.0,1.21846967915e-07,0.0,0.0,0.0,1.21846967915e-07,-0.221307560802,-0.142046868801,9.74651622772,9e-08,0.0,0.0,0.0,9e-08,0.0,0.0,0.0,9e-08
2767710000000,1780,2767710000000,base_link,0.00911375549665,-0.0118269246252,0.0193074713028,-0.99970208896,1.0,0.0,0.0,0.0,1.0,0.0,0.0,0.0,1.0,0.00162127392832,3.48663888867e-08,-0.00376574229449,1.21846967915e-07,0.0,0.0,0.0,1.21846967915e-07,0.0,0.0,0.0,1.21846967915e-07,-0.20246309042,-0.189760565758,9.69304561615,9e-08,0.0,0.0,0.0,9e-08,0.0,0.0,0.0,9e-08
2767730000000,1781,2767730000000,base_link,0.0091124783319,-0.0118520252961,0.0193053218136,-0.999701878226,1.0,0.0,0.0,0.0,1.0,0.0,0.0,0.0,1.0,0.00459859147668,-0.00523658655584,0.00273920362815,1.21846967915e-07,0.0,0.0,0.0,1.21846967915e-07,0.0,0.0,0.0,1.21846967915e-07,-0.245744973421,-0.227499365807,9.73949146271,9e-08,0.0,0.0,0.0,9e-08,0.0,0.0,0.0,9e-08
2767750000000,1782,2767750000000,base_link,0.00909476200291,-0.0118514130143,0.0193375220058,-0.999701456758,1.0,0.0,0.0,0.0,1.0,0.0,0.0,0.0,1.0,-0.00109034636989,-0.00581504777074,-5.05415373482e-05,1.21846967915e-07,0.0,0.0,0.0,1.21846967915e-07,0.0,0.0,0.0,1.21846967915e-07,-0.228066131473,-0.218817934394,9.77425289154,9e-08,0.0,0.0,0.0,9e-08,0.0,0.0,0.0,9e-08
2767770000000,1783,2767770000000,base_link,0.00907989840641,-0.0118980579688,0.0193379856212,-0.999700993142,1.0,0.0,0.0,0.0,1.0,0.0,0.0,0.0,1.0,0.00378335383721,-0.00210282672197,0.000705796759576,1.21846967915e-07,0.0,0.0,0.0,1.21846967915e-07,0.0,0.0,0.0,1.21846967915e-07,-0.24267937243,-0.198437780142,9.71459770203,9e-08,0.0,0.0,0.0,9e-08,0.0,0.0,0.0,9e-08
2767790000000,1784,2767790000000,base_link,0.00907368948415,-0.0119143505246,0.01929212985,-0.999701751786,1.0,0.0,0.0,0.0,1.0,0.0,0.0,0.0,1.0,0.00358264800161,-0.00412504700944,0.00322735006921,1.21846967915e-07,0.0,0.0,0.0,1.21846967915e-07,0.0,0.0,0.0,1.21846967915e-07,-0.28877428174,-0.113873369992,9.84472465515,9e-08,0.0,0.0,0.0,9e-08,0.0,0.0,0.0,9e-08
2767810000000,1785,2767810000000,base_link,0.00907127657708,-0.0119324539131,0.0192919191157,-0.999701541051,1.0,0.0,0.0,0.0,1.0,0.0,0.0,0.0,1.0,0.000739364826586,-0.00401337631047,-0.000956994714215,1.21846967915e-07,0.0,0.0,0.0,1.21846967915e-07,0.0,0.0,0.0,1.21846967915e-07,-0.245046392083,-0.173651188612,9.74847507477,9e-08,0.0,0.0,0.0,9e-08,0.0,0.0,0.0,9e-08
2767830000000,1786,2767826000000,base_link,0.00904415557397,-0.0119010408462,0.0193095786453,-0.999701836079,1.0,0.0,0.0,0.0,1.0,0.0,0.0,0.0,1.0,0.00555826164782,-0.0105945188552,-0.00132237025537,1.21846967915e-07,0.0,0.0,0.0,1.21846967915e-07,0.0,0.0,0.0,1.21846967915e-07,-0.299197793007,-0.17023037374,9.76046848297,9e-08,0.0,0.0,0.0,9e-08,0.0,0.0,0.0,9e-08
2767850000000,1787,2767850000000,base_link,0.0090752815155,-0.011899868143,0.0193273646153,-0.999701246023,1.0,0.0,0.0,0.0,1.0,0.0,0.0,0.0,1.0,-0.00323079572991,-0.00599204283208,-0.00107277953066,1.21846967915e-07,0.0,0.0,0.0,1.21846967915e-07,0.0,0.0,0.0,1.21846967915e-07,-0.2369530797,-0.20899823308,9.83499717712,9e-08,0.0,0.0,0.0,9e-08,0.0,0.0,0.0,9e-08
2767870000000,1788,2767870000000,base_link,0.00905739906866,-0.0119325941831,0.0193558558849,-0.999700403087,1.0,0.0,0.0,0.0,1.0,0.0,0.0,0.0,1.0,0.00286174658686,-0.00219520949759,-0.00154431175906,1.21846967915e-07,0.0,0.0,0.0,1.21846967915e-07,0.0,0.0,0.0,1.21846967915e-07,-0.252506822348,-0.113099858165,9.76692676544,9e-08,0.0,0.0,0.0,9e-08,0.0,0.0,0.0,9e-08
2767890000000,1789,2767890000000,base_link,0.00905634786699,-0.0119215097265,0.0193956003631,-0.999699855177,1.0,0.0,0.0,0.0,1.0,0.0,0.0,0.0,1.0,0.00107488012873,-0.00862702075392,-0.00318437162787,1.21846967915e-07,0.0,0.0,0.0,1.21846967915e-07,0.0,0.0,0.0,1.21846967915e-07,-0.211083933711,-0.167527064681,9.79461860657,9e-08,0.0,0.0,0.0,9e-08,0.0,0.0,0.0,9e-08
2767910000000,1790,2767910000000,base_link,0.0090500212299,-0.0119044975463,0.0194154515287,-0.999699644443,1.0,0.0,0.0,0.0,1.0,0.0,0.0,0.0,1.0,0.00228358479217,-0.00920514576137,0.00167477852665,1.21846967915e-07,0.0,0.0,0.0,1.21846967915e-07,0.0,0.0,0.0,1.21846967915e-07,-0.264016330242,-0.233787536621,9.73109531403,9e-08,0.0,0.0,0.0,9e-08,0.0,0.0,0.0,9e-08
2767930000000,1791,2767930000000,base_link,0.00902592228754,-0.0119245121956,0.01943736789,-0.999699222975,1.0,0.0,0.0,0.0,1.0,0.0,0.0,0.0,1.0,0.00346070807427,-0.00247433874756,-0.000941432313994,1.21846967915e-07,0.0,0.0,0.0,1.21846967915e-07,0.0,0.0,0.0,1.21846967915e-07,-0.231055930257,-0.193897455931,9.76771354675,9e-08,0.0,0.0,0.0,9e-08,0.0,0.0,0.0,9e-08
2767950000000,1792,2767950000000,base_link,0.0092661062289,-0.0119275168872,0.0193910485034,-0.999697916422,1.0,0.0,0.0,0.0,1.0,0.0,0.0,0.0,1.0,-0.029849531129,-0.00667301611975,0.00730270752683,1.21846967915e-07,0.0,0.0,0.0,1.21846967915e-07,0.0,0.0,0.0,1.21846967915e-07,-0.201466009021,-0.246300190687,9.78100585938,9e-08,0.0,0.0,0.0,9e-08,0.0,0.0,0.0,9e-08
2767970000000,1793,2767970000000,base_link,0.0103589807609,-0.0120791215709,0.0189768292763,-0.999693280269,1.0,0.0,0.0,0.0,1.0,0.0,0.0,0.0,1.0,-0.123054966331,0.0099568227306,0.0469778105617,1.21846967915e-07,0.0,0.0,0.0,1.21846967915e-07,0.0,0.0,0.0,1.21846967915e-07,-0.0536495298147,0.153429314494,10.4497127533,9e-08,0.0,0.0,0.0,9e-08,0.0,0.0,0.0,9e-08
2767990000000,1794,2767990000000,base_link,0.0121238338618,-0.0126883899098,0.0184752396321,-0.999675283565,1.0,0.0,0.0,0.0,1.0,0.0,0.0,0.0,1.0,-0.254025548697,0.088628180325,0.0666099190712,1.21846967915e-07,0.0,0.0,0.0,1.21846967915e-07,0.0,0.0,0.0,1.21846967915e-07,0.556380689144,0.572510659695,11.5040416718,9e-08,0.0,0.0,0.0,9e-08,0.0,0.0,0.0,9e-08
2768010000000,1795,2768010000000,base_link,0.0156261412783,-0.0146318372767,0.0177131403174,-0.999613917753,1.0,0.0,0.0,0.0,1.0,0.0,0.0,0.0,1.0,-0.404973447323,0.237812280655,0.0813741460443,1.21846967915e-07,0.0,0.0,0.0,1.21846967915e-07,0.0,0.0,0.0,1.21846967915e-07,0.701245546341,0.639900684357,12.3048028946,9e-08,0.0,0.0,0.0,9e-08,0.0,0.0,0.0,9e-08
2768030000000,1796,2768030000000,base_link,0.0208262701967,-0.0187017285642,0.0168367387494,-0.999466403784,1.0,0.0,0.0,0.0,1.0,0.0,0.0,0.0,1.0,-0.58584100008,0.461701720953,0.0899033769965,1.21846967915e-07,0.0,0.0,0.0,1.21846967915e-07,0.0,0.0,0.0,1.21846967915e-07,0.244003757834,0.316441446543,13.18800354,9e-08,0.0,0.0,0.0,9e-08,0.0,0.0,0.0,9e-08
2768050000000,1797,2768050000000,base_link,0.0278826365029,-0.0249431117975,0.015956038203,-0.999172640249,1.0,0.0,0.0,0.0,1.0,0.0,0.0,0.0,1.0,-0.792629957199,0.68777346611,0.0928243473172,1.21846967915e-07,0.0,0.0,0.0,1.21846967915e-07,0.0,0.0,0.0,1.21846967915e-07,0.417394310236,0.528328180313,13.9261808395,9e-08,0.0,0.0,0.0,9e-08,0.0,0.0,0.0,9e-08
2768070000000,1798,2768070000000,base_link,0.0368522482959,-0.0332319759252,0.0149969445182,-0.998655414125,1.0,0.0,0.0,0.0,1.0,0.0,0.0,0.0,1.0,-0.937698483467,0.831595778465,0.100651569664,1.21846967915e-07,0.0,0.0,0.0,1.21846967915e-07,0.0,0.0,0.0,1.21846967915e-07,-0.462439417839,-0.438989698887,13.6935224533,9e-08,0.0,0.0,0.0,9e-08,0.0,0.0,0.0,9e-08
2768090000000,1799,2768090000000,base_link,0.0474391077648,-0.0439201606984,0.0137756131421,-0.997812982916,1.0,0.0,0.0,0.0,1.0,0.0,0.0,0.0,1.0,-0.864179670811,0.86203199625,0.108274281025,1.21846967915e-07,0.0,0.0,0.0,1.21846967915e-07,0.0,0.0,0.0,1.21846967915e-07,-0.634243309498,-0.395504206419,13.8067960739,9e-08,0.0,0.0,0.0,9e-08,0.0,0.0,0.0,9e-08
2768110000000,1800,2768110000000,base_link,0.0526721944074,-0.0509638820445,0.0127903884113,-0.997228574715,1.0,0.0,0.0,0.0,1.0,0.0,0.0,0.0,1.0,-0.560895562172,0.704023480415,0.109532229602,1.21846967915e-07,0.0,0.0,0.0,1.21846967915e-07,0.0,0.0,0.0,1.21846967915e-07,-0.237459436059,-0.0549860782921,13.9468450546,9e-08,0.0,0.0,0.0,9e-08,0.0,0.0,0.0,9e-08
2768130000000,1801,2768130000000,base_link,0.0553195774915,-0.055690069034,0.0117634383005,-0.996845038394,1.0,0.0,0.0,0.0,1.0,0.0,0.0,0.0,1.0,-0.249767526984,0.427526921034,0.114894755185,1.21846967915e-07,0.0,0.0,0.0,1.21846967915e-07,0.0,0.0,0.0,1.21846967915e-07,-0.209632754326,-0.088504076004,13.8087902069,9e-08,0.0,0.0,0.0,9e-08,0.0,0.0,0.0,9e-08
2768150000000,1802,2768150000000,base_link,0.0579477210948,-0.0585779890599,0.0108671855669,-0.996540358826,1.0,0.0,0.0,0.0,1.0,0.0,0.0,0.0,1.0,-0.389305472374,0.331872791052,0.11435867846,1.21846967915e-07,0.0,0.0,0.0,1.21846967915e-07,0.0,0.0,0.0,1.21846967915e-07,-0.346092104912,-0.401248306036,13.7728996277,9e-08,0.0,0.0,0.0,9e-08,0.0,0.0,0.0,9e-08
2768170000000,1803,2768170000000,base_link,0.0644734197448,-0.0628375741135,0.00944283282147,-0.995894374079,1.0,0.0,0.0,0.0,1.0,0.0,0.0,0.0,1.0,-0.602025389671,0.341562449932,0.10498162359,1.21846967915e-07,0.0,0.0,0.0,1.21846967915e-07,0.0,0.0,0.0,1.21846967915e-07,-0.485162168741,-0.624591529369,13.6046905518,9e-08,0.0,0.0,0.0,9e-08,0.0,0.0,0.0,9e-08
2768190000000,1804,2768190000000,base_link,0.0692356882232,-0.0665468432592,0.00839329199985,-0.995342924713,1.0,0.0,0.0,0.0,1.0,0.0,0.0,0.0,1.0,-0.457539737225,0.35613450408,0.097978644073,1.21846967915e-07,0.0,0.0,0.0,1.21846967915e-07,0.0,0.0,0.0,1.21846967915e-07,-0.437213182449,-0.424968153238,13.497800827,9e-08,0.0,0.0,0.0,9e-08,0.0,0.0,0.0,9e-08
2768210000000,1805,2768210000000,base_link,0.0704194665927,-0.0696122890831,0.0075612710634,-0.995056789758,1.0,0.0,0.0,0.0,1.0,0.0,0.0,0.0,1.0,-0.0712677240372,0.281877696514,0.0968535840511,1.21846967915e-07,0.0,0.0,0.0,1.21846967915e-07,0.0,0.0,0.0,1.21846967915e-07,-0.488549798727,-0.11950969696,13.5812988281,9e-08,0.0,0.0,0.0,9e-08,0.0,0.0,0.0,9e-08
2768230000000,1806,2768230000000,base_link,0.0697696075459,-0.0716771548117,0.00688228533389,-0.994960947825,1.0,0.0,0.0,0.0,1.0,0.0,0.0,0.0,1.0,0.0708561316133,0.183702766895,0.086641728878,1.21846967915e-07,0.0,0.0,0.0,1.21846967915e-07,0.0,0.0,0.0,1.21846967915e-07,-0.412846744061,-0.229702860117,13.4208660126,9e-08,0.0,0.0,0.0,9e-08,0.0,0.0,0.0,9e-08
2768250000000,1807,2768250000000,base_link,0.0707609428289,-0.0728007694604,0.0062495346972,-0.994813476002,1.0,0.0,0.0,0.0,1.0,0.0,0.0,0.0,1.0,-0.211660057306,0.11764100194,0.0806362628937,1.21846967915e-07,0.0,0.0,0.0,1.21846967915e-07,0.0,0.0,0.0,1.21846967915e-07,-0.469466388226,-0.70862275362,13.5070028305,9e-08,0.0,0.0,0.0,9e-08,0.0,0.0,0.0,9e-08
2768270000000,1808,2768270000000,base_link,0.0748687426547,-0.0740411729029,0.00530742619243,-0.994426694373,1.0,0.0,0.0,0.0,1.0,0.0,0.0,0.0,1.0,-0.481924712658,0.111578926444,0.0705797672272,1.21846967915e-07,0.0,0.0,0.0,1.21846967915e-07,0.0,0.0,0.0,1.21846967915e-07,-0.59712356329,-0.943094074726,13.5087413788,9e-08,0.0,0.0,0.0,9e-08,0.0,0.0,0.0,9e-08
2768290000000,1809,2768290000000,base_link,0.0785354645157,-0.0755617481794,0.00432586823746,-0.994034180773,1.0,0.0,0.0,0.0,1.0,0.0,0.0,0.0,1.0,-0.233469873667,0.113635390997,0.067346803844,1.21846967915e-07,0.0,0.0,0.0,1.21846967915e-07,0.0,0.0,0.0,1.21846967915e-07,-0.622441530228,-0.521560609341,13.5727901459,9e-08,0.0,0.0,0.0,9e-08,0.0,0.0,0.0,9e-08
2768310000000,1810,2768310000000,base_link,0.0775333143679,-0.0764028657558,0.00395636681657,-0.994050154428,1.0,0.0,0.0,0.0,1.0,0.0,0.0,0.0,1.0,0.215698614717,0.0859182626009,0.0657381415367,1.21846967915e-07,0.0,0.0,0.0,1.21846967915e-07,0.0,0.0,0.0,1.21846967915e-07,-0.690634250641,-0.254543811083,13.8436946869,9e-08,0.0,0.0,0.0,9e-08,0.0,0.0,0.0,9e-08
2768326000000,1811,2768330000000,base_link,0.0748833935825,-0.0770662369834,0.00360098458992,-0.994203400369,1.0,0.0,0.0,0.0,1.0,0.0,0.0,0.0,1.0,0.268786013126,0.0492359809577,0.0602030195296,1.21846967915e-07,0.0,0.0,0.0,1.21846967915e-07,0.0,0.0,0.0,1.21846967915e-07,-0.657338142395,-0.36160209775,13.7555809021,9e-08,0.0,0.0,0.0,9e-08,0.0,0.0,0.0,9e-08
2768350000000,1812,2768350000000,base_link,0.0761454920741,-0.0774277720737,0.00287163337644,-0.994081806712,1.0,0.0,0.0,0.0,1.0,0.0,0.0,0.0,1.0,-0.221775591373,0.0147296478972,0.0535811632872,1.21846967915e-07,0.0,0.0,0.0,1.21846967915e-07,0.0,0.0,0.0,1.21846967915e-07,-0.710835635662,-0.987675130367,13.8882961273,9e-08,0.0,0.0,0.0,9e-08,0.0,0.0,0.0,9e-08
2768370000000,1813,2768370000000,base_link,0.0804702819449,-0.0776750617927,0.00207906189019,-0.993723769233,1.0,0.0,0.0,0.0,1.0,0.0,0.0,0.0,1.0,-0.462486416101,0.0149058774114,0.0484301820397,1.21846967915e-07,0.0,0.0,0.0,1.21846967915e-07,0.0,0.0,0.0,1.21846967915e-07,-0.750701665878,-1.10023903847,13.6670560837,9e-08,0.0,0.0,0.0,9e-08,0.0,0.0,0.0,9e-08
2768390000000,1814,2768390000000,base_link,0.0820505511942,-0.0779678722482,0.00155024538193,-0.993572504194,1.0,0.0,0.0,0.0,1.0,0.0,0.0,0.0,1.0,-0.210314244032,0.0217740572989,0.0416118614376,1.21846967915e-07,0.0,0.0,0.0,1.21846967915e-07,0.0,0.0,0.0,1.21846967915e-07,-0.758407771587,-0.437053471804,13.8033370972,9e-08,0.0,0.0,0.0,9e-08,0.0,0.0,0.0,9e-08
2768410000000,1815,2768410000000,base_link,0.0796477857847,-0.0781213130363,0.00134937350192,-0.993756264454,1.0,0.0,0.0,0.0,1.0,0.0,0.0,0.0,1.0,0.324569374323,0.00991872977465,0.0517621822655,1.21846967915e-07,0.0,0.0,0.0,1.21846967915e-07,0.0,0.0,0.0,1.21846967915e-07,-0.809053361416,-0.33128041029,13.6654548645,9e-08,0.0,0.0,0.0,9e-08,0.0,0.0,0.0,9e-08
2768430000000,1816,2768430000000,base_link,0.0759405158978,-0.0781166572913,0.00116165143866,-0.994047077708,1.0,0.0,0.0,0.0,1.0,0.0,0.0,0.0,1.0,0.362370371819,-0.0140088582411,0.0489363670349,1.21846967915e-07,0.0,0.0,0.0,1.21846967915e-07,0.0,0.0,0.0,1.21846967915e-07,-0.83011931181,-0.63650727272,13.6294565201,9e-08,0.0,0.0,0.0,9e-08,0.0,0.0,0.0,9e-08
2768450000000,1817,2768450000000,base_link,0.0768952632711,-0.0779878300981,0.00066967127599,-0.993984236757,1.0,0.0,0.0,0.0,1.0,0.0,0.0,0.0,1.0,-0.293378502131,-0.020642966032,0.0361348204315,1.21846967915e-07,0.0,0.0,0.0,1.21846967915e-07,0.0,0.0,0.0,1.21846967915e-07,-0.772651493549,-1.29797232151,13.6743984222,9e-08,0.0,0.0,0.0,9e-08,0.0,0.0,0.0,9e-08
2768470000000,1818,2768470000000,base_link,0.0815120397583,-0.0779399511136,-5.39479660933e-06,-0.99362029872,1.0,0.0,0.0,0.0,1.0,0.0,0.0,0.0,1.0,-0.471450924873,-0.0101034753025,0.0312699116766,1.21846967915e-07,0.0,0.0,0.0,1.21846967915e-07,0.0,0.0,0.0,1.21846967915e-07,-0.779880583286,-1.1878207922,13.7038345337,9e-08,0.0,0.0,0.0,9e-08,0.0,0.0,0.0,9e-08
2768490000000,1819,2768490000000,base_link,0.0828988696255,-0.0779460324428,-0.000402544550128,-0.993504942796,1.0,0.0,0.0,0.0,1.0,0.0,0.0,0.0,1.0,0.0666201934218,-0.0104887895286,0.0293444022536,1.21846967915e-07,0.0,0.0,0.0,1.21846967915e-07,0.0,0.0,0.0,1.21846967915e-07,-0.985928118229,-0.50791567564,13.7775602341,9e-08,0.0,0.0,0.0,9e-08,0.0,0.0,0.0,9e-08
2768510000000,1820,2768506000000,base_link,0.0787864495336,-0.0778229471404,-0.000473814870959,-0.993849156108,1.0,0.0,0.0,0.0,1.0,0.0,0.0,0.0,1.0,0.524004518986,-0.0262800175697,0.0445757247508,1.21846967915e-07,0.0,0.0,0.0,1.21846967915e-07,0.0,0.0,0.0,1.21846967915e-07,-0.951732218266,-0.416222006083,13.5940732956,9e-08,0.0,0.0,0.0,9e-08,0.0,0.0,0.0,9e-08
2768530000000,1821,2768530000000,base_link,0.0750452586365,-0.0774025582155,-0.000652264627555,-0.994171326618,1.0,0.0,0.0,0.0,1.0,0.0,0.0,0.0,1.0,0.212997227907,-0.0492678880692,0.034757591784,1.21846967915e-07,0.0,0.0,0.0,1.21846967915e-07,0.0,0.0,0.0,1.21846967915e-07,-0.999908447266,-0.964009523392,13.6196908951,9e-08,0.0,0.0,0.0,9e-08,0.0,0.0,0.0,9e-08
2768550000000,1822,2768550000000,base_link,0.0783706091757,-0.0769849082184,-0.00113859711252,-0.993946810356,1.0,0.0,0.0,0.0,1.0,0.0,0.0,0.0,1.0,-0.424353867769,-0.048244740814,0.0189414676279,1.21846967915e-07,0.0,0.0,0.0,1.21846967915e-07,0.0,0.0,0.0,1.21846967915e-07,-1.00308036804,-1.59859621525,13.6696214676,9e-08,0.0,0.0,0.0,9e-08,0.0,0.0,0.0,9e-08
2768570000000,1823,2768570000000,base_link,0.08239459526,-0.0768505915629,-0.0016330217924,-0.99363100402,1.0,0.0,0.0,0.0,1.0,0.0,0.0,0.0,1.0,-0.460102081299,-0.0164609570056,0.0255553685129,1.21846967915e-07,0.0,0.0,0.0,1.21846967915e-07,0.0,0.0,0.0,1.21846967915e-07,-1.09587478638,-1.40252232552,13.4859695435,9e-08,0.0,0.0,0.0,9e-08,0.0,0.0,0.0,9e-08
2768590000000,1824,2768590000000,base_link,0.0820176295664,-0.0767758062608,-0.00195982845576,-0.993667334603,1.0,0.0,0.0,0.0,1.0,0.0,0.0,0.0,1.0,0.0535988509655,-0.0129941757768,0.027321562171,1.21846967915e-07,0.0,0.0,0.0,1.21846967915e-07,0.0,0.0,0.0,1.21846967915e-07,-1.17135870457,-0.403880029917,13.6443080902,9e-08,0.0,0.0,0.0,9e-08,0.0,0.0,0.0,9e-08
2768610000000,1825,2768610000000,base_link,0.0762766857058,-0.0765688498823,-0.00188973824668,-0.994140601565,1.0,0.0,0.0,0.0,1.0,0.0,0.0,0.0,1.0,0.623749613762,-0.0339621901512,0.037039514631,1.21846967915e-07,0.0,0.0,0.0,1.21846967915e-07,0.0,0.0,0.0,1.21846967915e-07,-1.10128128529,-0.487669557333,13.4554071426,9e-08,0.0,0.0,0.0,9e-08,0.0,0.0,0.0,9e-08
2768630000000,1826,2768630000000,base_link,0.0735464113364,-0.0761469403781,-0.00199063780202,-0.994378562672,1.0,0.0,0.0,0.0,1.0,0.0,0.0,0.0,1.0,0.198812946677,-0.0529743134975,0.0262834429741,1.21846967915e-07,0.0,0.0,0.0,1.21846967915e-07,0.0,0.0,0.0,1.21846967915e-07,-1.09268414974,-1.22388708591,13.6874914169,9e-08,0.0,0.0,0.0,9e-08,0.0,0.0,0.0,9e-08
2768650000000,1827,2768650000000,base_link,0.0770858407422,-0.0758250119244,-0.00246563278474,-0.994133942363,1.0,0.0,0.0,0.0,1.0,0.0,0.0,0.0,1.0,-0.442060083151,-0.0360723622143,0.0191787555814,1.21846967915e-07,0.0,0.0,0.0,1.21846967915e-07,0.0,0.0,0.0,1.21846967915e-07,-1.1142333746,-1.72188723087,13.4346170425,9e-08,0.0,0.0,0.0,9e-08,0.0,0.0,0.0,9e-08
2768670000000,1828,2768670000000,base_link,0.0803355106467,-0.0756869700884,-0.00282160506726,-0.993886203188,1.0,0.0,0.0,0.0,1.0,0.0,0.0,0.0,1.0,-0.32200729847,-0.0231269933283,0.012597004883,1.21846967915e-07,0.0,0.0,0.0,1.21846967915e-07,0.0,0.0,0.0,1.21846967915e-07,-1.24035036564,-1.39868366718,13.498465538,9e-08,0.0,0.0,0.0,9e-08,0.0,0.0,0.0,9e-08
2768690000000,1829,2768690000000,base_link,0.0776650100986,-0.0751667013232,-0.00293325206896,-0.994137609139,1.0,0.0,0.0,0.0,1.0,0.0,0.0,0.0,1.0,0.401876837015,-0.0646311044693,0.0271268449724,1.21846967915e-07,0.0,0.0,0.0,1.21846967915e-07,0.0,0.0,0.0,1.21846967915e-07,-1.20570278168,-0.574600696564,13.5027608871,9e-08,0.0,0.0,0.0,9e-08,0.0,0.0,0.0,9e-08
2768710000000,1830,2768710000000,base_link,0.0722153014962,-0.0744181363328,-0.00283483917769,-0.994604891248,1.0,0.0,0.0,0.0,1.0,0.0,0.0,0.0,1.0,0.699616312981,-0.112661577761,0.0341414101422,1.21846967915e-07,0.0,0.0,0.0,1.21846967915e-07,0.0,0.0,0.0,1.21846967915e-07,-1.1820141077,-0.566938817501,12.8493032455,9e-08,0.0,0.0,0.0,9e-08,0.0,0.0,0.0,9e-08
2768730000000,1831,2768730000000,base_link,0.0678255989756,-0.0734407221868,-0.00285110786122,-0.994986488815,1.0,0.0,0.0,0.0,1.0,0.0,0.0,0.0,1.0,0.380404770374,-0.10532848537,0.0261138323694,1.21846967915e-07,0.0,0.0,0.0,1.21846967915e-07,0.0,0.0,0.0,1.21846967915e-07,-1.22228002548,-1.34567296505,11.5763788223,9e-08,0.0,0.0,0.0,9e-08,0.0,0.0,0.0,9e-08
2768750000000,1832,2768750000000,base_link,0.0700994412091,-0.07306357243,-0.00327666459063,-0.994855369969,1.0,0.0,0.0,0.0,1.0,0.0,0.0,0.0,1.0,-0.324850231409,-0.0193596594036,0.0208826810122,1.21846967915e-07,0.0,0.0,0.0,1.21846967915e-07,0.0,0.0,0.0,1.21846967915e-07,-1.12047243118,-1.54508471489,9.21722793579,9e-08,0.0,0.0,0.0,9e-08,0.0,0.0,0.0,9e-08
2768770000000,1833,2768770000000,base_link,0.074578148613,-0.0734433535249,-0.00366146531754,-0.994500324917,1.0,0.0,0.0,0.0,1.0,0.0,0.0,0.0,1.0,-0.461527317762,0.0398813635111,0.00869232416153,1.21846967915e-07,0.0,0.0,0.0,1.21846967915e-07,0.0,0.0,0.0,1.21846967915e-07,-1.07647490501,-1.30173456669,7.92733240128,9e-08,0.0,0.0,0.0,9e-08,0.0,0.0,0.0,9e-08
2768790000000,1834,2768790000000,base_link,0.0771839107375,-0.0739736119575,-0.0039484010622,-0.994261015111,1.0,0.0,0.0,0.0,1.0,0.0,0.0,0.0,1.0,-0.225938335061,0.0475522689521,0.0155979087576,1.21846967915e-07,0.0,0.0,0.0,1.21846967915e-07,0.0,0.0,0.0,1.21846967915e-07,-0.993444144726,-0.771264970303,6.57754659653,9e-08,0.0,0.0,0.0,9e-08,0.0,0.0,0.0,9e-08
2768810000000,1835,2768810000000,base_link,0.0773479446256,-0.0744960975482,-0.00415728084342,-0.994208415844,1.0,0.0,0.0,0.0,1.0,0.0,0.0,0.0,1.0,0.0135300010443,0.0468080192804,0.0252001956105,1.21846967915e-07,0.0,0.0,0.0,1.21846967915e-07,0.0,0.0,0.0,1.21846967915e-07,-0.888585269451,-0.577265977859,5.65357112885,9e-08,0.0,0.0,0.0,9e-08,0.0,0.0,0.0,9e-08
2768830000000,1836,2768830000000,base_link,0.0775557256253,-0.0756109057281,-0.00441475594097,-0.99410696838,1.0,0.0,0.0,0.0,1.0,0.0,0.0,0.0,1.0,-0.0339733175933,0.114970475435,0.0341687947512,1.21846967915e-07,0.0,0.0,0.0,1.21846967915e-07,0.0,0.0,0.0,1.21846967915e-07,-0.95309484005,-0.759328186512,5.21188163757,9e-08,0.0,0.0,0.0,9e-08,0.0,0.0,0.0,9e-08
2768850000000,1837,2768850000000,base_link,0.0788492374308,-0.0770799828653,-0.0046473643979,-0.993891302956,1.0,0.0,0.0,0.0,1.0,0.0,0.0,0.0,1.0,-0.170688435435,0.182150110602,0.0320440083742,1.21846967915e-07,0.0,0.0,0.0,1.21846967915e-07,0.0,0.0,0.0,1.21846967915e-07,-0.969142735004,-0.963138103485,5.23654270172,9e-08,0.0,0.0,0.0,9e-08,0.0,0.0,0.0,9e-08
2768870000000,1838,2768870000000,base_link,0.0813934352339,-0.07950993505,-0.00504426127033,-0.993492804504,1.0,0.0,0.0,0.0,1.0,0.0,0.0,0.0,1.0,-0.226406827569,0.202856302261,0.0342839732766,1.21846967915e-07,0.0,0.0,0.0,1.21846967915e-07,0.0,0.0,0.0,1.21846967915e-07,-0.940646529198,-0.850357890129,5.59437084198,9e-08,0.0,0.0,0.0,9e-08,0.0,0.0,0.0,9e-08
2768890000000,1839,2768890000000,base_link,0.082059326629,-0.0807815342809,-0.00523952761948,-0.9933343745,1.0,0.0,0.0,0.0,1.0,0.0,0.0,0.0,1.0,-0.0341256521642,0.133985131979,0.0314927771688,1.21846967915e-07,0.0,0.0,0.0,1.21846967915e-07,0.0,0.0,0.0,1.21846967915e-07,-0.952836453915,-0.804112434387,5.98782587051,9e-08,0.0,0.0,0.0,9e-08,0.0,0.0,0.0,9e-08
2768910000000,1840,2768910000000,base_link,0.080656452395,-0.0814302644178,-0.00538573503696,-0.993395529577,1.0,0.0,0.0,0.0,1.0,0.0,0.0,0.0,1.0,0.1626085639,0.0150829739869,0.0248570609838,1.21846967915e-07,0.0,0.0,0.0,1.21846967915e-07,0.0,0.0,0.0,1.21846967915e-07,-0.80746358633,-0.792741298676,6.31992149353,9e-08,0.0,0.0,0.0,9e-08,0.0,0.0,0.0,9e-08
2768930000000,1841,2768930000000,base_link,0.0783588546501,-0.0807546127345,-0.0054992365,-0.993633954299,1.0,0.0,0.0,0.0,1.0,0.0,0.0,0.0,1.0,0.237768366933,-0.0910051167011,0.0244879145175,1.21846967915e-07,0.0,0.0,0.0,1.21846967915e-07,0.0,0.0,0.0,1.21846967915e-07,-0.865503489971,-0.842467367649,6.75699996948,9e-08,0.0,0.0,0.0,9e-08,0.0,0.0,0.0,9e-08
2768950000000,1842,2768950000000,base_link,0.0766200489601,-0.0795205588547,-0.0056226003256,-0.993868332924,1.0,0.0,0.0,0.0,1.0,0.0,0.0,0.0,1.0,0.212819486856,-0.18241751194,0.0174213778228,1.21846967915e-07,0.0,0.0,0.0,1.21846967915e-07,0.0,0.0,0.0,1.21846967915e-07,-0.891242027283,-0.971565008163,7.13033437729,9e-08,0.0,0.0,0.0,9e-08,0.0,0.0,0.0,9e-08
2768970000000,1843,2768970000000,base_link,0.0743816612812,-0.0774039548238,-0.00575182256313,-0.994204664775,1.0,0.0,0.0,0.0,1.0,0.0,0.0,0.0,1.0,0.236585155129,-0.240625560284,0.0131197515875,1.21846967915e-07,0.0,0.0,0.0,1.21846967915e-07,0.0,0.0,0.0,1.21846967915e-07,-0.962544977665,-0.978827178478,7.3994846344,9e-08,0.0,0.0,0.0,9e-08,0.0,0.0,0.0,9e-08
2768990000000,1844,2768990000000,base_link,0.0712872641943,-0.074733337384,-0.00581837243693,-0.994635194832,1.0,0.0,0.0,0.0,1.0,0.0,0.0,0.0,1.0,0.344058781862,-0.296481817961,0.011263711378,1.21846967915e-07,0.0,0.0,0.0,1.21846967915e-07,0.0,0.0,0.0,1.21846967915e-07,-0.972994863987,-0.919822454453,7.74518871307,9e-08,0.0,0.0,0.0,9e-08,0.0,0.0,0.0,9e-08
2769010000000,1845,2769010000000,base_link,0.0674827916563,-0.0715941693133,-0.00585541951677,-0.995131221093,1.0,0.0,0.0,0.0,1.0,0.0,0.0,0.0,1.0,0.394077479839,-0.337752223015,0.00488305650651,1.21846967915e-07,0.0,0.0,0.0,1.21846967915e-07,0.0,0.0,0.0,1.21846967915e-07,-0.995292067528,-0.872494220734,7.80614805222,9e-08,0.0,0.0,0.0,9e-08,0.0,0.0,0.0,9e-08
2769030000000,1846,2769030000000,base_link,0.0636918161527,-0.0681405546366,-0.00584252258113,-0.995623496283,1.0,0.0,0.0,0.0,1.0,0.0,0.0,0.0,1.0,0.367136001587,-0.362646669149,0.00140918046236,1.21846967915e-07,0.0,0.0,0.0,1.21846967915e-07,0.0,0.0,0.0,1.21846967915e-07,-1.04731416702,-1.06512725353,7.91391324997,9e-08,0.0,0.0,0.0,9e-08,0.0,0.0,0.0,9e-08
2769050000000,1847,2769050000000,base_link,0.0567431826242,-0.0666567101328,0.041065107497,-0.995314433443,1.0,0.0,0.0,0.0,1.0,0.0,0.0,0.0,1.0,0.311738550663,-0.358714878559,-0.00334744201973,1.21846967915e-07,0.0,0.0,0.0,1.21846967915e-07,0.0,0.0,0.0,1.21846967915e-07,-1.05624055862,-1.01635563374,7.88300561905,9e-08,0.0,0.0,0.0,9e-08,0.0,0.0,0.0,9e-08
2769070000000,1848,2769070000000,base_link,0.0545816706324,-0.0637696618758,0.0408300966697,-0.995634075142,1.0,0.0,0.0,0.0,1.0,0.0,0.0,0.0,1.0,0.288472443819,-0.35042437911,-0.000787862867583,1.21846967915e-07,0.0,0.0,0.0,1.21846967915e-07,0.0,0.0,0.0,1.21846967915e-07,-1.04075038433,-1.09325289726,7.92793703079,9e-08,0.0,0.0,0.0,9e-08,0.0,0.0,0.0,9e-08
2769090000000,1849,2769090000000,base_link,0.0513989227204,-0.0595191387033,0.0403984286473,-0.996084203484,1.0,0.0,0.0,0.0,1.0,0.0,0.0,0.0,1.0,0.284538298845,-0.344687193632,0.00586246000603,1.21846967915e-07,0.0,0.0,0.0,1.21846967915e-07,0.0,0.0,0.0,1.21846967915e-07,-1.04749584198,-1.06968343258,8.02998352051,9e-08,0.0,0.0,0.0,9e-08,0.0,0.0,0.0,9e-08
2769110000000,1850,2769110000000,base_link,0.0494130201826,-0.05669238744,0.0399050154918,-0.996369411208,1.0,0.0,0.0,0.0,1.0,0.0,0.0,0.0,1.0,0.256442666054,-0.342599391937,0.0233886092901,1.21846967915e-07,0.0,0.0,0.0,1.21846967915e-07,0.0,0.0,0.0,1.21846967915e-07,-1.021956563,-0.984441280365,8.05007839203,9e-08,0.0,0.0,0.0,9e-08,0.0,0.0,0.0,9e-08
2769130000000,1851,2769130000000,base_link,0.047400405104,-0.053327159479,0.03890335349,-0.996692508949,1.0,0.0,0.0,0.0,1.0,0.0,0.0,0.0,1.0,0.212047532201,-0.329025268555,0.0493435561657,1.21846967915e-07,0.0,0.0,0.0,1.21846967915e-07,0.0,0.0,0.0,1.21846967915e-07,-1.06919836998,-1.08941090107,8.00203037262,9e-08,0.0,0.0,0.0,9e-08,0.0,0.0,0.0,9e-08
2769150000000,1852,2769150000000,base_link,0.045765942087,-0.0502584872809,0.0376783131912,-0.996975398596,1.0,0.0,0.0,0.0,1.0,0.0,0.0,0.0,1.0,0.17373046279,-0.300608634949,0.0685707256198,1.21846967915e-07,0.0,0.0,0.0,1.21846967915e-07,0.0,0.0,0.0,1.21846967915e-07,-1.05913639069,-1.05513525009,7.88026046753,9e-08,0.0,0.0,0.0,9e-08,0.0,0.0,0.0,9e-08
2769170000000,1853,2769170000000,base_link,0.0439154438733,-0.0470300584413,0.0358430286728,-0.997283787087,1.0,0.0,0.0,0.0,1.0,0.0,0.0,0.0,1.0,0.169951528311,-0.26073217392,0.090121537447,1.21846967915e-07,0.0,0.0,0.0,1.21846967915e-07,0.0,0.0,0.0,1.21846967915e-07,-1.0945186615,-0.992237210274,7.83281087875,9e-08,0.0,0.0,0.0,9e-08,0.0,0.0,0.0,9e-08
2769190000000,1854,2769190000000,base_link,0.042502680935,-0.0451752499715,0.0344245764862,-0.997480655016,1.0,0.0,0.0,0.0,1.0,0.0,0.0,0.0,1.0,0.191288873553,-0.222671866417,0.114907220006,1.21846967915e-07,0.0,0.0,0.0,1.21846967915e-07,0.0,0.0,0.0,1.21846967915e-07,-1.07254970074,-1.01280903816,7.81736946106,9e-08,0.0,0.0,0.0,9e-08,0.0,0.0,0.0,9e-08
2769210000000,1855,2769210000000,base_link,0.0407030086103,-0.0431341432117,0.0325470186787,-0.997709090935,1.0,0.0,0.0,0.0,1.0,0.0,0.0,0.0,1.0,0.186446666718,-0.194307029247,0.123083859682,1.21846967915e-07,0.0,0.0,0.0,1.21846967915e-07,0.0,0.0,0.0,1.21846967915e-07,-1.11161243916,-1.00555741787,7.85185623169,9e-08,0.0,0.0,0.0,9e-08,0.0,0.0,0.0,9e-08
2769230000000,1856,2769230000000,base_link,0.039039834946,-0.0412623711293,0.0304854055838,-0.997919867324,1.0,0.0,0.0,0.0,1.0,0.0,0.0,0.0,1.0,0.170566424727,-0.177971929312,0.130928575993,1.21846967915e-07,0.0,0.0,0.0,1.21846967915e-07,0.0,0.0,0.0,1.21846967915e-07,-1.01449084282,-1.01324415207,7.86715698242,9e-08,0.0,0.0,0.0,9e-08,0.0,0.0,0.0,9e-08
2769250000000,1857,2769250000000,base_link,0.0372527314371,-0.0393575582226,0.0279881205158,-0.998138188,1.0,0.0,0.0,0.0,1.0,0.0,0.0,0.0,1.0,0.154267773032,-0.152846366167,0.131405636668,1.21846967915e-07,0.0,0.0,0.0,1.21846967915e-07,0.0,0.0,0.0,1.21846967915e-07,-1.09967768192,-1.05612552166,7.95827150345,9e-08,0.0,0.0,0.0,9e-08,0.0,0.0,0.0,9e-08
2769270000000,1858,2769270000000,base_link,0.0360428273722,-0.0383445163249,0.026212768816,-0.99827031837,1.0,0.0,0.0,0.0,1.0,0.0,0.0,0.0,1.0,0.158016294241,-0.125478446484,0.136412084103,1.21846967915e-07,0.0,0.0,0.0,1.21846967915e-07,0.0,0.0,0.0,1.21846967915e-07,-1.11022377014,-0.937735319138,7.97713661194,9e-08,0.0,0.0,0.0,9e-08,0.0,0.0,0.0,9e-08
2769290000000,1859,2769290000000,base_link,0.0344727211934,-0.0372757609032,0.0240113124777,-0.998421583409,1.0,0.0,0.0,0.0,1.0,0.0,0.0,0.0,1.0,0.161189973354,-0.100042685866,0.136481076479,1.21846967915e-07,0.0,0.0,0.0,1.21846967915e-07,0.0,0.0,0.0,1.21846967915e-07,-1.07349097729,-0.98372733593,8.10321903229,9e-08,0.0,0.0,0.0,9e-08,0.0,0.0,0.0,9e-08
2769310000000,1860,2769310000000,base_link,0.0326592168822,-0.0362235903487,0.0213881347733,-0.998580940643,1.0,0.0,0.0,0.0,1.0,0.0,0.0,0.0,1.0,0.14961591363,-0.0874432176352,0.138943582773,1.21846967915e-07,0.0,0.0,0.0,1.21846967915e-07,0.0,0.0,0.0,1.21846967915e-07,-1.01283431053,-1.01846528053,8.2438211441,9e-08,0.0,0.0,0.0,9e-08,0.0,0.0,0.0,9e-08
2769330000000,1861,2769330000000,base_link,0.0315751031324,-0.0356454060514,0.0196778156607,-0.998671809249,1.0,0.0,0.0,0.0,1.0,0.0,0.0,0.0,1.0,0.136881053448,-0.0724338442087,0.127447530627,1.21846967915e-07,0.0,0.0,0.0,1.21846967915e-07,0.0,0.0,0.0,1.21846967915e-07,-1.04242300987,-1.00644648075,8.19850730896,9e-08,0.0,0.0,0.0,9e-08,0.0,0.0,0.0,9e-08
2769350000000,1862,2769350000000,base_link,0.0299115910586,-0.034953109491,0.0171576870008,-0.998793950816,1.0,0.0,0.0,0.0,1.0,0.0,0.0,0.0,1.0,0.141826018691,-0.058754183352,0.129591166973,1.21846967915e-07,0.0,0.0,0.0,1.21846967915e-07,0.0,0.0,0.0,1.21846967915e-07,-1.09421563148,-0.913194656372,8.32489871979,9e-08,0.0,0.0,0.0,9e-08,0.0,0.0,0.0,9e-08
2769370000000,1863,2769370000000,base_link,0.0288603587654,-0.0345500805814,0.015540638864,-0.99886530543,1.0,0.0,0.0,0.0,1.0,0.0,0.0,0.0,1.0,0.13573256135,-0.0529926121235,0.114257320762,1.21846967915e-07,0.0,0.0,0.0,1.21846967915e-07,0.0,0.0,0.0,1.21846967915e-07,-1.05348134041,-0.996140658855,8.30375766754,9e-08,0.0,0.0,0.0,9e-08,0.0,0.0,0.0,9e-08
2769390000000,1864,2769390000000,base_link,0.0273274742631,-0.0339727355991,0.013163008699,-0.998962369622,1.0,0.0,0.0,0.0,1.0,0.0,0.0,0.0,1.0,0.126167461276,-0.0496566444635,0.113436743617,1.21846967915e-07,0.0,0.0,0.0,1.21846967915e-07,0.0,0.0,0.0,1.21846967915e-07,-1.07955396175,-1.03389894962,8.36583995819,9e-08,0.0,0.0,0.0,9e-08,0.0,0.0,0.0,9e-08
2769410000000,1865,2769410000000,base_link,0.0261672600978,-0.0328413940007,0.0113382187459,-0.999053659696,1.0,0.0,0.0,0.0,1.0,0.0,0.0,0.0,1.0,0.117888227105,-0.137821048498,0.101398065686,1.21846967915e-07,0.0,0.0,0.0,1.21846967915e-07,0.0,0.0,0.0,1.21846967915e-07,-0.98654282093,-0.941513538361,8.3787279129,9e-08,0.0,0.0,0.0,9e-08,0.0,0.0,0.0,9e-08
2769430000000,1866,2769426000000,base_link,0.0251922931855,-0.0292582582718,0.00988271947938,-0.999205556938,1.0,0.0,0.0,0.0,1.0,0.0,0.0,0.0,1.0,0.131671324372,-0.540528893471,0.082438968122,1.21846967915e-07,0.0,0.0,0.0,1.21846967915e-07,0.0,0.0,0.0,1.21846967915e-07,-0.473577439785,-0.704320549965,4.45769119263,9e-08,0.0,0.0,0.0,9e-08,0.0,0.0,0.0,9e-08
2769450000000,1867,2769450000000,base_link,0.023709615211,-0.0225175013144,0.0078500612694,-0.999434498619,1.0,0.0,0.0,0.0,1.0,0.0,0.0,0.0,1.0,0.127810835838,-0.551614880562,0.0764265209436,1.21846967915e-07,0.0,0.0,0.0,1.21846967915e-07,0.0,0.0,0.0,1.21846967915e-07,-0.728501200676,-0.798709213734,6.03831195831,9e-08,0.0,0.0,0.0,9e-08,0.0,0.0,0.0,9e-08
2769470000000,1868,2769470000000,base_link,0.0228770261976,-0.0207715066232,0.00649942336202,-0.999501343521,1.0,0.0,0.0,0.0,1.0,0.0,0.0,0.0,1.0,0.106924392283,-0.209006756544,0.0854025483131,1.21846967915e-07,0.0,0.0,0.0,1.21846967915e-07,0.0,0.0,0.0,1.21846967915e-07,-1.48478543758,-1.00020718575,8.97489833832,9e-08,0.0,0.0,0.0,9e-08,0.0,0.0,0.0,9e-08
2769490000000,1869,2769490000000,base_link,0.0218771013128,-0.0227215821583,0.00450258997327,-0.999492324095,1.0,0.0,0.0,0.0,1.0,0.0,0.0,0.0,1.0,0.0803981870413,0.224964737892,0.0912281572819,1.21846967915e-07,0.0,0.0,0.0,1.21846967915e-07,0.0,0.0,0.0,1.21846967915e-07,-1.35033714771,-0.974716186523,9.83657455444,9e-08,0.0,0.0,0.0,9e-08,0.0,0.0,0.0,9e-08
2769510000000,1870,2769510000000,base_link,0.0203791777448,-0.0283677249973,0.00324547592273,-0.999384554604,1.0,0.0,0.0,0.0,1.0,0.0,0.0,0.0,1.0,0.246972441673,0.94315725565,0.105975240469,1.21846967915e-07,0.0,0.0,0.0,1.21846967915e-07,0.0,0.0,0.0,1.21846967915e-07,-1.64841198921,-0.930080711842,11.8491926193,9e-08,0.0,0.0,0.0,9e-08,0.0,0.0,0.0,9e-08
2769530000000,1871,2769530000000,base_link,0.0157685900942,-0.0459703473875,0.00178719496426,-0.998816752261,1.0,0.0,0.0,0.0,1.0,0.0,0.0,0.0,1.0,0.529119729996,2.06692218781,0.123392522335,1.21846967915e-07,0.0,0.0,0.0,1.21846967915e-07,0.0,0.0,0.0,1.21846967915e-07,-2.31482601166,-0.717868506908,13.192155838,9e-08,0.0,0.0,0.0,9e-08,0.0,0.0,0.0,9e-08
2769550000000,1872,2769550000000,base_link,0.0113322128199,-0.0674935996888,0.000278632815506,-0.997655311556,1.0,0.0,0.0,0.0,1.0,0.0,0.0,0.0,1.0,0.284898459911,1.63682103157,0.0868065580726,1.21846967915e-07,0.0,0.0,0.0,1.21846967915e-07,0.0,0.0,0.0,1.21846967915e-07,-1.4543056488,-0.985404849052,12.4101953506,9e-08,0.0,0.0,0.0,9e-08,0.0,0.0,0.0,9e-08
2769570000000,1873,2769570000000,base_link,0.013335294479,-0.0723087875691,-0.000719067382444,-0.997292932953,1.0,0.0,0.0,0.0,1.0,0.0,0.0,0.0,1.0,-0.284493476152,0.282418698072,0.0106917079538,1.21846967915e-07,0.0,0.0,0.0,1.21846967915e-07,0.0,0.0,0.0,1.21846967915e-07,-0.102758526802,-1.39707267284,11.4797592163,9e-08,0.0,0.0,0.0,9e-08,0.0,0.0,0.0,9e-08
2769590000000,1874,2769590000000,base_link,0.0170173590687,-0.0686088895941,-0.00132488618294,-0.997497598049,1.0,0.0,0.0,0.0,1.0,0.0,0.0,0.0,1.0,-0.465619087219,-0.633106231689,-0.0418774336576,1.21846967915e-07,0.0,0.0,0.0,1.21846967915e-07,0.0,0.0,0.0,1.21846967915e-07,-0.105654031038,-1.08859288692,9.07810020447,9e-08,0.0,0.0,0.0,9e-08,0.0,0.0,0.0,9e-08
2769610000000,1875,2769610000000,base_link,0.0198914040352,-0.0610098246614,-0.00176886108515,-0.99793744256,1.0,0.0,0.0,0.0,1.0,0.0,0.0,0.0,1.0,-0.249939829111,-0.795388817787,-0.0540535226464,1.21846967915e-07,0.0,0.0,0.0,1.21846967915e-07,0.0,0.0,0.0,1.21846967915e-07,-0.582445442677,-0.71479254961,7.81872415543,9e-08,0.0,0.0,0.0,9e-08,0.0,0.0,0.0,9e-08
2769630000000,1876,2769626000000,base_link,0.0197935732972,-0.0541057994562,-0.00203257391629,-0.998336952537,1.0,0.0,0.0,0.0,1.0,0.0,0.0,0.0,1.0,0.0821876823902,-0.649644136429,-0.0442274585366,1.21846967915e-07,0.0,0.0,0.0,1.21846967915e-07,0.0,0.0,0.0,1.21846967915e-07,-0.969026148319,-0.444622218609,6.66680383682,9e-08,0.0,0.0,0.0,9e-08,0.0,0.0,0.0,9e-08
2769650000000,1877,2769650000000,base_link,0.0187494891754,-0.0472211446791,-0.00243360117987,-0.998705526727,1.0,0.0,0.0,0.0,1.0,0.0,0.0,0.0,1.0,0.0996795296669,-0.56900113821,-0.0272718779743,1.21846967915e-07,0.0,0.0,0.0,1.21846967915e-07,0.0,0.0,0.0,1.21846967915e-07,-0.884598195553,-0.666256129742,6.072722435,9e-08,0.0,0.0,0.0,9e-08,0.0,0.0,0.0,9e-08
2769670000000,1878,2769670000000,base_link,0.01928374131,-0.0416807320252,-0.00277638149881,-0.99894100117,1.0,0.0,0.0,0.0,1.0,0.0,0.0,0.0,1.0,-0.0744252577424,-0.561996877193,-0.0329397916794,1.21846967915e-07,0.0,0.0,0.0,1.21846967915e-07,0.0,0.0,0.0,1.21846967915e-07,-0.82331353426,-0.88083845377,5.85520124435,9e-08,0.0,0.0,0.0,9e-08,0.0,0.0,0.0,9e-08
2769690000000,1879,2769690000000,base_link,0.0203649489029,-0.0361492228931,-0.00320788093386,-0.999133780855,1.0,0.0,0.0,0.0,1.0,0.0,0.0,0.0,1.0,-0.109388165176,-0.559393048286,-0.0243088137358,1.21846967915e-07,0.0,0.0,0.0,1.21846967915e-07,0.0,0.0,0.0,1.21846967915e-07,-0.787374138832,-0.689622163773,6.35017204285,9e-08,0.0,0.0,0.0,9e-08,0.0,0.0,0.0,9e-08
2769710000000,1880,2769710000000,base_link,0.0204736245518,-0.0321619466315,-0.00350299316713,-0.999266880603,1.0,0.0,0.0,0.0,1.0,0.0,0.0,0.0,1.0,-0.00885708071291,-0.50398516655,-0.0238195806742,1.21846967915e-07,0.0,0.0,0.0,1.21846967915e-07,0.0,0.0,0.0,1.21846967915e-07,-0.879454255104,-0.738431632519,7.09310388565,9e-08,0.0,0.0,0.0,9e-08,0.0,0.0,0.0,9e-08
2769730000000,1881,2769730000000,base_link,0.0193152309328,-0.027398091637,-0.00397141324148,-0.9994300732,1.0,0.0,0.0,0.0,1.0,0.0,0.0,0.0,1.0,0.115416526794,-0.380412876606,-0.0127561055124,1.21846967915e-07,0.0,0.0,0.0,1.21846967915e-07,0.0,0.0,0.0,1.21846967915e-07,-1.0392614603,-0.644398272038,7.85013055801,9e-08,0.0,0.0,0.0,9e-08,0.0,0.0,0.0,9e-08
2769750000000,1882,2769750000000,base_link,0.0186892353164,-0.0250335075679,-0.00431195977745,-0.999502650073,1.0,0.0,0.0,0.0,1.0,0.0,0.0,0.0,1.0,0.0599101595581,-0.281639158726,-0.0054379766807,1.21846967915e-07,0.0,0.0,0.0,1.21846967915e-07,0.0,0.0,0.0,1.21846967915e-07,-1.06015527248,-0.818367004395,8.4489440918,9e-08,0.0,0.0,0.0,9e-08,0.0,0.0,0.0,9e-08
2769770000000,1883,2769770000000,base_link,0.0166774893519,-0.020801885446,-0.00476575489537,-0.999633178863,1.0,0.0,0.0,0.0,1.0,0.0,0.0,0.0,1.0,0.244179189205,-0.408676594496,-0.00832643080503,1.21846967915e-07,0.0,0.0,0.0,1.21846967915e-07,0.0,0.0,0.0,1.21846967915e-07,-0.980434596539,-0.86090952158,9.02750015259,9e-08,0.0,0.0,0.0,9e-08,0.0,0.0,0.0,9e-08
2769790000000,1884,2769790000000,base_link,0.00970714328175,-0.0146869653134,-0.00495326622439,-0.999832744191,1.0,0.0,0.0,0.0,1.0,0.0,0.0,0.0,1.0,0.904091835022,-0.793531179428,-0.0131312357262,1.21846967915e-07,0.0,0.0,0.0,1.21846967915e-07,0.0,0.0,0.0,1.21846967915e-07,-0.69698536396,-0.0701238811016,15.8317346573,9e-08,0.0,0.0,0.0,9e-08,0.0,0.0,0.0,9e-08
2769810000000,1885,2769810000000,base_link,-0.00745813970073,-0.00125011108824,-0.00517150260598,-0.999958088918,1.0,0.0,0.0,0.0,1.0,0.0,0.0,0.0,1.0,1.50074231625,-1.1935634613,-0.00646583922207,1.21846967915e-07,0.0,0.0,0.0,1.21846967915e-07,0.0,0.0,0.0,1.21846967915e-07,-0.653435826302,-0.186916127801,18.3084182739,9e-08,0.0,0.0,0.0,9e-08,0.0,0.0,0.0,9e-08
2769826000000,1886,2769826000000,base_link,-0.0141211856897,0.00599093875689,-0.00538990757497,-0.999867894662,1.0,0.0,0.0,0.0,1.0,0.0,0.0,0.0,1.0,0.81326675415,-0.911449193954,0.00232985126786,1.21846967915e-07,0.0,0.0,0.0,1.21846967915e-07,0.0,0.0,0.0,1.21846967915e-07,-1.11903977394,-1.15894043446,14.9907398224,9e-08,0.0,0.0,0.0,9e-08,0.0,0.0,0.0,9e-08
2769850000000,1887,2769850000000,base_link,-0.0108350662933,0.00927064392983,-0.00575999905174,-0.999881760976,1.0,0.0,0.0,0.0,1.0,0.0,0.0,0.0,1.0,-0.710006833076,-0.113396666944,0.0131302382797,1.21846967915e-07,0.0,0.0,0.0,1.21846967915e-07,0.0,0.0,0.0,1.21846967915e-07,-1.45732176304,-1.88445413113,9.80526733398,9e-08,0.0,0.0,0.0,9e-08,0.0,0.0,0.0,9e-08
2769870000000,1888,2769870000000,base_link,-0.00182384955157,0.00827249188803,-0.00643670885143,-0.999943463962,1.0,0.0,0.0,0.0,1.0,0.0,0.0,0.0,1.0,-0.667645871639,0.106843963265,0.0395839251578,1.21846967915e-07,0.0,0.0,0.0,1.21846967915e-07,0.0,0.0,0.0,1.21846967915e-07,-1.24037182331,-1.2451428175,6.84350633621,9e-08,0.0,0.0,0.0,9e-08,0.0,0.0,0.0,9e-08
2769890000000,1889,2769890000000,base_link,-0.0094758080383,0.0115325823128,-0.00749729214736,-0.999860518964,1.0,0.0,0.0,0.0,1.0,0.0,0.0,0.0,1.0,0.647057175636,-0.2807302773,0.0662738382816,1.21846967915e-07,0.0,0.0,0.0,1.21846967915e-07,0.0,0.0,0.0,1.21846967915e-07,-0.480727672577,0.633099555969,10.3729352951,9e-08,0.0,0.0,0.0,9e-08,0.0,0.0,0.0,9e-08
2769910000000,1890,2769910000000,base_link,-0.0256036240365,0.0184921685065,-0.00859745133404,-0.999464212147,1.0,0.0,0.0,0.0,1.0,0.0,0.0,0.0,1.0,2.20521116257,-0.982927441597,0.0947524160147,1.21846967915e-07,0.0,0.0,0.0,1.21846967915e-07,0.0,0.0,0.0,1.21846967915e-07,-0.231312006712,0.801359534264,10.8931484222,9e-08,0.0,0.0,0.0,9e-08,0.0,0.0,0.0,9e-08
2769930000000,1891,2769930000000,base_link,-0.0536182631518,0.0277137958985,-0.0104965461811,-0.998121708582,1.0,0.0,0.0,0.0,1.0,0.0,0.0,0.0,1.0,2.3723089695,-0.701453566551,0.108801968396,1.21846967915e-07,0.0,0.0,0.0,1.21846967915e-07,0.0,0.0,0.0,1.21846967915e-07,-0.702850162983,-0.22547532618,7.72773504257,9e-08,0.0,0.0,0.0,9e-08,0.0,0.0,0.0,9e-08
2769950000000,1892,2769950000000,base_link,-0.0775470112704,0.0292305016086,-0.0125992103065,-0.996480468154,1.0,0.0,0.0,0.0,1.0,0.0,0.0,0.0,1.0,2.41128587723,-0.086390465498,0.126798063517,1.21846967915e-07,0.0,0.0,0.0,1.21846967915e-07,0.0,0.0,0.0,1.21846967915e-07,-1.09963178635,-0.287339508533,4.90493249893,9e-08,0.0,0.0,0.0,9e-08,0.0,0.0,0.0,9e-08
2769970000000,1893,2769970000000,base_link,-0.0958453526769,0.026214470495,-0.0145917447167,-0.994944046938,1.0,0.0,0.0,0.0,1.0,0.0,0.0,0.0,1.0,2.24684047699,0.479082763195,0.126289978623,1.21846967915e-07,0.0,0.0,0.0,1.21846967915e-07,0.0,0.0,0.0,1.21846967915e-07,-1.09978783131,-0.357455015182,3.79952979088,9e-08,0.0,0.0,0.0,9e-08,0.0,0.0,0.0,9e-08
2769990000000,1894,2769990000000,base_link,-0.114832439442,0.0183224573063,-0.0174477416123,-0.993062653768,1.0,0.0,0.0,0.0,1.0,0.0,0.0,0.0,1.0,1.33955168724,0.664359688759,0.100140027702,1.21846967915e-07,0.0,0.0,0.0,1.21846967915e-07,0.0,0.0,0.0,1.21846967915e-07,-0.87079679966,-0.637401640415,3.40094137192,9e-08,0.0,0.0,0.0,9e-08,0.0,0.0,0.0,9e-08
2770010000000,1895,2770010000000,base_link,-0.114288871537,0.0162087928535,-0.0182817013038,-0.993147073905,1.0,0.0,0.0,0.0,1.0,0.0,0.0,0.0,1.0,-0.133516743779,0.254912495613,0.0465954691172,1.21846967915e-07,0.0,0.0,0.0,1.21846967915e-07,0.0,0.0,0.0,1.21846967915e-07,-0.335718393326,-1.85051941872,9.08359909058,9e-08,0.0,0.0,0.0,9e-08,0.0,0.0,0.0,9e-08
2770030000000,1896,2770030000000,base_link,-0.100940738074,0.0203025425911,-0.0179570019829,-0.994523168509,1.0,0.0,0.0,0.0,1.0,0.0,0.0,0.0,1.0,-1.52240657806,-0.495884120464,0.00402572751045,1.21846967915e-07,0.0,0.0,0.0,1.21846967915e-07,0.0,0.0,0.0,1.21846967915e-07,-0.221611768007,-1.68713963032,12.7358636856,9e-08,0.0,0.0,0.0,9e-08,0.0,0.0,0.0,9e-08
2770050000000,1897,2770050000000,base_link,-0.0884411997964,0.0281152248742,-0.0171692352373,-0.995536505188,1.0,0.0,0.0,0.0,1.0,0.0,0.0,0.0,1.0,-0.951938211918,-0.778168201447,-0.000476790824905,1.21846967915e-07,0.0,0.0,0.0,1.21846967915e-07,0.0,0.0,0.0,1.21846967915e-07,-0.412634968758,-0.679590344429,14.6317300797,9e-08,0.0,0.0,0.0,9e-08,0.0,0.0,0.0,9e-08
2770070000000,1898,2770070000000,base_link,-0.086161574225,0.0336946641928,-0.0168870199397,-0.995568031031,1.0,0.0,0.0,0.0,1.0,0.0,0.0,0.0,1.0,0.0156179666519,-0.421743571758,0.0116297211498,1.21846967915e-07,0.0,0.0,0.0,1.21846967915e-07,0.0,0.0,0.0,1.21846967915e-07,-0.957620620728,0.546001851559,15.0225429535,9e-08,0.0,0.0,0.0,9e-08,0.0,0.0,0.0,9e-08
2770090000000,1899,2770090000000,base_link,-0.0821483881883,0.0352169504091,-0.0170152306529,-0.995852353671,1.0,0.0,0.0,0.0,1.0,0.0,0.0,0.0,1.0,-0.522995889187,-0.0436991453171,0.0119621623307,1.21846967915e-07,0.0,0.0,0.0,1.21846967915e-07,0.0,0.0,0.0,1.21846967915e-07,-0.992340922356,-0.567168414593,14.1220674515,9e-08,0.0,0.0,0.0,9e-08,0.0,0.0,0.0,9e-08
2770110000000,1900,2770110000000,base_link,-0.0692557067415,0.0351677571343,-0.0167830436644,-0.996837620548,1.0,0.0,0.0,0.0,1.0,0.0,0.0,0.0,1.0,-1.67732727528,0.0350456163287,0.004290048033,1.21846967915e-07,0.0,0.0,0.0,1.21846967915e-07,0.0,0.0,0.0,1.21846967915e-07,-0.847137570381,-1.52903938293,13.127038002,9e-08,0.0,0.0,0.0,9e-08,0.0,0.0,0.0,9e-08
2770130000000,1901,2770130000000,base_link,-0.0457864191992,0.0359004267536,-0.0161430859166,-0.998175445814,1.0,0.0,0.0,0.0,1.0,0.0,0.0,0.0,1.0,-2.41363525391,-0.0791282653809,0.00473855203018,1.21846967915e-07,0.0,0.0,0.0,1.21846967915e-07,0.0,0.0,0.0,1.21846967915e-07,-0.591491818428,-1.21099019051,10.5913791656,9e-08,0.0,0.0,0.0,9e-08,0.0,0.0,0.0,9e-08
2770150000000,1902,2770150000000,base_link,-0.0263022195751,0.0373301545393,-0.0156319289379,-0.998834538231,1.0,0.0,0.0,0.0,1.0,0.0,0.0,0.0,1.0,-1.85074555874,-0.131055772305,0.00710100121796,1.21846967915e-07,0.0,0.0,0.0,1.21846967915e-07,0.0,0.0,0.0,1.21846967915e-07,-0.439205169678,0.0505793876946,8.98532485962,9e-08,0.0,0.0,0.0,9e-08,0.0,0.0,0.0,9e-08
2770170000000,1903,2770170000000,base_link,-0.0160154204783,0.0383365389637,-0.0155977056969,-0.999014842449,1.0,0.0,0.0,0.0,1.0,0.0,0.0,0.0,1.0,-0.773828923702,-0.0640957504511,0.0203109756112,1.21846967915e-07,0.0,0.0,0.0,1.21846967915e-07,0.0,0.0,0.0,1.21846967915e-07,-0.578474223614,0.467879652977,7.5108962059,9e-08,0.0,0.0,0.0,9e-08,0.0,0.0,0.0,9e-08
2770190000000,1904,2770190000000,base_link,-0.00865148227674,0.0380436170494,-0.015810505135,-0.999113508221,1.0,0.0,0.0,0.0,1.0,0.0,0.0,0.0,1.0,-0.588988721371,0.0497234091163,0.0268736984581,1.21846967915e-07,0.0,0.0,0.0,1.21846967915e-07,0.0,0.0,0.0,1.21846967915e-07,-0.499899297953,0.00241131708026,6.60252761841,9e-08,0.0,0.0,0.0,9e-08,0.0,0.0,0.0,9e-08
2770210000000,1905,2770210000000,base_link,-0.00111853126136,0.0367913656915,-0.0159072742992,-0.999195778869,1.0,0.0,0.0,0.0,1.0,0.0,0.0,0.0,1.0,-0.780476033688,0.138392671943,0.0220936369151,1.21846967915e-07,0.0,0.0,0.0,1.21846967915e-07,0.0,0.0,0.0,1.21846967915e-07,-0.53970938921,-0.305368840694,6.32423400879,9e-08,0.0,0.0,0.0,9e-08,0.0,0.0,0.0,9e-08
2770230000000,1906,2770230000000,base_link,0.00661746614798,0.0349136432479,-0.0159887441574,-0.999240580969,1.0,0.0,0.0,0.0,1.0,0.0,0.0,0.0,1.0,-0.800478219986,0.186272934079,0.0220751911402,1.21846967915e-07,0.0,0.0,0.0,1.21846967915e-07,0.0,0.0,0.0,1.21846967915e-07,-0.537391662598,-0.288540393114,6.22484731674,9e-08,0.0,0.0,0.0,9e-08,0.0,0.0,0.0,9e-08
2770250000000,1907,2770250000000,base_link,0.0104435175431,0.0330865246814,-0.0161909225897,-0.999266754162,1.0,0.0,0.0,0.0,1.0,0.0,0.0,0.0,1.0,-0.367645472288,0.234084904194,0.0338634178042,1.21846967915e-07,0.0,0.0,0.0,1.21846967915e-07,0.0,0.0,0.0,1.21846967915e-07,-0.468104541302,0.0501193590462,6.86562538147,9e-08,0.0,0.0,0.0,9e-08,0.0,0.0,0.0,9e-08
2770270000000,1908,2770270000000,base_link,0.0113932941401,0.0304542933071,-0.0165763133725,-0.999333767651,1.0,0.0,0.0,0.0,1.0,0.0,0.0,0.0,1.0,-0.0323461815715,0.259016305208,0.0325120128691,1.21846967915e-07,0.0,0.0,0.0,1.21846967915e-07,0.0,0.0,0.0,1.21846967915e-07,-0.519012153149,0.262915760279,7.38594007492,9e-08,0.0,0.0,0.0,9e-08,0.0,0.0,0.0,9e-08
2770290000000,1909,2770290000000,base_link,0.0109609860124,0.0269416590483,-0.0169770456081,-0.999432812745,1.0,0.0,0.0,0.0,1.0,0.0,0.0,0.0,1.0,0.0338862091303,0.287418067455,0.0203641485423,1.21846967915e-07,0.0,0.0,0.0,1.21846967915e-07,0.0,0.0,0.0,1.21846967915e-07,-0.377202868462,-0.0821924284101,8.2601852417,9e-08,0.0,0.0,0.0,9e-08,0.0,0.0,0.0,9e-08
2770310000000,1910,2770310000000,base_link,0.0118207685512,0.0244682870485,-0.017201604017,-0.999482714614,1.0,0.0,0.0,0.0,1.0,0.0,0.0,0.0,1.0,-0.136589214206,0.305166780949,0.0219348948449,1.21846967915e-07,0.0,0.0,0.0,1.21846967915e-07,0.0,0.0,0.0,1.21846967915e-07,-0.469478309155,-0.296305567026,8.84746742249,9e-08,0.0,0.0,0.0,9e-08,0.0,0.0,0.0,9e-08
2770330000000,1911,2770330000000,base_link,0.0133503909533,0.020650559656,-0.0175185904646,-0.999544122572,1.0,0.0,0.0,0.0,1.0,0.0,0.0,0.0,1.0,-0.10553856194,0.313546866179,0.0216908883303,1.21846967915e-07,0.0,0.0,0.0,1.21846967915e-07,0.0,0.0,0.0,1.21846967915e-07,-0.450566470623,-0.209921300411,9.25990581512,9e-08,0.0,0.0,0.0,9e-08,0.0,0.0,0.0,9e-08
2770350000000,1912,2770350000000,base_link,0.0124476369037,0.0173961250584,-0.0178034188669,-0.999612653348,1.0,0.0,0.0,0.0,1.0,0.0,0.0,0.0,1.0,0.0818300768733,0.315538227558,0.0220067743212,1.21846967915e-07,0.0,0.0,0.0,1.21846967915e-07,0.0,0.0,0.0,1.21846967915e-07,-0.400033503771,0.0445748008788,9.60211658478,9e-08,0.0,0.0,0.0,9e-08,0.0,0.0,0.0,9e-08
2770370000000,1913,2770370000000,base_link,0.0099607015212,0.0140939168434,-0.0180950750586,-0.999687337563,1.0,0.0,0.0,0.0,1.0,0.0,0.0,0.0,1.0,0.268478006124,0.31775277853,0.0175387337804,1.21846967915e-07,0.0,0.0,0.0,1.21846967915e-07,0.0,0.0,0.0,1.21846967915e-07,-0.364596664906,0.013595151715,9.73480319977,9e-08,0.0,0.0,0.0,9e-08,0.0,0.0,0.0,9e-08
2770386000000,1914,2770390000000,base_link,0.00852317722707,0.0115590940799,-0.0182760957729,-0.999729863734,1.0,0.0,0.0,0.0,1.0,0.0,0.0,0.0,1.0,0.147429868579,0.300451487303,0.0132308714092,1.21846967915e-07,0.0,0.0,0.0,1.21846967915e-07,0.0,0.0,0.0,1.21846967915e-07,-0.402166187763,-0.139673471451,9.67429733276,9e-08,0.0,0.0,0.0,9e-08,0.0,0.0,0.0,9e-08
2770410000000,1915,2770410000000,base_link,0.00840407582052,0.00858937018004,-0.0184642814515,-0.999757301332,1.0,0.0,0.0,0.0,1.0,0.0,0.0,0.0,1.0,-0.0439709499478,0.281000167131,0.00983634591103,1.21846967915e-07,0.0,0.0,0.0,1.21846967915e-07,0.0,0.0,0.0,1.21846967915e-07,-0.278548955917,-0.339313715696,9.49009037018,9e-08,0.0,0.0,0.0,9e-08,0.0,0.0,0.0,9e-08
2770430000000,1916,2770430000000,base_link,0.00937788864382,0.00532453106285,-0.0186701266597,-0.999767585163,1.0,0.0,0.0,0.0,1.0,0.0,0.0,0.0,1.0,-0.0780176073313,0.264010816813,0.0126309338957,1.21846967915e-07,0.0,0.0,0.0,1.21846967915e-07,0.0,0.0,0.0,1.21846967915e-07,-0.245301634073,-0.208281725645,9.29357242584,9e-08,0.0,0.0,0.0,9e-08,0.0,0.0,0.0,9e-08
2770446000000,1917,2770450000000,base_link,0.00916085789259,0.0028691618589,-0.0188327292012,-0.999776604589,1.0,0.0,0.0,0.0,1.0,0.0,0.0,0.0,1.0,0.0152338370681,0.239248082042,0.0108904670924,1.21846967915e-07,0.0,0.0,0.0,1.21846967915e-07,0.0,0.0,0.0,1.21846967915e-07,-0.318738281727,0.00134128797799,9.0994386673,9e-08,0.0,0.0,0.0,9e-08,0.0,0.0,0.0,9e-08
2770470000000,1918,2770470000000,base_link,0.0082045765222,0.00102124217629,-0.0189865651983,-0.999785624014,1.0,0.0,0.0,0.0,1.0,0.0,0.0,0.0,1.0,0.136395424604,0.213022232056,0.0146428989246,1.21846967915e-07,0.0,0.0,0.0,1.21846967915e-07,0.0,0.0,0.0,1.21846967915e-07,-0.280665785074,-0.0208683945239,8.95772838593,9e-08,0.0,0.0,0.0,9e-08,0.0,0.0,0.0,9e-08
2770490000000,1919,2770490000000,base_link,0.00696657771382,-0.00138723651841,-0.019216181229,-0.999790175874,1.0,0.0,0.0,0.0,1.0,0.0,0.0,0.0,1.0,0.0928562730551,0.187223896384,0.0101906629279,1.21846967915e-07,0.0,0.0,0.0,1.21846967915e-07,0.0,0.0,0.0,1.21846967915e-07,-0.235518366098,-0.132691130042,8.93060779572,9e-08,0.0,0.0,0.0,9e-08,0.0,0.0,0.0,9e-08
2770510000000,1920,2770510000000,base_link,0.00688430377281,-0.00275395805831,-0.0193596912481,-0.999785076105,1.0,0.0,0.0,0.0,1.0,0.0,0.0,0.0,1.0,0.0101991929114,0.163675859571,0.00873122643679,1.21846967915e-07,0.0,0.0,0.0,1.21846967915e-07,0.0,0.0,0.0,1.21846967915e-07,-0.255056023598,-0.234242558479,8.79519748688,9e-08,0.0,0.0,0.0,9e-08,0.0,0.0,0.0,9e-08
2770530000000,1921,2770530000000,base_link,0.00731339968504,-0.00440776005803,-0.0195824373425,-0.999771799848,1.0,0.0,0.0,0.0,1.0,0.0,0.0,0.0,1.0,-0.0343819521368,0.12678296864,0.00694948900491,1.21846967915e-07,0.0,0.0,0.0,1.21846967915e-07,0.0,0.0,0.0,1.21846967915e-07,-0.289488315582,-0.228915840387,8.75473976135,9e-08,0.0,0.0,0.0,9e-08,0.0,0.0,0.0,9e-08
2770550000000,1922,2770546000000,base_link,0.00723290364956,-0.00555887560774,-0.0197982292069,-0.999762358954,1.0,0.0,0.0,0.0,1.0,0.0,0.0,0.0,1.0,0.0210445784032,0.106105558574,0.0132226496935,1.21846967915e-07,0.0,0.0,0.0,1.21846967915e-07,0.0,0.0,0.0,1.21846967915e-07,-0.258313179016,-0.0776090845466,8.84470748901,9e-08,0.0,0.0,0.0,9e-08,0.0,0.0,0.0,9e-08
2770570000000,1923,2770570000000,base_link,0.00666126029413,-0.00649079022424,-0.019935627933,-0.999758059975,1.0,0.0,0.0,0.0,1.0,0.0,0.0,0.0,1.0,0.0631764307618,0.0815182998776,0.00332113821059,1.21846967915e-07,0.0,0.0,0.0,1.21846967915e-07,0.0,0.0,0.0,1.21846967915e-07,-0.157101586461,-0.11767718941,8.96775627136,9e-08,0.0,0.0,0.0,9e-08,0.0,0.0,0.0,9e-08
2770590000000,1924,2770590000000,base_link,0.00643808778189,-0.00710967554588,-0.0200837741056,-0.999752285857,1.0,0.0,0.0,0.0,1.0,0.0,0.0,0.0,1.0,0.0295492745936,0.0694824159145,0.00957249011844,1.21846967915e-07,0.0,0.0,0.0,1.21846967915e-07,0.0,0.0,0.0,1.21846967915e-07,-0.31375670433,-0.283102959394,9.06171989441,9e-08,0.0,0.0,0.0,9e-08,0.0,0.0,0.0,9e-08
2770610000000,1925,2770610000000,base_link,0.00682276492881,-0.0077251589192,-0.0203009568159,-0.999740864061,1.0,0.0,0.0,0.0,1.0,0.0,0.0,0.0,1.0,-0.0530841872096,0.0498608760536,0.0122187361121,1.21846967915e-07,0.0,0.0,0.0,1.21846967915e-07,0.0,0.0,0.0,1.21846967915e-07,-0.271512329578,-0.275317668915,9.20813369751,9e-08,0.0,0.0,0.0,9e-08,0.0,0.0,0.0,9e-08
2770630000000,1926,2770630000000,base_link,0.00738917432683,-0.00825454782612,-0.0205298984971,-0.999727882832,1.0,0.0,0.0,0.0,1.0,0.0,0.0,0.0,1.0,-0.0493155568838,0.0386186763644,0.0101752839983,1.21846967915e-07,0.0,0.0,0.0,1.21846967915e-07,0.0,0.0,0.0,1.21846967915e-07,-0.1961517483,-0.181637093425,9.30800247192,9e-08,0.0,0.0,0.0,9e-08,0.0,0.0,0.0,9e-08
2770650000000,1927,2770650000000,base_link,0.00744677832624,-0.00855572941137,-0.0207040914219,-0.99972135007,1.0,0.0,0.0,0.0,1.0,0.0,0.0,0.0,1.0,-0.00237629376352,0.0317504629493,0.0135742938146,1.21846967915e-07,0.0,0.0,0.0,1.21846967915e-07,0.0,0.0,0.0,1.21846967915e-07,-0.331299126148,-0.136912807822,9.22004890442,9e-08,0.0,0.0,0.0,9e-08,0.0,0.0,0.0,9e-08
2770670000000,1928,2770666000000,base_link,0.00712222265033,-0.00891415139715,-0.0208591075308,-0.999717303973,1.0,0.0,0.0,0.0,1.0,0.0,0.0,0.0,1.0,0.0413488782942,0.0247501116246,0.00559854833409,1.21846967915e-07,0.0,0.0,0.0,1.21846967915e-07,0.0,0.0,0.0,1.21846967915e-07,-0.21723203361,-0.100413993001,9.18733406067,9e-08,0.0,0.0,0.0,9e-08,0.0,0.0,0.0,9e-08
2770686000000,1929,2770690000000,base_link,0.00696440929139,-0.00917194761747,-0.021038484518,-0.999712330645,1.0,0.0,0.0,0.0,1.0,0.0,0.0,0.0,1.0,0.0130820134655,0.0188778992742,0.00879886001348,1.21846967915e-07,0.0,0.0,0.0,1.21846967915e-07,0.0,0.0,0.0,1.21846967915e-07,-0.175442785025,-0.267741262913,9.29194355011,9e-08,0.0,0.0,0.0,9e-08,0.0,0.0,0.0,9e-08
2770706000000,1930,2770710000000,base_link,0.00732411807314,-0.00938664769737,-0.0211891173546,-0.999704575625,1.0,0.0,0.0,0.0,1.0,0.0,0.0,0.0,1.0,-0.0470688603818,0.0174746066332,0.00437515834346,1.21846967915e-07,0.0,0.0,0.0,1.21846967915e-07,0.0,0.0,0.0,1.21846967915e-07,-0.35021173954,-0.242735922337,9.28279399872,9e-08,0.0,0.0,0.0,9e-08,0.0,0.0,0.0,9e-08
2770730000000,1931,2770730000000,base_link,0.0078353845349,-0.00965245321831,-0.0213780195296,-0.9996942075,1.0,0.0,0.0,0.0,1.0,0.0,0.0,0.0,1.0,-0.0411247871816,0.0166138391942,0.00451803393662,1.21846967915e-07,0.0,0.0,0.0,1.21846967915e-07,0.0,0.0,0.0,1.21846967915e-07,-0.244588166475,-0.169567808509,9.28822231293,9e-08,0.0,0.0,0.0,9e-08,0.0,0.0,0.0,9e-08
2770750000000,1932,2770750000000,base_link,0.00784714284709,-0.00980163133007,-0.02155735437,-0.999688770556,1.0,0.0,0.0,0.0,1.0,0.0,0.0,0.0,1.0,0.00847514718771,0.00771268690005,0.00966329313815,1.21846967915e-07,0.0,0.0,0.0,1.21846967915e-07,0.0,0.0,0.0,1.21846967915e-07,-0.230939015746,-0.0803196206689,9.26800632477,9e-08,0.0,0.0,0.0,9e-08,0.0,0.0,0.0,9e-08
2770770000000,1933,2770770000000,base_link,0.00762243750048,-0.00984109732621,-0.0217017916199,-0.999687042536,1.0,0.0,0.0,0.0,1.0,0.0,0.0,0.0,1.0,0.0321357324719,-0.00188952637836,0.00984811875969,1.21846967915e-07,0.0,0.0,0.0,1.21846967915e-07,0.0,0.0,0.0,1.21846967915e-07,-0.148313939571,-0.136096671224,9.20123386383,9e-08,0.0,0.0,0.0,9e-08,0.0,0.0,0.0,9e-08
2770790000000,1934,2770790000000,base_link,0.00747283199334,-0.00986089712538,-0.0218935176338,-0.999683797228,1.0,0.0,0.0,0.0,1.0,0.0,0.0,0.0,1.0,0.00827788095921,-0.00263661914505,0.00701758824289,1.21846967915e-07,0.0,0.0,0.0,1.21846967915e-07,0.0,0.0,0.0,1.21846967915e-07,-0.199860006571,-0.222795054317,9.20414352417,9e-08,0.0,0.0,0.0,9e-08,0.0,0.0,0.0,9e-08
2770810000000,1935,2770810000000,base_link,0.00760997026513,-0.0098348302874,-0.0220313378284,-0.999680004012,1.0,0.0,0.0,0.0,1.0,0.0,0.0,0.0,1.0,-0.0196967627853,-0.00874180812389,0.00963084213436,1.21846967915e-07,0.0,0.0,0.0,1.21846967915e-07,0.0,0.0,0.0,1.21846967915e-07,-0.250932186842,-0.241352334619,9.25328731537,9e-08,0.0,0.0,0.0,9e-08,0.0,0.0,0.0,9e-08
2770830000000,1936,2770830000000,base_link,0.00787029900067,-0.00975959470544,-0.0222102512003,-0.999674735656,1.0,0.0,0.0,0.0,1.0,0.0,0.0,0.0,1.0,-0.0189725961536,-0.0118250427768,0.00546901673079,1.21846967915e-07,0.0,0.0,0.0,1.21846967915e-07,0.0,0.0,0.0,1.21846967915e-07,-0.263256579638,-0.151201024652,9.18254470825,9e-08,0.0,0.0,0.0,9e-08,0.0,0.0,0.0,9e-08
2770850000000,1937,2770850000000,base_link,0.00788706784875,-0.00963864148202,-0.0223492936536,-0.99967267046,1.0,0.0,0.0,0.0,1.0,0.0,0.0,0.0,1.0,0.00431920960546,-0.0199502706528,0.00542627926916,1.21846967915e-07,0.0,0.0,0.0,1.21846967915e-07,0.0,0.0,0.0,1.21846967915e-07,-0.236021965742,-0.032821636647,9.29511260986,9e-08,0.0,0.0,0.0,9e-08,0.0,0.0,0.0,9e-08
2770870000000,1938,2770870000000,base_link,0.00777891113294,-0.0096130912722,-0.0225027924758,-0.999670310237,1.0,0.0,0.0,0.0,1.0,0.0,0.0,0.0,1.0,0.0130660776049,-0.00718497764319,0.00679745897651,1.21846967915e-07,0.0,0.0,0.0,1.21846967915e-07,0.0,0.0,0.0,1.21846967915e-07,-0.253592520952,-0.118459559977,9.33343887329,9e-08,0.0,0.0,0.0,9e-08,0.0,0.0,0.0,9e-08
2770890000000,1939,2770890000000,base_link,0.00774961932018,-0.00968481705888,-0.0226402333488,-0.999666812048,1.0,0.0,0.0,0.0,1.0,0.0,0.0,0.0,1.0,0.00288407178596,0.00361777003855,0.0061177155003,1.21846967915e-07,0.0,0.0,0.0,1.21846967915e-07,0.0,0.0,0.0,1.21846967915e-07,-0.183730974793,-0.122157648206,9.37327194214,9e-08,0.0,0.0,0.0,9e-08,0.0,0.0,0.0,9e-08
