%time,field.header.seq,field.header.stamp,field.header.frame_id,field.orientation.x,field.orientation.y,field.orientation.z,field.orientation.w,field.orientation_covariance0,field.orientation_covariance1,field.orientation_covariance2,field.orientation_covariance3,field.orientation_covariance4,field.orientation_covariance5,field.orientation_covariance6,field.orientation_covariance7,field.orientation_covariance8,field.angular_velocity.x,field.angular_velocity.y,field.angular_velocity.z,field.angular_velocity_covariance0,field.angular_velocity_covariance1,field.angular_velocity_covariance2,field.angular_velocity_covariance3,field.angular_velocity_covariance4,field.angular_velocity_covariance5,field.angular_velocity_covariance6,field.angular_velocity_covariance7,field.angular_velocity_covariance8,field.linear_acceleration.x,field.linear_acceleration.y,field.linear_acceleration.z,field.linear_acceleration_covariance0,field.linear_acceleration_covariance1,field.linear_acceleration_covariance2,field.linear_acceleration_covariance3,field.linear_acceleration_covariance4,field.linear_acceleration_covariance5,field.linear_acceleration_covariance6,field.linear_acceleration_covariance7,field.linear_acceleration_covariance8
3095010000000,1103,3095010000000,base_link,0.00890805986045,-0.00997116916847,0.0160396996972,-0.999781957238,1.0,0.0,0.0,0.0,1.0,0.0,0.0,0.0,1.0,0.000277015729807,-0.00694711552933,0.00053604360437,1.21846967915e-07,0.0,0.0,0.0,1.21846967915e-07,0.0,0.0,0.0,1.21846967915e-07,-0.191859528422,-0.166211396456,9.77870368958,0.00000009,0.0,0.0,0.0,0.00000009,0.0,0.0,0.0,0.00000009
3095030000000,1104,3095030000000,base_link,0.00893948305251,-0.00997741867354,0.0160201014127,-0.999781915092,1.0,0.0,0.0,0.0,1.0,0.0,0.0,0.0,1.0,-2.46571726166e-05,-0.0077977180481,0.00473817903548,1.21846967915e-07,0.0,0.0,0.0,1.21846967915e-07,0.0,0.0,0.0,1.21846967915e-07,-0.220115721226,-0.233548119664,9.79325771332,0.00000009,0.0,0.0,0.0,0.00000009,0.0,0.0,0.0,0.00000009
3095050000000,1105,3095050000000,base_link,0.00891524898505,-0.0100040998924,0.0160192163289,-0.999781957238,1.0,0.0,0.0,0.0,1.0,0.0,0.0,0.0,1.0,0.00402748864144,-0.00552518758923,0.00317041249946,1.21846967915e-07,0.0,0.0,0.0,1.21846967915e-07,0.0,0.0,0.0,1.21846967915e-07,-0.208254635334,-0.097289301455,9.79165840149,0.00000009,0.0,0.0,0.0,0.00000009,0.0,0.0,0.0,0.00000009
3095070000000,1106,3095070000000,base_link,0.00896757112823,-0.0100211751695,0.0160396154035,-0.999780945714,1.0,0.0,0.0,0.0,1.0,0.0,0.0,0.0,1.0,-0.00425441982225,-0.0052318465896,0.00054737739265,1.21846967915e-07,0.0,0.0,0.0,1.21846967915e-07,0.0,0.0,0.0,1.21846967915e-07,-0.248930200934,-0.244117856026,9.76529026031,0.00000009,0.0,0.0,0.0,0.00000009,0.0,0.0,0.0,0.00000009
3095090000000,1107,3095090000000,base_link,0.00892964645551,-0.010003405416,0.0160115034556,-0.999781915092,1.0,0.0,0.0,0.0,1.0,0.0,0.0,0.0,1.0,0.00749285612255,-0.00778660923243,0.00590362632647,1.21846967915e-07,0.0,0.0,0.0,1.21846967915e-07,0.0,0.0,0.0,1.21846967915e-07,-0.196256458759,-0.226723864675,9.79441165924,0.00000009,0.0,0.0,0.0,0.00000009,0.0,0.0,0.0,0.00000009
3095110000000,1108,3095110000000,base_link,0.00892627075636,-0.00999668299371,0.0159956983874,-0.999782210119,1.0,0.0,0.0,0.0,1.0,0.0,0.0,0.0,1.0,0.00138103752397,-0.00717396475375,0.00378807075322,1.21846967915e-07,0.0,0.0,0.0,1.21846967915e-07,0.0,0.0,0.0,1.21846967915e-07,-0.165074452758,-0.148217633367,9.8363904953,0.00000009,0.0,0.0,0.0,0.00000009,0.0,0.0,0.0,0.00000009
3095130000000,1109,3095130000000,base_link,0.00889804767902,-0.00998177799122,0.0159987329605,-0.999782631588,1.0,0.0,0.0,0.0,1.0,0.0,0.0,0.0,1.0,0.0045881900005,-0.00848294701427,0.000834016536828,1.21846967915e-07,0.0,0.0,0.0,1.21846967915e-07,0.0,0.0,0.0,1.21846967915e-07,-0.212711527944,-0.240437179804,9.76997756958,0.00000009,0.0,0.0,0.0,0.00000009,0.0,0.0,0.0,0.00000009
3095146000000,1110,3095146000000,base_link,0.00888111744638,-0.00998706647406,0.0159765215713,-0.999783095203,1.0,0.0,0.0,0.0,1.0,0.0,0.0,0.0,1.0,0.00376794952899,-0.00608406867832,0.00472589908168,1.21846967915e-07,0.0,0.0,0.0,1.21846967915e-07,0.0,0.0,0.0,1.21846967915e-07,-0.186923459172,-0.169953361154,9.75020980835,0.00000009,0.0,0.0,0.0,0.00000009,0.0,0.0,0.0,0.00000009
3095170000000,1111,3095170000000,base_link,0.0088670012979,-0.00997914904039,0.0159249759756,-0.999784148875,1.0,0.0,0.0,0.0,1.0,0.0,0.0,0.0,1.0,0.00270177423954,-0.00786578189582,0.00884834118187,1.21846967915e-07,0.0,0.0,0.0,1.21846967915e-07,0.0,0.0,0.0,1.21846967915e-07,-0.278335005045,-0.178469762206,9.79200935364,0.00000009,0.0,0.0,0.0,0.00000009,0.0,0.0,0.0,0.00000009
3095190000000,1112,3095190000000,base_link,0.00886660464831,-0.00995458026768,0.0158847257353,-0.999784949665,1.0,0.0,0.0,0.0,1.0,0.0,0.0,0.0,1.0,0.00142639828846,-0.0117696020752,0.00346574862488,1.21846967915e-07,0.0,0.0,0.0,1.21846967915e-07,0.0,0.0,0.0,1.21846967915e-07,-0.293950170279,-0.184318929911,9.71698093414,0.00000009,0.0,0.0,0.0,0.00000009,0.0,0.0,0.0,0.00000009
3095210000000,1113,3095210000000,base_link,0.00891810208797,-0.00999927774139,0.0159035232297,-0.999783769553,1.0,0.0,0.0,0.0,1.0,0.0,0.0,0.0,1.0,-0.00384704442695,-0.000417870585807,-0.000774916843511,1.21846967915e-07,0.0,0.0,0.0,1.21846967915e-07,0.0,0.0,0.0,1.21846967915e-07,-0.158524215221,-0.151300296187,9.77660655975,0.00000009,0.0,0.0,0.0,0.00000009,0.0,0.0,0.0,0.00000009
3095230000000,1114,3095230000000,base_link,0.00892618580412,-0.00999064216494,0.015877012862,-0.999784233168,1.0,0.0,0.0,0.0,1.0,0.0,0.0,0.0,1.0,-0.00070858024992,-0.00860781036317,0.00672455364838,1.21846967915e-07,0.0,0.0,0.0,1.21846967915e-07,0.0,0.0,0.0,1.21846967915e-07,-0.163478389382,-0.287255048752,9.80403804779,0.00000009,0.0,0.0,0.0,0.00000009,0.0,0.0,0.0,0.00000009
3095250000000,1115,3095250000000,base_link,0.00895498848295,-0.00993991390526,0.0158360461252,-0.999785160399,1.0,0.0,0.0,0.0,1.0,0.0,0.0,0.0,1.0,0.000724679790437,-0.00916765630245,0.00406746473163,1.21846967915e-07,0.0,0.0,0.0,1.21846967915e-07,0.0,0.0,0.0,1.21846967915e-07,-0.251891732216,-0.190036535263,9.77534675598,0.00000009,0.0,0.0,0.0,0.00000009,0.0,0.0,0.0,0.00000009
3095270000000,1116,3095270000000,base_link,0.00896484417774,-0.00988432229439,0.0158248350635,-0.999785750455,1.0,0.0,0.0,0.0,1.0,0.0,0.0,0.0,1.0,0.000636499782559,-0.0130543280393,0.0022616868373,1.21846967915e-07,0.0,0.0,0.0,1.21846967915e-07,0.0,0.0,0.0,1.21846967915e-07,-0.222294077277,-0.121950469911,9.7079706192,0.00000009,0.0,0.0,0.0,0.00000009,0.0,0.0,0.0,0.00000009
3095290000000,1117,3095290000000,base_link,0.00893210793025,-0.00989331406111,0.0158429160615,-0.999785708308,1.0,0.0,0.0,0.0,1.0,0.0,0.0,0.0,1.0,0.00527113769203,-0.00292048091069,0.000833176192828,1.21846967915e-07,0.0,0.0,0.0,1.21846967915e-07,0.0,0.0,0.0,1.21846967915e-07,-0.247539162636,-0.139570832253,9.78740406036,0.00000009,0.0,0.0,0.0,0.00000009,0.0,0.0,0.0,0.00000009
3095310000000,1118,3095310000000,base_link,0.00886061152285,-0.00989529582733,0.0158632308425,-0.999785961189,1.0,0.0,0.0,0.0,1.0,0.0,0.0,0.0,1.0,0.0100529091433,-0.00670321192592,-0.00148847792298,1.21846967915e-07,0.0,0.0,0.0,1.21846967915e-07,0.0,0.0,0.0,1.21846967915e-07,-0.236703813076,-0.189557060599,9.79904937744,0.00000009,0.0,0.0,0.0,0.00000009,0.0,0.0,0.0,0.00000009
3095330000000,1119,3095330000000,base_link,0.00854368804852,-0.00989932768376,0.0158537899485,-0.999788827175,1.0,0.0,0.0,0.0,1.0,0.0,0.0,0.0,1.0,0.041711807251,-0.00520093319938,0.00339772808366,1.21846967915e-07,0.0,0.0,0.0,1.21846967915e-07,0.0,0.0,0.0,1.21846967915e-07,-0.227214217186,-0.353435724974,10.0588350296,0.00000009,0.0,0.0,0.0,0.00000009,0.0,0.0,0.0,0.00000009
3095350000000,1120,3095350000000,base_link,0.00697849572306,-0.00986244058907,0.0157265907597,-0.999803325691,1.0,0.0,0.0,0.0,1.0,0.0,0.0,0.0,1.0,0.131006523967,-0.00673884572461,0.0149697484449,1.21846967915e-07,0.0,0.0,0.0,1.21846967915e-07,0.0,0.0,0.0,1.21846967915e-07,-0.346726417542,-0.293335556984,10.6860666275,0.00000009,0.0,0.0,0.0,0.00000009,0.0,0.0,0.0,0.00000009
3095370000000,1121,3095370000000,base_link,0.00453820636516,-0.00953589734352,0.0156528337748,-0.99982178601,1.0,0.0,0.0,0.0,1.0,0.0,0.0,0.0,1.0,0.25717484951,-0.037345033139,0.0105478446931,1.21846967915e-07,0.0,0.0,0.0,1.21846967915e-07,0.0,0.0,0.0,1.21846967915e-07,-0.162546873093,-0.0482622981071,11.1618919373,0.00000009,0.0,0.0,0.0,0.00000009,0.0,0.0,0.0,0.00000009
3095390000000,1122,3095390000000,base_link,0.00280768837544,-0.00897740286846,0.015628852218,-0.999833629275,1.0,0.0,0.0,0.0,1.0,0.0,0.0,0.0,1.0,0.192958325148,-0.0805041790009,0.00374051230028,1.21846967915e-07,0.0,0.0,0.0,1.21846967915e-07,0.0,0.0,0.0,1.21846967915e-07,-0.247813299298,-0.176183104515,11.7743806839,0.00000009,0.0,0.0,0.0,0.00000009,0.0,0.0,0.0,0.00000009
3095410000000,1123,3095410000000,base_link,0.00195442279316,-0.00809164140743,0.0156366493849,-0.999843112316,1.0,0.0,0.0,0.0,1.0,0.0,0.0,0.0,1.0,0.0356806330383,-0.0746847242117,0.00469889352098,1.21846967915e-07,0.0,0.0,0.0,1.21846967915e-07,0.0,0.0,0.0,1.21846967915e-07,-0.21616101265,-0.318936705589,12.1417694092,0.00000009,0.0,0.0,0.0,0.00000009,0.0,0.0,0.0,0.00000009
3095430000000,1124,3095426000000,base_link,0.00177777678998,-0.00772143336828,0.0156603780606,-0.999846020448,1.0,0.0,0.0,0.0,1.0,0.0,0.0,0.0,1.0,0.00881774909794,-0.0443711690605,0.000280009990092,1.21846967915e-07,0.0,0.0,0.0,1.21846967915e-07,0.0,0.0,0.0,1.21846967915e-07,-0.221424952149,-0.291921645403,12.2245941162,0.00000009,0.0,0.0,0.0,0.00000009,0.0,0.0,0.0,0.00000009
3095450000000,1125,3095446000000,base_link,0.000582418079949,-0.00753039191142,0.0156683859619,-0.999848717846,1.0,0.0,0.0,0.0,1.0,0.0,0.0,0.0,1.0,0.138670027256,-0.0213255994022,0.00265023531392,1.21846967915e-07,0.0,0.0,0.0,1.21846967915e-07,0.0,0.0,0.0,1.21846967915e-07,-0.249625191092,-0.00473948381841,12.3119039536,0.00000009,0.0,0.0,0.0,0.00000009,0.0,0.0,0.0,0.00000009
3095470000000,1126,3095470000000,base_link,-0.0011998163978,-0.00731246142376,0.0156792177019,-0.99984960293,1.0,0.0,0.0,0.0,1.0,0.0,0.0,0.0,1.0,0.190647274256,-0.0250553674996,0.00224141543731,1.21846967915e-07,0.0,0.0,0.0,1.21846967915e-07,0.0,0.0,0.0,1.21846967915e-07,-0.161597147584,-0.129128873348,12.0228948593,0.00000009,0.0,0.0,0.0,0.00000009,0.0,0.0,0.0,0.00000009
3095486000000,1127,3095486000000,base_link,-0.00204861688368,-0.00696869015997,0.0157322384374,-0.999849855811,1.0,0.0,0.0,0.0,1.0,0.0,0.0,0.0,1.0,0.100247964263,-0.0371041446924,-0.00195701024495,1.21846967915e-07,0.0,0.0,0.0,1.21846967915e-07,0.0,0.0,0.0,1.21846967915e-07,-0.194409489632,-0.231468379498,11.9716463089,0.00000009,0.0,0.0,0.0,0.00000009,0.0,0.0,0.0,0.00000009
3095510000000,1128,3095510000000,base_link,-0.00165246449582,-0.00669222691934,0.0157544919734,-0.999852216035,1.0,0.0,0.0,0.0,1.0,0.0,0.0,0.0,1.0,-0.0760566294193,-0.0408760383725,-0.00101028033532,1.21846967915e-07,0.0,0.0,0.0,1.21846967915e-07,0.0,0.0,0.0,1.21846967915e-07,-0.190238252282,-0.218355998397,11.7034139633,0.00000009,0.0,0.0,0.0,0.00000009,0.0,0.0,0.0,0.00000009
3095530000000,1129,3095530000000,base_link,-0.000647293604336,-0.00645694559489,0.0158275324618,-0.999853691175,1.0,0.0,0.0,0.0,1.0,0.0,0.0,0.0,1.0,-0.0915542691946,-0.0254333969206,-0.00526982638985,1.21846967915e-07,0.0,0.0,0.0,1.21846967915e-07,0.0,0.0,0.0,1.21846967915e-07,-0.192837148905,-0.185217514634,11.371881485,0.00000009,0.0,0.0,0.0,0.00000009,0.0,0.0,0.0,0.00000009
3095550000000,1130,3095550000000,base_link,-0.0003367865761,-0.00636590840211,0.0158730089114,-0.999853733321,1.0,0.0,0.0,0.0,1.0,0.0,0.0,0.0,1.0,0.00428022816777,-0.0146826393902,-0.00222929054871,1.21846967915e-07,0.0,0.0,0.0,1.21846967915e-07,0.0,0.0,0.0,1.21846967915e-07,-0.169885903597,-0.00947558041662,11.4378061295,0.00000009,0.0,0.0,0.0,0.00000009,0.0,0.0,0.0,0.00000009
3095570000000,1131,3095570000000,base_link,-0.000737491811416,-0.00631059593179,0.0159322673804,-0.999852890384,1.0,0.0,0.0,0.0,1.0,0.0,0.0,0.0,1.0,0.0481259375811,-0.00801667012274,-0.00306956563145,1.21846967915e-07,0.0,0.0,0.0,1.21846967915e-07,0.0,0.0,0.0,1.21846967915e-07,-0.192658022046,-0.00725786667317,11.1624908447,0.00000009,0.0,0.0,0.0,0.00000009,0.0,0.0,0.0,0.00000009
3095590000000,1132,3095590000000,base_link,-0.00068637459889,-0.00631635259861,0.0160111662808,-0.999851625979,1.0,0.0,0.0,0.0,1.0,0.0,0.0,0.0,1.0,-0.0172445438802,-0.0044171018526,-0.00608163373545,1.21846967915e-07,0.0,0.0,0.0,1.21846967915e-07,0.0,0.0,0.0,1.21846967915e-07,-0.181162506342,-0.184193119407,11.1600046158,0.00000009,0.0,0.0,0.0,0.00000009,0.0,0.0,0.0,0.00000009
3095610000000,1133,3095606000000,base_link,0.000279266335322,-0.00636487810922,0.0160376766485,-0.999851162364,1.0,0.0,0.0,0.0,1.0,0.0,0.0,0.0,1.0,-0.108514405787,-0.00368695263751,0.00163965951651,1.21846967915e-07,0.0,0.0,0.0,1.21846967915e-07,0.0,0.0,0.0,1.21846967915e-07,-0.204791367054,-0.19183216989,11.1459388733,0.00000009,0.0,0.0,0.0,0.00000009,0.0,0.0,0.0,0.00000009
3095630000000,1134,3095630000000,base_link,0.00138841136181,-0.00641254026799,0.0161043529629,-0.99984880214,1.0,0.0,0.0,0.0,1.0,0.0,0.0,0.0,1.0,-0.0772863999009,-0.00115121412091,-0.00482257269323,1.21846967915e-07,0.0,0.0,0.0,1.21846967915e-07,0.0,0.0,0.0,1.21846967915e-07,-0.261669039726,-0.200099602342,11.3661785126,0.00000009,0.0,0.0,0.0,0.00000009,0.0,0.0,0.0,0.00000009
3095650000000,1135,3095650000000,base_link,0.00147867723434,-0.00649472151887,0.0161422008328,-0.999847537735,1.0,0.0,0.0,0.0,1.0,0.0,0.0,0.0,1.0,-0.00608445936814,0.0042484793812,-0.0024584827479,1.21846967915e-07,0.0,0.0,0.0,1.21846967915e-07,0.0,0.0,0.0,1.21846967915e-07,-0.188692927361,-0.056240554899,11.3721628189,0.00000009,0.0,0.0,0.0,0.00000009,0.0,0.0,0.0,0.00000009
3095670000000,1136,3095670000000,base_link,0.00142078540983,-0.00666305125737,0.0161877194292,-0.999845767567,1.0,0.0,0.0,0.0,1.0,0.0,0.0,0.0,1.0,-0.00792473740876,0.0129065383226,-0.00421672267839,1.21846967915e-07,0.0,0.0,0.0,1.21846967915e-07,0.0,0.0,0.0,1.21846967915e-07,-0.203264310956,-0.134774461389,11.5066976547,0.00000009,0.0,0.0,0.0,0.00000009,0.0,0.0,0.0,0.00000009
3095690000000,1137,3095690000000,base_link,0.00214433566937,-0.0068357491216,0.0162776186571,-0.99984184791,1.0,0.0,0.0,0.0,1.0,0.0,0.0,0.0,1.0,-0.100894242525,0.00422482984141,-0.00787977315485,1.21846967915e-07,0.0,0.0,0.0,1.21846967915e-07,0.0,0.0,0.0,1.21846967915e-07,-0.136025726795,-0.256138712168,11.6706590652,0.00000009,0.0,0.0,0.0,0.00000009,0.0,0.0,0.0,0.00000009
3095710000000,1138,3095710000000,base_link,0.00344089949939,-0.00688849162197,0.0163600157459,-0.999836579554,1.0,0.0,0.0,0.0,1.0,0.0,0.0,0.0,1.0,-0.126804232597,-0.00704300357029,-0.0026236101985,1.21846967915e-07,0.0,0.0,0.0,1.21846967915e-07,0.0,0.0,0.0,1.21846967915e-07,-0.187356442213,-0.0300781466067,11.6707391739,0.00000009,0.0,0.0,0.0,0.00000009,0.0,0.0,0.0,0.00000009
3095730000000,1139,3095730000000,base_link,0.00412445404606,-0.00688568506991,0.016395882714,-0.99983341854,1.0,0.0,0.0,0.0,1.0,0.0,0.0,0.0,1.0,-0.0533103570342,-0.0076079624705,-0.000406752282288,1.21846967915e-07,0.0,0.0,0.0,1.21846967915e-07,0.0,0.0,0.0,1.21846967915e-07,-0.194054707885,-0.0980138704181,11.7837133408,0.00000009,0.0,0.0,0.0,0.00000009,0.0,0.0,0.0,0.00000009
3095750000000,1140,3095750000000,base_link,0.00396421995982,-0.00689018523381,0.0164753295235,-0.999832702044,1.0,0.0,0.0,0.0,1.0,0.0,0.0,0.0,1.0,0.0278490092605,-0.00442383810878,-0.0068856459111,1.21846967915e-07,0.0,0.0,0.0,1.21846967915e-07,0.0,0.0,0.0,1.21846967915e-07,-0.0739396736026,-0.00141073483974,11.6197452545,0.00000009,0.0,0.0,0.0,0.00000009,0.0,0.0,0.0,0.00000009
3095770000000,1141,3095770000000,base_link,0.00391591950679,-0.00702112512005,0.0165793057987,-0.999830299674,1.0,0.0,0.0,0.0,1.0,0.0,0.0,0.0,1.0,-0.00791670288891,0.00676268897951,-0.00286177964881,1.21846967915e-07,0.0,0.0,0.0,1.21846967915e-07,0.0,0.0,0.0,1.21846967915e-07,-0.0763291940093,-0.152550071478,11.6984453201,0.00000009,0.0,0.0,0.0,0.00000009,0.0,0.0,0.0,0.00000009
3095790000000,1142,3095790000000,base_link,0.004654598427,-0.00723387113376,0.0166078392152,-0.999825115611,1.0,0.0,0.0,0.0,1.0,0.0,0.0,0.0,1.0,-0.0819118916988,0.0142747201025,0.000269082753221,1.21846967915e-07,0.0,0.0,0.0,1.21846967915e-07,0.0,0.0,0.0,1.21846967915e-07,-0.178715437651,-0.20512804389,11.6962490082,0.00000009,0.0,0.0,0.0,0.00000009,0.0,0.0,0.0,0.00000009
3095810000000,1143,3095810000000,base_link,0.00543858339837,-0.00731060251725,0.0166171958155,-0.999820395164,1.0,0.0,0.0,0.0,1.0,0.0,0.0,0.0,1.0,-0.0757787153125,-0.00387413077988,0.000196804525331,1.21846967915e-07,0.0,0.0,0.0,1.21846967915e-07,0.0,0.0,0.0,1.21846967915e-07,-0.156803444028,-0.161997303367,11.5882778168,0.00000009,0.0,0.0,0.0,0.00000009,0.0,0.0,0.0,0.00000009
3095830000000,1144,3095830000000,base_link,0.00552574217559,-0.00724212401354,0.0166260888006,-0.999820268724,1.0,0.0,0.0,0.0,1.0,0.0,0.0,0.0,1.0,0.00409332849085,-0.0138975074515,0.0017260912573,1.21846967915e-07,0.0,0.0,0.0,1.21846967915e-07,0.0,0.0,0.0,1.21846967915e-07,-0.129728555679,-0.0749747157097,11.5114784241,0.00000009,0.0,0.0,0.0,0.00000009,0.0,0.0,0.0,0.00000009
3095850000000,1145,3095850000000,base_link,0.00530594677219,-0.00716939526357,0.0166623772371,-0.999821406689,1.0,0.0,0.0,0.0,1.0,0.0,0.0,0.0,1.0,0.0309789460152,-0.0147949457169,-0.000778605812229,1.21846967915e-07,0.0,0.0,0.0,1.21846967915e-07,0.0,0.0,0.0,1.21846967915e-07,-0.179357752204,-0.0475273877382,11.5298032761,0.00000009,0.0,0.0,0.0,0.00000009,0.0,0.0,0.0,0.00000009
3095870000000,1146,3095870000000,base_link,0.00527153090693,-0.00717855989822,0.0167177160492,-0.999820605898,1.0,0.0,0.0,0.0,1.0,0.0,0.0,0.0,1.0,-0.00177972577512,-0.00401919754222,-0.00412085140124,1.21846967915e-07,0.0,0.0,0.0,1.21846967915e-07,0.0,0.0,0.0,1.21846967915e-07,-0.200094893575,-0.228873580694,11.5109577179,0.00000009,0.0,0.0,0.0,0.00000009,0.0,0.0,0.0,0.00000009
3095890000000,1147,3095890000000,base_link,0.00584282337133,-0.00724104539995,0.0167330153552,-0.999816770535,1.0,0.0,0.0,0.0,1.0,0.0,0.0,0.0,1.0,-0.0637103915215,-0.000204465031857,0.000565856345929,1.21846967915e-07,0.0,0.0,0.0,1.21846967915e-07,0.0,0.0,0.0,1.21846967915e-07,-0.22965580225,-0.17697532475,11.4162187576,0.00000009,0.0,0.0,0.0,0.00000009,0.0,0.0,0.0,0.00000009
3095910000000,1148,3095910000000,base_link,0.00668130364159,-0.00717576618778,0.0167412339907,-0.999811839354,1.0,0.0,0.0,0.0,1.0,0.0,0.0,0.0,1.0,-0.0633820742369,-0.0142070213333,0.0029010809958,1.21846967915e-07,0.0,0.0,0.0,1.21846967915e-07,0.0,0.0,0.0,1.21846967915e-07,-0.111359283328,-0.208285495639,11.4919319153,0.00000009,0.0,0.0,0.0,0.00000009,0.0,0.0,0.0,0.00000009
3095930000000,1149,3095930000000,base_link,0.00677078926235,-0.00703747451644,0.0167746142947,-0.999811670767,1.0,0.0,0.0,0.0,1.0,0.0,0.0,0.0,1.0,0.00186385517009,-0.0210745334625,-0.000982174999081,1.21846967915e-07,0.0,0.0,0.0,1.21846967915e-07,0.0,0.0,0.0,1.21846967915e-07,-0.223756477237,-0.0506123714149,11.5064172745,0.00000009,0.0,0.0,0.0,0.00000009,0.0,0.0,0.0,0.00000009
3095950000000,1150,3095950000000,base_link,0.00647475290592,-0.007030976843,0.0167955612784,-0.999813314494,1.0,0.0,0.0,0.0,1.0,0.0,0.0,0.0,1.0,0.0349202416837,-0.00779058691114,0.00291199376807,1.21846967915e-07,0.0,0.0,0.0,1.21846967915e-07,0.0,0.0,0.0,1.21846967915e-07,-0.239909648895,-0.0383648835123,11.4667358398,0.00000009,0.0,0.0,0.0,0.00000009,0.0,0.0,0.0,0.00000009
3095970000000,1151,3095966000000,base_link,0.00658837776374,-0.00716279810875,0.016864134201,-0.999810490655,1.0,0.0,0.0,0.0,1.0,0.0,0.0,0.0,1.0,-0.00568524934351,0.0059350724332,-0.00525500252843,1.21846967915e-07,0.0,0.0,0.0,1.21846967915e-07,0.0,0.0,0.0,1.21846967915e-07,-0.170895680785,-0.177265882492,11.5152015686,0.00000009,0.0,0.0,0.0,0.00000009,0.0,0.0,0.0,0.00000009
3095990000000,1152,3095990000000,base_link,0.00705618683226,-0.00724879994675,0.0168967137149,-0.999806065236,1.0,0.0,0.0,0.0,1.0,0.0,0.0,0.0,1.0,-0.0624518170953,-0.00105541036464,-0.00085210846737,1.21846967915e-07,0.0,0.0,0.0,1.21846967915e-07,0.0,0.0,0.0,1.21846967915e-07,-0.238282099366,-0.209619775414,11.4898490906,0.00000009,0.0,0.0,0.0,0.00000009,0.0,0.0,0.0,0.00000009
3096006000000,1153,3096006000000,base_link,0.00753001291906,-0.00724114566335,0.0169152583282,-0.999802356313,1.0,0.0,0.0,0.0,1.0,0.0,0.0,0.0,1.0,-0.042530760169,-0.00894725043327,0.00072239828296,1.21846967915e-07,0.0,0.0,0.0,1.21846967915e-07,0.0,0.0,0.0,1.21846967915e-07,-0.0575674138963,-0.119629643857,11.5290184021,0.00000009,0.0,0.0,0.0,0.00000009,0.0,0.0,0.0,0.00000009
3096030000000,1154,3096030000000,base_link,0.00747602485378,-0.00727374815428,0.0169388605634,-0.999802187726,1.0,0.0,0.0,0.0,1.0,0.0,0.0,0.0,1.0,0.0168701093644,-0.000783074763604,-0.00139427336399,1.21846967915e-07,0.0,0.0,0.0,1.21846967915e-07,0.0,0.0,0.0,1.21846967915e-07,-0.174006327987,-0.0965233817697,11.5022153854,0.00000009,0.0,0.0,0.0,0.00000009,0.0,0.0,0.0,0.00000009
3096050000000,1155,3096050000000,base_link,0.00718870199813,-0.00731189225608,0.0169496923034,-0.999803747159,1.0,0.0,0.0,0.0,1.0,0.0,0.0,0.0,1.0,0.030142467469,-0.000898989266716,-0.000438482209574,1.21846967915e-07,0.0,0.0,0.0,1.21846967915e-07,0.0,0.0,0.0,1.21846967915e-07,-0.195777729154,-0.0402845740318,11.4585075378,0.00000009,0.0,0.0,0.0,0.00000009,0.0,0.0,0.0,0.00000009
3096070000000,1156,3096070000000,base_link,0.00734035048012,-0.00746097470911,0.0169788579226,-0.999801049761,1.0,0.0,0.0,0.0,1.0,0.0,0.0,0.0,1.0,-0.0272164810449,0.00798185914755,-0.000166008976521,1.21846967915e-07,0.0,0.0,0.0,1.21846967915e-07,0.0,0.0,0.0,1.21846967915e-07,-0.143929168582,-0.177079439163,11.4194946289,0.00000009,0.0,0.0,0.0,0.00000009,0.0,0.0,0.0,0.00000009
3096090000000,1157,3096090000000,base_link,0.00795282024573,-0.00761470040511,0.0169820610831,-0.999795149202,1.0,0.0,0.0,0.0,1.0,0.0,0.0,0.0,1.0,-0.0651868730783,0.00834964960814,0.00125517416745,1.21846967915e-07,0.0,0.0,0.0,1.21846967915e-07,0.0,0.0,0.0,1.21846967915e-07,-0.161631673574,-0.118602924049,11.2551231384,0.00000009,0.0,0.0,0.0,0.00000009,0.0,0.0,0.0,0.00000009
3096110000000,1158,3096106000000,base_link,0.00829456819325,-0.00763940218323,0.016987666614,-0.999792156776,1.0,0.0,0.0,0.0,1.0,0.0,0.0,0.0,1.0,-0.0416337177157,-0.00490726064891,0.000737533846404,1.21846967915e-07,0.0,0.0,0.0,1.21846967915e-07,0.0,0.0,0.0,1.21846967915e-07,-0.206226855516,-0.0458135008812,11.1168413162,0.00000009,0.0,0.0,0.0,0.00000009,0.0,0.0,0.0,0.00000009
3096130000000,1159,3096126000000,base_link,0.00815302026628,-0.00753943681444,0.017029939903,-0.999793379034,1.0,0.0,0.0,0.0,1.0,0.0,0.0,0.0,1.0,0.0261002965271,-0.0152464415878,-0.00128294574097,1.21846967915e-07,0.0,0.0,0.0,1.21846967915e-07,0.0,0.0,0.0,1.21846967915e-07,-0.214733392,-0.148455739021,10.9838495255,0.00000009,0.0,0.0,0.0,0.00000009,0.0,0.0,0.0,0.00000009
3096150000000,1160,3096150000000,base_link,0.00778939914364,-0.00747597733567,0.0170371470141,-0.999796624342,1.0,0.0,0.0,0.0,1.0,0.0,0.0,0.0,1.0,0.039207957685,-0.0109518598765,0.00203841459006,1.21846967915e-07,0.0,0.0,0.0,1.21846967915e-07,0.0,0.0,0.0,1.21846967915e-07,-0.263624429703,-0.12139993161,10.7510881424,0.00000009,0.0,0.0,0.0,0.00000009,0.0,0.0,0.0,0.00000009
3096170000000,1161,3096170000000,base_link,0.00773179674944,-0.007502376574,0.017053584285,-0.999796540048,1.0,0.0,0.0,0.0,1.0,0.0,0.0,0.0,1.0,0.00792540516704,-0.00285264733247,0.000894297612831,1.21846967915e-07,0.0,0.0,0.0,1.21846967915e-07,0.0,0.0,0.0,1.21846967915e-07,-0.194731771946,-0.155116334558,10.4120864868,0.00000009,0.0,0.0,0.0,0.00000009,0.0,0.0,0.0,0.00000009
3096190000000,1162,3096190000000,base_link,0.00801819243615,-0.00761346913268,0.0170954361056,-0.999792788978,1.0,0.0,0.0,0.0,1.0,0.0,0.0,0.0,1.0,-0.0327046103776,0.00511475652456,-0.00137849780731,1.21846967915e-07,0.0,0.0,0.0,1.21846967915e-07,0.0,0.0,0.0,1.21846967915e-07,-0.221393495798,-0.118958070874,10.2814760208,0.00000009,0.0,0.0,0.0,0.00000009,0.0,0.0,0.0,0.00000009
3096210000000,1163,3096210000000,base_link,0.00846759520626,-0.00772282557253,0.0170978806228,-0.999788152825,1.0,0.0,0.0,0.0,1.0,0.0,0.0,0.0,1.0,-0.0400371514261,0.00834950990975,0.0034746946767,1.21846967915e-07,0.0,0.0,0.0,1.21846967915e-07,0.0,0.0,0.0,1.21846967915e-07,-0.150777503848,-0.09973564744,10.0137529373,0.00000009,0.0,0.0,0.0,0.00000009,0.0,0.0,0.0,0.00000009
3096230000000,1164,3096230000000,base_link,0.00867495728934,-0.00793249206748,0.0171150343902,-0.999784486049,1.0,0.0,0.0,0.0,1.0,0.0,0.0,0.0,1.0,-0.00935751013458,0.0160321835428,-0.000882059393916,1.21846967915e-07,0.0,0.0,0.0,1.21846967915e-07,0.0,0.0,0.0,1.21846967915e-07,-0.192258447409,-0.216808274388,9.83438396454,0.00000009,0.0,0.0,0.0,0.00000009,0.0,0.0,0.0,0.00000009
3096250000000,1165,3096250000000,base_link,0.00868986052199,-0.00810548475385,0.0171120841108,-0.999782968763,1.0,0.0,0.0,0.0,1.0,0.0,0.0,0.0,1.0,0.00126196490601,0.0108556514606,0.00235833739862,1.21846967915e-07,0.0,0.0,0.0,1.21846967915e-07,0.0,0.0,0.0,1.21846967915e-07,-0.144998788834,-0.130324110389,9.77655410767,0.00000009,0.0,0.0,0.0,0.00000009,0.0,0.0,0.0,0.00000009
3096266000000,1166,3096266000000,base_link,0.00872276805279,-0.00830906187296,0.017127594151,-0.999780777127,1.0,0.0,0.0,0.0,1.0,0.0,0.0,0.0,1.0,-0.00514375511557,0.0157982856035,0.000895270495676,1.21846967915e-07,0.0,0.0,0.0,1.21846967915e-07,0.0,0.0,0.0,1.21846967915e-07,-0.13197003305,-0.0828867703676,9.6423664093,0.00000009,0.0,0.0,0.0,0.00000009,0.0,0.0,0.0,0.00000009
3096290000000,1167,3096290000000,base_link,0.0089519749627,-0.0085952068703,0.0171780017818,-0.999775466624,1.0,0.0,0.0,0.0,1.0,0.0,0.0,0.0,1.0,-0.0214863829315,0.0151262432337,-0.000464339391328,1.21846967915e-07,0.0,0.0,0.0,1.21846967915e-07,0.0,0.0,0.0,1.21846967915e-07,-0.167949289083,-0.206617087126,9.62823200226,0.00000009,0.0,0.0,0.0,0.00000009,0.0,0.0,0.0,0.00000009
3096310000000,1168,3096310000000,base_link,0.00910504659539,-0.00872236831627,0.0172300952866,-0.999772094876,1.0,0.0,0.0,0.0,1.0,0.0,0.0,0.0,1.0,-0.0181182324886,0.00989762600511,-0.00451180431992,1.21846967915e-07,0.0,0.0,0.0,1.21846967915e-07,0.0,0.0,0.0,1.21846967915e-07,-0.249723941088,-0.107679873705,9.67742347717,0.00000009,0.0,0.0,0.0,0.00000009,0.0,0.0,0.0,0.00000009
3096330000000,1169,3096330000000,base_link,0.00922480081505,-0.00885407931698,0.0172650771709,-0.99976922889,1.0,0.0,0.0,0.0,1.0,0.0,0.0,0.0,1.0,-0.00849155243486,0.00907312706113,-0.00190982455388,1.21846967915e-07,0.0,0.0,0.0,1.21846967915e-07,0.0,0.0,0.0,1.21846967915e-07,-0.198591098189,-0.0997078940272,9.72579097748,0.00000009,0.0,0.0,0.0,0.00000009,0.0,0.0,0.0,0.00000009
3096350000000,1170,3096350000000,base_link,0.00939791115452,-0.00899771439788,0.0172689968278,-0.999766236464,1.0,0.0,0.0,0.0,1.0,0.0,0.0,0.0,1.0,-0.0162970162928,0.0069057289511,0.00224380311556,1.21846967915e-07,0.0,0.0,0.0,1.21846967915e-07,0.0,0.0,0.0,1.21846967915e-07,-0.197860047221,-0.191530451179,9.81340408325,0.00000009,0.0,0.0,0.0,0.00000009,0.0,0.0,0.0,0.00000009
3096370000000,1171,3096370000000,base_link,0.0095427267176,-0.00909701864972,0.0172609467797,-0.999764086975,1.0,0.0,0.0,0.0,1.0,0.0,0.0,0.0,1.0,-0.0129497367889,0.00266021769494,0.0047818031162,1.21846967915e-07,0.0,0.0,0.0,1.21846967915e-07,0.0,0.0,0.0,1.21846967915e-07,-0.188346594572,-0.133140683174,9.8471326828,0.00000009,0.0,0.0,0.0,0.00000009,0.0,0.0,0.0,0.00000009
3096390000000,1172,3096390000000,base_link,0.00969524332075,-0.00913411018132,0.0173033465093,-0.999761558164,1.0,0.0,0.0,0.0,1.0,0.0,0.0,0.0,1.0,-0.0163867790252,-0.00328114256263,-0.000571460695937,1.21846967915e-07,0.0,0.0,0.0,1.21846967915e-07,0.0,0.0,0.0,1.21846967915e-07,-0.271177768707,-0.152869239449,9.90126419067,0.00000009,0.0,0.0,0.0,0.00000009,0.0,0.0,0.0,0.00000009
3096410000000,1173,3096410000000,base_link,0.00982021796679,-0.0092700679915,0.0172796599804,-0.999759535115,1.0,0.0,0.0,0.0,1.0,0.0,0.0,0.0,1.0,-0.0130542889237,0.00782972201705,0.00367375533096,1.21846967915e-07,0.0,0.0,0.0,1.21846967915e-07,0.0,0.0,0.0,1.21846967915e-07,-0.14670561254,-0.165985509753,10.0139818192,0.00000009,0.0,0.0,0.0,0.00000009,0.0,0.0,0.0,0.00000009
3096430000000,1174,3096430000000,base_link,0.00983714904319,-0.00938325609025,0.0172882157907,-0.999758144269,1.0,0.0,0.0,0.0,1.0,0.0,0.0,0.0,1.0,0.000672094232868,0.00705493614078,0.000114393274998,1.21846967915e-07,0.0,0.0,0.0,1.21846967915e-07,0.0,0.0,0.0,1.21846967915e-07,-0.235444992781,-0.15374559164,9.962059021,0.00000009,0.0,0.0,0.0,0.00000009,0.0,0.0,0.0,0.00000009
3096450000000,1175,3096450000000,base_link,0.00977920281672,-0.00950350852971,0.0172613682482,-0.999758017828,1.0,0.0,0.0,0.0,1.0,0.0,0.0,0.0,1.0,0.00780696328729,0.00488510867581,0.00604952964932,1.21846967915e-07,0.0,0.0,0.0,1.21846967915e-07,0.0,0.0,0.0,1.21846967915e-07,-0.253685265779,-0.189267575741,9.8965473175,0.00000009,0.0,0.0,0.0,0.00000009,0.0,0.0,0.0,0.00000009
3096470000000,1176,3096470000000,base_link,0.00977699769073,-0.00956905641775,0.0172346049994,-0.999757891388,1.0,0.0,0.0,0.0,1.0,0.0,0.0,0.0,1.0,-0.000240441586357,0.00123450101819,0.0062435050495,1.21846967915e-07,0.0,0.0,0.0,1.21846967915e-07,0.0,0.0,0.0,1.21846967915e-07,-0.128861024976,-0.104190029204,9.89132785797,0.00000009,0.0,0.0,0.0,0.00000009,0.0,0.0,0.0,0.00000009
3096490000000,1177,3096490000000,base_link,0.00989588107789,-0.0096692220561,0.0172437508655,-0.999755657605,1.0,0.0,0.0,0.0,1.0,0.0,0.0,0.0,1.0,-0.0117091862485,0.00241477321833,0.0012723270338,1.21846967915e-07,0.0,0.0,0.0,1.21846967915e-07,0.0,0.0,0.0,1.21846967915e-07,-0.271990180016,-0.13098809123,9.84671783447,0.00000009,0.0,0.0,0.0,0.00000009,0.0,0.0,0.0,0.00000009
3096510000000,1178,3096510000000,base_link,0.0100103995806,-0.00967894587735,0.0172123093165,-0.999754898962,1.0,0.0,0.0,0.0,1.0,0.0,0.0,0.0,1.0,-0.0119230989367,-0.00716038467363,0.00769748911262,1.21846967915e-07,0.0,0.0,0.0,1.21846967915e-07,0.0,0.0,0.0,1.21846967915e-07,-0.140717893839,-0.169766351581,9.88677501678,0.00000009,0.0,0.0,0.0,0.00000009,0.0,0.0,0.0,0.00000009
3096530000000,1179,3096530000000,base_link,0.0100550245835,-0.0096587476073,0.0172203593646,-0.99975451964,1.0,0.0,0.0,0.0,1.0,0.0,0.0,0.0,1.0,-0.00188184529543,-0.00831273384392,0.000248819764238,1.21846967915e-07,0.0,0.0,0.0,1.21846967915e-07,0.0,0.0,0.0,1.21846967915e-07,-0.174330323935,-0.144731044769,9.83455562592,0.00000009,0.0,0.0,0.0,0.00000009,0.0,0.0,0.0,0.00000009
3096550000000,1180,3096550000000,base_link,0.0100086404539,-0.00970202867524,0.0172076731632,-0.999754730374,1.0,0.0,0.0,0.0,1.0,0.0,0.0,0.0,1.0,0.006514061708,-0.00427983235568,0.00345718790777,1.21846967915e-07,0.0,0.0,0.0,1.21846967915e-07,0.0,0.0,0.0,1.21846967915e-07,-0.137073099613,-0.156404346228,9.79503822327,0.00000009,0.0,0.0,0.0,0.00000009,0.0,0.0,0.0,0.00000009
3096570000000,1181,3096570000000,base_link,0.010069426705,-0.00975987658307,0.017199665262,-0.999753803144,1.0,0.0,0.0,0.0,1.0,0.0,0.0,0.0,1.0,-0.00764552177861,0.00125923228916,0.00282725528814,1.21846967915e-07,0.0,0.0,0.0,1.21846967915e-07,0.0,0.0,0.0,1.21846967915e-07,-0.22032494843,-0.143083274364,9.76336193085,0.00000009,0.0,0.0,0.0,0.00000009,0.0,0.0,0.0,0.00000009
3096590000000,1182,3096590000000,base_link,0.0102723909455,-0.00972133773529,0.01721079203,-0.999751864389,1.0,0.0,0.0,0.0,1.0,0.0,0.0,0.0,1.0,-0.016140697524,-0.010060957633,0.000102264224552,1.21846967915e-07,0.0,0.0,0.0,1.21846967915e-07,0.0,0.0,0.0,1.21846967915e-07,-0.186674401164,-0.139168769121,9.74152088165,0.00000009,0.0,0.0,0.0,0.00000009,0.0,0.0,0.0,0.00000009
3096610000000,1183,3096606000000,base_link,0.0104415608839,-0.00968824284857,0.0171881591723,-0.999750810717,1.0,0.0,0.0,0.0,1.0,0.0,0.0,0.0,1.0,-0.0146373417228,-0.00868202373385,0.00376658234745,1.21846967915e-07,0.0,0.0,0.0,1.21846967915e-07,0.0,0.0,0.0,1.21846967915e-07,-0.209819942713,-0.109147183597,9.63267803192,0.00000009,0.0,0.0,0.0,0.00000009,0.0,0.0,0.0,0.00000009
3096630000000,1184,3096630000000,base_link,0.0104320531476,-0.00967831957065,0.0171861361236,-0.999751063598,1.0,0.0,0.0,0.0,1.0,0.0,0.0,0.0,1.0,0.00347774336115,-0.00505839614198,0.00273074093275,1.21846967915e-07,0.0,0.0,0.0,1.21846967915e-07,0.0,0.0,0.0,1.21846967915e-07,-0.174150153995,-0.145520716906,9.75226783752,0.00000009,0.0,0.0,0.0,0.00000009,0.0,0.0,0.0,0.00000009
3096650000000,1185,3096650000000,base_link,0.0104292794404,-0.0096920290679,0.0171961249267,-0.99975076857,1.0,0.0,0.0,0.0,1.0,0.0,0.0,0.0,1.0,0.00107128312811,-0.00449323374778,0.000348666246282,1.21846967915e-07,0.0,0.0,0.0,1.21846967915e-07,0.0,0.0,0.0,1.21846967915e-07,-0.172207340598,-0.202451750636,9.76547431946,0.00000009,0.0,0.0,0.0,0.00000009,0.0,0.0,0.0,0.00000009
3096670000000,1186,3096670000000,base_link,0.0104534466656,-0.0097376504384,0.0171900979274,-0.999750220661,1.0,0.0,0.0,0.0,1.0,0.0,0.0,0.0,1.0,-0.0045532216318,-0.00163241883274,0.00301717128605,1.21846967915e-07,0.0,0.0,0.0,1.21846967915e-07,0.0,0.0,0.0,1.21846967915e-07,-0.197557613254,-0.144892945886,9.82854557037,0.00000009,0.0,0.0,0.0,0.00000009,0.0,0.0,0.0,0.00000009
3096690000000,1187,3096686000000,base_link,0.0105479055322,-0.00978299398543,0.0172245740494,-0.999748197613,1.0,0.0,0.0,0.0,1.0,0.0,0.0,0.0,1.0,-0.00919985212386,-0.00210801931098,-0.00295155355707,1.21846967915e-07,0.0,0.0,0.0,1.21846967915e-07,0.0,0.0,0.0,1.21846967915e-07,-0.0924260020256,-0.0840575322509,9.9174489975,0.00000009,0.0,0.0,0.0,0.00000009,0.0,0.0,0.0,0.00000009
3096710000000,1188,3096710000000,base_link,0.0105607225164,-0.00990089808603,0.0172625062131,-0.999746258858,1.0,0.0,0.0,0.0,1.0,0.0,0.0,0.0,1.0,0.00192106585018,0.00575414160267,-0.000313409691444,1.21846967915e-07,0.0,0.0,0.0,1.21846967915e-07,0.0,0.0,0.0,1.21846967915e-07,-0.0855529084802,-0.187788531184,9.91609954834,0.00000009,0.0,0.0,0.0,0.00000009,0.0,0.0,0.0,0.00000009
3096730000000,1189,3096730000000,base_link,0.010536505921,-0.00992866818765,0.0172541189902,-0.999746301005,1.0,0.0,0.0,0.0,1.0,0.0,0.0,0.0,1.0,0.00311113754287,-0.00590992579237,0.0033433586359,1.21846967915e-07,0.0,0.0,0.0,1.21846967915e-07,0.0,0.0,0.0,1.21846967915e-07,-0.139938294888,-0.160534769297,9.8489780426,0.00000009,0.0,0.0,0.0,0.00000009,0.0,0.0,0.0,0.00000009
3096750000000,1190,3096750000000,base_link,0.0104993607386,-0.00986922859833,0.017263644178,-0.999747143942,1.0,0.0,0.0,0.0,1.0,0.0,0.0,0.0,1.0,0.00332201458514,-0.0133918980137,-0.000194720370928,1.21846967915e-07,0.0,0.0,0.0,1.21846967915e-07,0.0,0.0,0.0,1.21846967915e-07,-0.13834515214,-0.18253774941,9.8332824707,0.00000009,0.0,0.0,0.0,0.00000009,0.0,0.0,0.0,0.00000009
3096770000000,1191,3096770000000,base_link,0.0105294359929,-0.00978720735319,0.0172620847446,-0.999747691851,1.0,0.0,0.0,0.0,1.0,0.0,0.0,0.0,1.0,-0.00631683133543,-0.0161456689239,0.00161421077792,1.21846967915e-07,0.0,0.0,0.0,1.21846967915e-07,0.0,0.0,0.0,1.21846967915e-07,-0.156817778945,-0.127520099282,9.90150260925,0.00000009,0.0,0.0,0.0,0.00000009,0.0,0.0,0.0,0.00000009
3096790000000,1192,3096790000000,base_link,0.0106703956339,-0.00972742254248,0.0172940320558,-0.999746258858,1.0,0.0,0.0,0.0,1.0,0.0,0.0,0.0,1.0,-0.0143590746447,-0.0109101776034,0.00141347863246,1.21846967915e-07,0.0,0.0,0.0,1.21846967915e-07,0.0,0.0,0.0,1.21846967915e-07,-0.239239156246,-0.194104537368,9.7479133606,0.00000009,0.0,0.0,0.0,0.00000009,0.0,0.0,0.0,0.00000009
3096810000000,1193,3096806000000,base_link,0.0108146517428,-0.00965432875307,0.0172616632761,-0.999745921683,1.0,0.0,0.0,0.0,1.0,0.0,0.0,0.0,1.0,-0.0103936493397,-0.0110944071785,0.00620212592185,1.21846967915e-07,0.0,0.0,0.0,1.21846967915e-07,0.0,0.0,0.0,1.21846967915e-07,-0.129335403442,-0.142104119062,9.80412387848,0.00000009,0.0,0.0,0.0,0.00000009,0.0,0.0,0.0,0.00000009
3096830000000,1194,3096830000000,base_link,0.0108079412566,-0.00957456707703,0.0172329612723,-0.999747312529,1.0,0.0,0.0,0.0,1.0,0.0,0.0,0.0,1.0,0.00498217111453,-0.0115149449557,0.0062680230476,1.21846967915e-07,0.0,0.0,0.0,1.21846967915e-07,0.0,0.0,0.0,1.21846967915e-07,-0.13794516027,-0.112618103623,9.73967266083,0.00000009,0.0,0.0,0.0,0.00000009,0.0,0.0,0.0,0.00000009
3096850000000,1195,3096850000000,base_link,0.0107848968498,-0.00953505238976,0.0172507893892,-0.999747607557,1.0,0.0,0.0,0.0,1.0,0.0,0.0,0.0,1.0,0.00333390524611,-0.00860384292901,0.0015814716462,1.21846967915e-07,0.0,0.0,0.0,1.21846967915e-07,0.0,0.0,0.0,1.21846967915e-07,-0.143930464983,-0.132694840431,9.72889709473,0.00000009,0.0,0.0,0.0,0.00000009,0.0,0.0,0.0,0.00000009
3096870000000,1196,3096870000000,base_link,0.0108555441464,-0.00954907547767,0.0172152174491,-0.999747354676,1.0,0.0,0.0,0.0,1.0,0.0,0.0,0.0,1.0,-0.0068464637734,-0.00431919610128,0.00744585925713,1.21846967915e-07,0.0,0.0,0.0,1.21846967915e-07,0.0,0.0,0.0,1.21846967915e-07,-0.166351765394,-0.151874557137,9.66809368134,0.00000009,0.0,0.0,0.0,0.00000009,0.0,0.0,0.0,0.00000009
3096890000000,1197,3096890000000,base_link,0.0108755891299,-0.00960189185851,0.023470104796,-0.999619270403,1.0,0.0,0.0,0.0,1.0,0.0,0.0,0.0,1.0,-0.0100853638723,-0.00787534192204,0.00779768265784,1.21846967915e-07,0.0,0.0,0.0,1.21846967915e-07,0.0,0.0,0.0,1.21846967915e-07,-0.192480906844,-0.160613253713,9.68158340454,0.00000009,0.0,0.0,0.0,0.00000009,0.0,0.0,0.0,0.00000009
3096910000000,1198,3096910000000,base_link,0.0108538565437,-0.00956389445778,0.0234692197122,-0.999619902606,1.0,0.0,0.0,0.0,1.0,0.0,0.0,0.0,1.0,0.00285289809108,-0.00863329786807,0.0051764799282,1.21846967915e-07,0.0,0.0,0.0,1.21846967915e-07,0.0,0.0,0.0,1.21846967915e-07,-0.127946600318,-0.159223154187,9.77300739288,0.00000009,0.0,0.0,0.0,0.00000009,0.0,0.0,0.0,0.00000009
3096930000000,1199,3096930000000,base_link,0.0108028524774,-0.00960069767036,0.0234698519149,-0.99962011334,1.0,0.0,0.0,0.0,1.0,0.0,0.0,0.0,1.0,0.00707495445386,-0.000899724895135,0.00595400761813,1.21846967915e-07,0.0,0.0,0.0,1.21846967915e-07,0.0,0.0,0.0,1.21846967915e-07,-0.249935671687,-0.184432044625,9.692902565,0.00000009,0.0,0.0,0.0,0.00000009,0.0,0.0,0.0,0.00000009
3096950000000,1200,3096950000000,base_link,0.0108072946894,-0.00966631932567,0.0234679974536,-0.999619438991,1.0,0.0,0.0,0.0,1.0,0.0,0.0,0.0,1.0,-0.000230915000429,0.00229034386575,0.00604051584378,1.21846967915e-07,0.0,0.0,0.0,1.21846967915e-07,0.0,0.0,0.0,1.21846967915e-07,-0.202237665653,-0.154001951218,9.73072528839,0.00000009,0.0,0.0,0.0,0.00000009,0.0,0.0,0.0,0.00000009
3096970000000,1201,3096970000000,base_link,0.0108347593704,-0.00976443249688,0.023438663247,-0.999618933228,1.0,0.0,0.0,0.0,1.0,0.0,0.0,0.0,1.0,-0.0050735748373,0.00135318865068,0.0120419925079,1.21846967915e-07,0.0,0.0,0.0,1.21846967915e-07,0.0,0.0,0.0,1.21846967915e-07,-0.227487742901,-0.225991904736,9.76755142212,0.00000009,0.0,0.0,0.0,0.00000009,0.0,0.0,0.0,0.00000009
3096990000000,1202,3096990000000,base_link,0.0107761853349,-0.00988044346724,0.0233597643466,-0.999620197634,1.0,0.0,0.0,0.0,1.0,0.0,0.0,0.0,1.0,0.00912241172045,0.00736440904438,0.016081739217,1.21846967915e-07,0.0,0.0,0.0,1.21846967915e-07,0.0,0.0,0.0,1.21846967915e-07,-0.168683677912,-0.216455325484,9.85316371918,0.00000009,0.0,0.0,0.0,0.00000009,0.0,0.0,0.0,0.00000009
3097010000000,1203,3097010000000,base_link,0.0106566799216,-0.00996484055575,0.0232014186368,-0.999624370172,1.0,0.0,0.0,0.0,1.0,0.0,0.0,0.0,1.0,0.0126653499901,0.00444155931473,0.0203601997346,1.21846967915e-07,0.0,0.0,0.0,1.21846967915e-07,0.0,0.0,0.0,1.21846967915e-07,-0.23724527657,-0.181157529354,9.78075695038,0.00000009,0.0,0.0,0.0,0.00000009,0.0,0.0,0.0,0.00000009
3097030000000,1204,3097030000000,base_link,0.0106328135689,-0.0101124540069,0.0230258348659,-0.999627236157,1.0,0.0,0.0,0.0,1.0,0.0,0.0,0.0,1.0,0.00344828376547,0.00907236151397,0.0213450659066,1.21846967915e-07,0.0,0.0,0.0,1.21846967915e-07,0.0,0.0,0.0,1.21846967915e-07,-0.2017557621,-0.201179027557,9.8174943924,0.00000009,0.0,0.0,0.0,0.00000009,0.0,0.0,0.0,0.00000009
3097050000000,1205,3097050000000,base_link,0.0106403450338,-0.0102573716444,0.0228962754535,-0.99962866915,1.0,0.0,0.0,0.0,1.0,0.0,0.0,0.0,1.0,-0.00217602564953,0.00958752539009,0.0198107566684,1.21846967915e-07,0.0,0.0,0.0,1.21846967915e-07,0.0,0.0,0.0,1.21846967915e-07,-0.270483195782,-0.150108844042,9.87460899353,0.00000009,0.0,0.0,0.0,0.00000009,0.0,0.0,0.0,0.00000009
3097070000000,1206,3097066000000,base_link,0.0106837258712,-0.0103526249626,0.0227260864793,-0.999631029374,1.0,0.0,0.0,0.0,1.0,0.0,0.0,0.0,1.0,-0.000739149167202,0.00239428877831,0.0203535594046,1.21846967915e-07,0.0,0.0,0.0,1.21846967915e-07,0.0,0.0,0.0,1.21846967915e-07,-0.158942967653,-0.252680033445,9.75993728638,0.00000009,0.0,0.0,0.0,0.00000009,0.0,0.0,0.0,0.00000009
3097086000000,1207,3097086000000,base_link,0.0106029333878,-0.0104945435472,0.0225038461471,-0.999635454793,1.0,0.0,0.0,0.0,1.0,0.0,0.0,0.0,1.0,0.0086193010211,0.00650579342619,0.0220211483538,1.21846967915e-07,0.0,0.0,0.0,1.21846967915e-07,0.0,0.0,0.0,1.21846967915e-07,-0.2194404006,-0.18486328423,9.77314090729,0.00000009,0.0,0.0,0.0,0.00000009,0.0,0.0,0.0,0.00000009
3097110000000,1208,3097110000000,base_link,0.0105386026186,-0.0106336612649,0.0223261971806,-0.9996387001,1.0,0.0,0.0,0.0,1.0,0.0,0.0,0.0,1.0,0.00810034200549,0.0120864063501,0.0262779407203,1.21846967915e-07,0.0,0.0,0.0,1.21846967915e-07,0.0,0.0,0.0,1.21846967915e-07,-0.239349737763,-0.199505925179,9.75540828705,0.00000009,0.0,0.0,0.0,0.00000009,0.0,0.0,0.0,0.00000009
3097130000000,1209,3097130000000,base_link,0.0105306724205,-0.0108165864951,0.0221173595462,-0.999641439645,1.0,0.0,0.0,0.0,1.0,0.0,0.0,0.0,1.0,-0.00445121433586,0.0105236563832,0.0249580033123,1.21846967915e-07,0.0,0.0,0.0,1.21846967915e-07,0.0,0.0,0.0,1.21846967915e-07,-0.181804746389,-0.176931887865,9.71649551392,0.00000009,0.0,0.0,0.0,0.00000009,0.0,0.0,0.0,0.00000009
3097150000000,1210,3097150000000,base_link,0.0106378071061,-0.0109697336238,0.0218689038742,-0.999644094897,1.0,0.0,0.0,0.0,1.0,0.0,0.0,0.0,1.0,-0.0076381447725,0.0045888023451,0.0209070872515,1.21846967915e-07,0.0,0.0,0.0,1.21846967915e-07,0.0,0.0,0.0,1.21846967915e-07,-0.173767820001,-0.255660802126,9.71973419189,0.00000009,0.0,0.0,0.0,0.00000009,0.0,0.0,0.0,0.00000009
3097170000000,1211,3097170000000,base_link,0.0107114824933,-0.0110663341388,0.0217038146686,-0.999645822918,1.0,0.0,0.0,0.0,1.0,0.0,0.0,0.0,1.0,-0.00603759195656,0.00604156963527,0.0212013926357,1.21846967915e-07,0.0,0.0,0.0,1.21846967915e-07,0.0,0.0,0.0,1.21846967915e-07,-0.190969064832,-0.112482771277,9.62362194061,0.00000009,0.0,0.0,0.0,0.00000009,0.0,0.0,0.0,0.00000009
3097190000000,1212,3097190000000,base_link,0.010774538274,-0.0111689325949,0.0215086326132,-0.999648225288,1.0,0.0,0.0,0.0,1.0,0.0,0.0,0.0,1.0,-0.00610028533265,0.000263586989604,0.0173543896526,1.21846967915e-07,0.0,0.0,0.0,1.21846967915e-07,0.0,0.0,0.0,1.21846967915e-07,-0.193048745394,-0.180011704564,9.66862392426,0.00000009,0.0,0.0,0.0,0.00000009,0.0,0.0,0.0,0.00000009
3097210000000,1213,3097210000000,base_link,0.0107773113431,-0.0112848779784,0.0211639135392,-0.999654252287,1.0,0.0,0.0,0.0,1.0,0.0,0.0,0.0,1.0,0.00088043755386,0.00463483901694,0.0270185712725,1.21846967915e-07,0.0,0.0,0.0,1.21846967915e-07,0.0,0.0,0.0,1.21846967915e-07,-0.194978073239,-0.251965433359,9.6906042099,0.00000009,0.0,0.0,0.0,0.00000009,0.0,0.0,0.0,0.00000009
3097230000000,1214,3097230000000,base_link,0.01080263808,-0.0113367827072,0.0209199254332,-0.999658509119,1.0,0.0,0.0,0.0,1.0,0.0,0.0,0.0,1.0,-0.00188499491196,-0.000890592695214,0.0265733748674,1.21846967915e-07,0.0,0.0,0.0,1.21846967915e-07,0.0,0.0,0.0,1.21846967915e-07,-0.163728371263,-0.161798238754,9.76705741882,0.00000009,0.0,0.0,0.0,0.00000009,0.0,0.0,0.0,0.00000009
3097250000000,1215,3097250000000,base_link,0.0108750963122,-0.0113382553157,0.0206608066085,-0.999663145272,1.0,0.0,0.0,0.0,1.0,0.0,0.0,0.0,1.0,-0.00922223459929,-0.00595603324473,0.0182458739728,1.21846967915e-07,0.0,0.0,0.0,1.21846967915e-07,0.0,0.0,0.0,1.21846967915e-07,-0.225233525038,-0.168280273676,9.83276462555,0.00000009,0.0,0.0,0.0,0.00000009,0.0,0.0,0.0,0.00000009
3097270000000,1216,3097266000000,base_link,0.0110407253906,-0.011339980836,0.0203884536734,-0.999666854195,1.0,0.0,0.0,0.0,1.0,0.0,0.0,0.0,1.0,-0.0161582510918,-0.00678961118683,0.0200327299535,1.21846967915e-07,0.0,0.0,0.0,1.21846967915e-07,0.0,0.0,0.0,1.21846967915e-07,-0.231239303946,-0.228876188397,9.78242588043,0.00000009,0.0,0.0,0.0,0.00000009,0.0,0.0,0.0,0.00000009
3097290000000,1217,3097290000000,base_link,0.0110519991581,-0.0113186392401,0.0202033447148,-0.999670731705,1.0,0.0,0.0,0.0,1.0,0.0,0.0,0.0,1.0,0.000769803940784,-0.00924287270755,0.0204905867577,1.21846967915e-07,0.0,0.0,0.0,1.21846967915e-07,0.0,0.0,0.0,1.21846967915e-07,-0.27233299613,-0.212443232536,9.85324764252,0.00000009,0.0,0.0,0.0,0.00000009,0.0,0.0,0.0,0.00000009
3097310000000,1218,3097310000000,base_link,0.0110295100895,-0.011271235663,0.0199385360656,-0.999676842998,1.0,0.0,0.0,0.0,1.0,0.0,0.0,0.0,1.0,0.00140929687768,-0.0095783136785,0.0188056472689,1.21846967915e-07,0.0,0.0,0.0,1.21846967915e-07,0.0,0.0,0.0,1.21846967915e-07,-0.218558222055,-0.175062999129,9.74293804169,0.00000009,0.0,0.0,0.0,0.00000009,0.0,0.0,0.0,0.00000009
3097330000000,1219,3097330000000,base_link,0.0110334509021,-0.0112615101953,0.0197574310575,-0.999680509774,1.0,0.0,0.0,0.0,1.0,0.0,0.0,0.0,1.0,-0.00184531055856,-0.00536307832226,0.0218595452607,1.21846967915e-07,0.0,0.0,0.0,1.21846967915e-07,0.0,0.0,0.0,1.21846967915e-07,-0.198086172342,-0.209316462278,9.78284454346,0.00000009,0.0,0.0,0.0,0.00000009,0.0,0.0,0.0,0.00000009
3097350000000,1220,3097350000000,base_link,0.0111226590596,-0.0113405311837,0.0194817485214,-0.999684007962,1.0,0.0,0.0,0.0,1.0,0.0,0.0,0.0,1.0,-0.00699011702091,0.00163167982828,0.0182488970459,1.21846967915e-07,0.0,0.0,0.0,1.21846967915e-07,0.0,0.0,0.0,1.21846967915e-07,-0.249674335122,-0.145136892796,9.8067111969,0.00000009,0.0,0.0,0.0,0.00000009,0.0,0.0,0.0,0.00000009
3097370000000,1221,3097370000000,base_link,0.0111610546945,-0.0114353116876,0.019322728462,-0.99968565169,1.0,0.0,0.0,0.0,1.0,0.0,0.0,0.0,1.0,-0.0042032324709,0.00548234768212,0.0176111813635,1.21846967915e-07,0.0,0.0,0.0,1.21846967915e-07,0.0,0.0,0.0,1.21846967915e-07,-0.197435125709,-0.271809488535,9.75790691376,0.00000009,0.0,0.0,0.0,0.00000009,0.0,0.0,0.0,0.00000009
3097390000000,1222,3097390000000,base_link,0.01119832179,-0.011562930966,0.0191261977074,-0.999687548298,1.0,0.0,0.0,0.0,1.0,0.0,0.0,0.0,1.0,-0.00249944534153,0.00482396688312,0.0188652612269,1.21846967915e-07,0.0,0.0,0.0,1.21846967915e-07,0.0,0.0,0.0,1.21846967915e-07,-0.213310644031,-0.102610602975,9.81907749176,0.00000009,0.0,0.0,0.0,0.00000009,0.0,0.0,0.0,0.00000009
3097410000000,1223,3097410000000,base_link,0.0111784021357,-0.0117066622562,0.0188691440783,-0.999690962192,1.0,0.0,0.0,0.0,1.0,0.0,0.0,0.0,1.0,0.00251521309838,0.00598727352917,0.0182156488299,1.21846967915e-07,0.0,0.0,0.0,1.21846967915e-07,0.0,0.0,0.0,1.21846967915e-07,-0.177927479148,-0.209366634488,9.73657894135,0.00000009,0.0,0.0,0.0,0.00000009,0.0,0.0,0.0,0.00000009
3097430000000,1224,3097430000000,base_link,0.0111526495057,-0.0117589674007,0.0186965527337,-0.999693870325,1.0,0.0,0.0,0.0,1.0,0.0,0.0,0.0,1.0,0.00320547982119,-0.00167166243773,0.0141585879028,1.21846967915e-07,0.0,0.0,0.0,1.21846967915e-07,0.0,0.0,0.0,1.21846967915e-07,-0.266108721495,-0.205736801028,9.77822303772,0.00000009,0.0,0.0,0.0,0.00000009,0.0,0.0,0.0,0.00000009
3097450000000,1225,3097450000000,base_link,0.011127451679,-0.0117575942736,0.0185253943819,-0.999697368513,1.0,0.0,0.0,0.0,1.0,0.0,0.0,0.0,1.0,0.00305950874463,-0.00578309223056,0.0147451292723,1.21846967915e-07,0.0,0.0,0.0,1.21846967915e-07,0.0,0.0,0.0,1.21846967915e-07,-0.226229280233,-0.148257106543,9.75552368164,0.00000009,0.0,0.0,0.0,0.00000009,0.0,0.0,0.0,0.00000009
3097470000000,1226,3097470000000,base_link,0.0111262087585,-0.0117969748236,0.0183779225589,-0.999699602296,1.0,0.0,0.0,0.0,1.0,0.0,0.0,0.0,1.0,-0.000996209681034,-0.00259699951857,0.0173917934299,1.21846967915e-07,0.0,0.0,0.0,1.21846967915e-07,0.0,0.0,0.0,1.21846967915e-07,-0.205981120467,-0.0984978750348,9.74551105499,0.00000009,0.0,0.0,0.0,0.00000009,0.0,0.0,0.0,0.00000009
3097490000000,1227,3097490000000,base_link,0.0111341152233,-0.0118831901741,0.0182038560746,-0.999701709639,1.0,0.0,0.0,0.0,1.0,0.0,0.0,0.0,1.0,5.8952224208e-05,0.00392341148108,0.0163166169077,1.21846967915e-07,0.0,0.0,0.0,1.21846967915e-07,0.0,0.0,0.0,1.21846967915e-07,-0.128659084439,-0.176996260881,9.82709312439,0.00000009,0.0,0.0,0.0,0.00000009,0.0,0.0,0.0,0.00000009
3097510000000,1228,3097510000000,base_link,0.0111279151914,-0.0120044932493,0.0180890902061,-0.999702426135,1.0,0.0,0.0,0.0,1.0,0.0,0.0,0.0,1.0,0.00321436999366,0.00331383338198,0.00743086682633,1.21846967915e-07,0.0,0.0,0.0,1.21846967915e-07,0.0,0.0,0.0,1.21846967915e-07,-0.20400416851,-0.148823305964,9.93224716187,0.00000009,0.0,0.0,0.0,0.00000009,0.0,0.0,0.0,0.00000009
3097530000000,1229,3097530000000,base_link,0.0110160525164,-0.0120217099076,0.0179914781049,-0.999705207827,1.0,0.0,0.0,0.0,1.0,0.0,0.0,0.0,1.0,0.0154183181003,-0.00642185658216,0.00891967490315,1.21846967915e-07,0.0,0.0,0.0,1.21846967915e-07,0.0,0.0,0.0,1.21846967915e-07,-0.213939756155,-0.175817862153,9.91873645782,0.00000009,0.0,0.0,0.0,0.00000009,0.0,0.0,0.0,0.00000009
3097550000000,1230,3097550000000,base_link,0.0109127619094,-0.0119673871062,0.017884635844,-0.999708874603,1.0,0.0,0.0,0.0,1.0,0.0,0.0,0.0,1.0,0.0160208828747,-0.0134714432061,0.0156534947455,1.21846967915e-07,0.0,0.0,0.0,1.21846967915e-07,0.0,0.0,0.0,1.21846967915e-07,-0.187033370137,-0.28171941638,9.7856092453,0.00000009,0.0,0.0,0.0,0.00000009,0.0,0.0,0.0,0.00000009
3097570000000,1231,3097570000000,base_link,0.010788724187,-0.0118929684899,0.0177392292166,-0.999713763637,1.0,0.0,0.0,0.0,1.0,0.0,0.0,0.0,1.0,0.011357633397,-0.0121174566448,0.011208742857,1.21846967915e-07,0.0,0.0,0.0,1.21846967915e-07,0.0,0.0,0.0,1.21846967915e-07,-0.144668668509,-0.233023896813,9.78220462799,0.00000009,0.0,0.0,0.0,0.00000009,0.0,0.0,0.0,0.00000009
3097590000000,1232,3097586000000,base_link,0.0107635721085,-0.0118277814328,0.017637023109,-0.999716587476,1.0,0.0,0.0,0.0,1.0,0.0,0.0,0.0,1.0,0.00221913983114,-0.0124205648899,0.00857583712786,1.21846967915e-07,0.0,0.0,0.0,1.21846967915e-07,0.0,0.0,0.0,1.21846967915e-07,-0.165123283863,-0.231484130025,9.83744621277,0.00000009,0.0,0.0,0.0,0.00000009,0.0,0.0,0.0,0.00000009
3097610000000,1233,3097610000000,base_link,0.0107367517721,-0.0117286432782,0.0175545417264,-0.999719495609,1.0,0.0,0.0,0.0,1.0,0.0,0.0,0.0,1.0,0.00184691697359,-0.0189652852714,0.00745123671368,1.21846967915e-07,0.0,0.0,0.0,1.21846967915e-07,0.0,0.0,0.0,1.21846967915e-07,-0.240099474788,-0.14161118865,9.82979869843,0.00000009,0.0,0.0,0.0,0.00000009,0.0,0.0,0.0,0.00000009
3097630000000,1234,3097630000000,base_link,0.0107324929648,-0.011623372963,0.0174677192185,-0.999722277301,1.0,0.0,0.0,0.0,1.0,0.0,0.0,0.0,1.0,0.00240929424763,-0.0140656977892,0.0104853762314,1.21846967915e-07,0.0,0.0,0.0,1.21846967915e-07,0.0,0.0,0.0,1.21846967915e-07,-0.195873633027,-0.19303008914,9.75539493561,0.00000009,0.0,0.0,0.0,0.00000009,0.0,0.0,0.0,0.00000009
3097650000000,1235,3097650000000,base_link,0.0107418906419,-0.0115625587649,0.0173572523285,-0.999724848259,1.0,0.0,0.0,0.0,1.0,0.0,0.0,0.0,1.0,0.000997742637992,-0.0111566167325,0.00773486401886,1.21846967915e-07,0.0,0.0,0.0,1.21846967915e-07,0.0,0.0,0.0,1.21846967915e-07,-0.25428301096,-0.175061687827,9.70662498474,0.00000009,0.0,0.0,0.0,0.00000009,0.0,0.0,0.0,0.00000009
3097670000000,1236,3097670000000,base_link,0.0107806032219,-0.0115244283382,0.0173272016256,-0.999725311874,1.0,0.0,0.0,0.0,1.0,0.0,0.0,0.0,1.0,-0.00481458147988,-0.00779057946056,0.00178507412784,1.21846967915e-07,0.0,0.0,0.0,1.21846967915e-07,0.0,0.0,0.0,1.21846967915e-07,-0.204969421029,-0.278183817863,9.82491207123,0.00000009,0.0,0.0,0.0,0.00000009,0.0,0.0,0.0,0.00000009
3097690000000,1237,3097690000000,base_link,0.0108190362087,-0.0114990529719,0.0172280722379,-0.999726997748,1.0,0.0,0.0,0.0,1.0,0.0,0.0,0.0,1.0,-0.00102734053507,-0.0104208886623,0.00957649201155,1.21846967915e-07,0.0,0.0,0.0,1.21846967915e-07,0.0,0.0,0.0,1.21846967915e-07,-0.210228204727,-0.238804548979,9.77657032013,0.00000009,0.0,0.0,0.0,0.00000009,0.0,0.0,0.0,0.00000009
3097710000000,1238,3097710000000,base_link,0.0108579786413,-0.0114971023014,0.0171264983329,-0.999728262153,1.0,0.0,0.0,0.0,1.0,0.0,0.0,0.0,1.0,-0.00188313343097,-0.00517963105813,0.00957341678441,1.21846967915e-07,0.0,0.0,0.0,1.21846967915e-07,0.0,0.0,0.0,1.21846967915e-07,-0.289668738842,-0.316974014044,9.71434783936,0.00000009,0.0,0.0,0.0,0.00000009,0.0,0.0,0.0,0.00000009
3097730000000,1239,3097730000000,base_link,0.0109398581142,-0.0114715468232,0.0170401394403,-0.999729147237,1.0,0.0,0.0,0.0,1.0,0.0,0.0,0.0,1.0,-0.007668716833,-0.00860249157995,0.00709320465103,1.21846967915e-07,0.0,0.0,0.0,1.21846967915e-07,0.0,0.0,0.0,1.21846967915e-07,-0.29909452796,-0.295250862837,9.78868198395,0.00000009,0.0,0.0,0.0,0.00000009,0.0,0.0,0.0,0.00000009
3097750000000,1240,3097750000000,base_link,0.0110917025389,-0.0114164900019,0.0169724516016,-0.999729315825,1.0,0.0,0.0,0.0,1.0,0.0,0.0,0.0,1.0,-0.0136156873778,-0.0124012399465,0.00746754556894,1.21846967915e-07,0.0,0.0,0.0,1.21846967915e-07,0.0,0.0,0.0,1.21846967915e-07,-0.196113556623,-0.208640575409,9.83910751343,0.00000009,0.0,0.0,0.0,0.00000009,0.0,0.0,0.0,0.00000009
3097770000000,1241,3097770000000,base_link,0.0112584981928,-0.0113575033523,0.0169311898369,-0.999728767916,1.0,0.0,0.0,0.0,1.0,0.0,0.0,0.0,1.0,-0.0156862922013,-0.011354861781,0.00280141597614,1.21846967915e-07,0.0,0.0,0.0,1.21846967915e-07,0.0,0.0,0.0,1.21846967915e-07,-0.184930458665,-0.164375305176,9.83472633362,0.00000009,0.0,0.0,0.0,0.00000009,0.0,0.0,0.0,0.00000009
3097790000000,1242,3097790000000,base_link,0.0113903346617,-0.0113408752938,0.0168245161634,-0.999729231531,1.0,0.0,0.0,0.0,1.0,0.0,0.0,0.0,1.0,-0.0101152658463,-0.00699713360518,0.012463260442,1.21846967915e-07,0.0,0.0,0.0,1.21846967915e-07,0.0,0.0,0.0,1.21846967915e-07,-0.258370906115,-0.1363594383,9.78075695038,0.00000009,0.0,0.0,0.0,0.00000009,0.0,0.0,0.0,0.00000009
3097810000000,1243,3097810000000,base_link,0.0113891745121,-0.0112745240947,0.0168086689483,-0.999730327349,1.0,0.0,0.0,0.0,1.0,0.0,0.0,0.0,1.0,0.0046191602014,-0.012311341241,0.00312880054116,1.21846967915e-07,0.0,0.0,0.0,1.21846967915e-07,0.0,0.0,0.0,1.21846967915e-07,-0.283112257719,-0.182705625892,9.79247283936,0.00000009,0.0,0.0,0.0,0.00000009,0.0,0.0,0.0,0.00000009
3097830000000,1244,3097826000000,base_link,0.0113720899742,-0.0112235045937,0.0167543416606,-0.999731971076,1.0,0.0,0.0,0.0,1.0,0.0,0.0,0.0,1.0,0.00372210610658,-0.0124111305922,0.00933589600027,1.21846967915e-07,0.0,0.0,0.0,1.21846967915e-07,0.0,0.0,0.0,1.21846967915e-07,-0.196481823921,-0.204151526093,9.77726268768,0.00000009,0.0,0.0,0.0,0.00000009,0.0,0.0,0.0,0.00000009
3097850000000,1245,3097850000000,base_link,0.0113593220207,-0.0112501019819,0.0167549738633,-0.999731844636,1.0,0.0,0.0,0.0,1.0,0.0,0.0,0.0,1.0,0.00182570982724,-0.00388126564212,0.000604549073614,1.21846967915e-07,0.0,0.0,0.0,1.21846967915e-07,0.0,0.0,0.0,1.21846967915e-07,-0.265161812305,-0.187749952078,9.85100269318,0.00000009,0.0,0.0,0.0,0.00000009,0.0,0.0,0.0,0.00000009
3097870000000,1246,3097870000000,base_link,0.0113768519719,-0.0113598449764,0.0167615066248,-0.999730285202,1.0,0.0,0.0,0.0,1.0,0.0,0.0,0.0,1.0,0.00010322581511,0.00689567858353,0.00303313881159,1.21846967915e-07,0.0,0.0,0.0,1.21846967915e-07,0.0,0.0,0.0,1.21846967915e-07,-0.224551320076,-0.172690972686,9.83240413666,0.00000009,0.0,0.0,0.0,0.00000009,0.0,0.0,0.0,0.00000009
3097890000000,1247,3097890000000,base_link,0.011375278657,-0.0114045029072,0.0167476403117,-0.999729990174,1.0,0.0,0.0,0.0,1.0,0.0,0.0,0.0,1.0,0.00149245141074,-0.00205956399441,0.00302043650299,1.21846967915e-07,0.0,0.0,0.0,1.21846967915e-07,0.0,0.0,0.0,1.21846967915e-07,-0.225331380963,-0.159449100494,9.87231826782,0.00000009,0.0,0.0,0.0,0.00000009,0.0,0.0,0.0,0.00000009
3097910000000,1248,3097910000000,base_link,0.0113027745942,-0.0114677768102,0.0167097502949,-0.999730790964,1.0,0.0,0.0,0.0,1.0,0.0,0.0,0.0,1.0,0.0101636238396,0.001259152079,0.00571720814332,1.21846967915e-07,0.0,0.0,0.0,1.21846967915e-07,0.0,0.0,0.0,1.21846967915e-07,-0.220308870077,-0.189478799701,9.8131570816,0.00000009,0.0,0.0,0.0,0.00000009,0.0,0.0,0.0,0.00000009
3097930000000,1249,3097930000000,base_link,0.0110742958802,-0.0115391373414,0.0166998879323,-0.999732645426,1.0,0.0,0.0,0.0,1.0,0.0,0.0,0.0,1.0,0.0243666339666,0.000756900815759,0.00285748951137,1.21846967915e-07,0.0,0.0,0.0,1.21846967915e-07,0.0,0.0,0.0,1.21846967915e-07,-0.240394204855,-0.132884845138,9.85360717773,0.00000009,0.0,0.0,0.0,0.00000009,0.0,0.0,0.0,0.00000009
3097950000000,1250,3097950000000,base_link,0.0108050086344,-0.0116155289982,0.0166645688733,-0.999735342824,1.0,0.0,0.0,0.0,1.0,0.0,0.0,0.0,1.0,0.0265230163932,0.00241807987913,0.00477573368698,1.21846967915e-07,0.0,0.0,0.0,1.21846967915e-07,0.0,0.0,0.0,1.21846967915e-07,-0.169436916709,-0.236807599664,9.75339889526,0.00000009,0.0,0.0,0.0,0.00000009,0.0,0.0,0.0,0.00000009
3097970000000,1251,3097970000000,base_link,0.0106852975906,-0.0116313243529,0.0166401237011,-0.99973686011,1.0,0.0,0.0,0.0,1.0,0.0,0.0,0.0,1.0,0.0119610298425,-0.0058048623614,0.00558135472238,1.21846967915e-07,0.0,0.0,0.0,1.21846967915e-07,0.0,0.0,0.0,1.21846967915e-07,-0.242867201567,-0.214220404625,9.73909664154,0.00000009,0.0,0.0,0.0,0.00000009,0.0,0.0,0.0,0.00000009
3097990000000,1252,3097990000000,base_link,0.0106463422134,-0.0116402079536,0.0166259202132,-0.999737323726,1.0,0.0,0.0,0.0,1.0,0.0,0.0,0.0,1.0,0.00270711886697,-0.00601330399513,0.00105738686398,1.21846967915e-07,0.0,0.0,0.0,1.21846967915e-07,0.0,0.0,0.0,1.21846967915e-07,-0.211602643132,-0.262167274952,9.71641349792,0.00000009,0.0,0.0,0.0,0.00000009,0.0,0.0,0.0,0.00000009
3098010000000,1253,3098010000000,base_link,0.0105910404444,-0.0116071435863,0.0166144562704,-0.999738503838,1.0,0.0,0.0,0.0,1.0,0.0,0.0,0.0,1.0,0.0108826877549,-0.0135164298117,0.00150413927622,1.21846967915e-07,0.0,0.0,0.0,1.21846967915e-07,0.0,0.0,0.0,1.21846967915e-07,-0.304377913475,-0.207812741399,9.71779918671,0.00000009,0.0,0.0,0.0,0.00000009,0.0,0.0,0.0,0.00000009
3098030000000,1254,3098030000000,base_link,0.0104602035381,-0.0114909815212,0.0166255830384,-0.999741032648,1.0,0.0,0.0,0.0,1.0,0.0,0.0,0.0,1.0,0.0166117101908,-0.0174187533557,0.00164169515483,1.21846967915e-07,0.0,0.0,0.0,1.21846967915e-07,0.0,0.0,0.0,1.21846967915e-07,-0.183580875397,-0.227825850248,9.80601596832,0.00000009,0.0,0.0,0.0,0.00000009,0.0,0.0,0.0,0.00000009
3098050000000,1255,3098050000000,base_link,0.0103676632998,-0.0113912280802,0.0166227170527,-0.999743224285,1.0,0.0,0.0,0.0,1.0,0.0,0.0,0.0,1.0,0.00927765481174,-0.0160763803869,0.000317950325552,1.21846967915e-07,0.0,0.0,0.0,1.21846967915e-07,0.0,0.0,0.0,1.21846967915e-07,-0.190882503986,-0.253443062305,9.81056880951,0.00000009,0.0,0.0,0.0,0.00000009,0.0,0.0,0.0,0.00000009
3098070000000,1256,3098070000000,base_link,0.01038566412,-0.0113676217292,0.0166169850813,-0.999743392872,1.0,0.0,0.0,0.0,1.0,0.0,0.0,0.0,1.0,-0.00454506091774,-0.00657261023298,-0.000739523442462,1.21846967915e-07,0.0,0.0,0.0,1.21846967915e-07,0.0,0.0,0.0,1.21846967915e-07,-0.234421849251,-0.245152682066,9.78092288971,0.00000009,0.0,0.0,0.0,0.00000009,0.0,0.0,0.0,0.00000009
3098090000000,1257,3098090000000,base_link,0.0105258744196,-0.0113447337678,0.0166319472125,-0.999741917732,1.0,0.0,0.0,0.0,1.0,0.0,0.0,0.0,1.0,-0.0104377772659,-0.00942006893456,0.000565806636587,1.21846967915e-07,0.0,0.0,0.0,1.21846967915e-07,0.0,0.0,0.0,1.21846967915e-07,-0.195005521178,-0.270140439272,9.85540962219,0.00000009,0.0,0.0,0.0,0.00000009,0.0,0.0,0.0,0.00000009
