%time,field.header.seq,field.header.stamp,field.header.frame_id,field.orientation.x,field.orientation.y,field.orientation.z,field.orientation.w,field.orientation_covariance0,field.orientation_covariance1,field.orientation_covariance2,field.orientation_covariance3,field.orientation_covariance4,field.orientation_covariance5,field.orientation_covariance6,field.orientation_covariance7,field.orientation_covariance8,field.angular_velocity.x,field.angular_velocity.y,field.angular_velocity.z,field.angular_velocity_covariance0,field.angular_velocity_covariance1,field.angular_velocity_covariance2,field.angular_velocity_covariance3,field.angular_velocity_covariance4,field.angular_velocity_covariance5,field.angular_velocity_covariance6,field.angular_velocity_covariance7,field.angular_velocity_covariance8,field.linear_acceleration.x,field.linear_acceleration.y,field.linear_acceleration.z,field.linear_acceleration_covariance0,field.linear_acceleration_covariance1,field.linear_acceleration_covariance2,field.linear_acceleration_covariance3,field.linear_acceleration_covariance4,field.linear_acceleration_covariance5,field.linear_acceleration_covariance6,field.linear_acceleration_covariance7,field.linear_acceleration_covariance8
2770438000000,1916,2770430000000,base_link,0.00836245647645,-0.0124884732486,0.0206488369035,-0.999673850572,1.0,0.0,0.0,0.0,1.0,0.0,0.0,0.0,1.0,0.00317062810063,-0.00205248361453,0.00128821586259,1.21846967915e-07,0.0,0.0,0.0,1.21846967915e-07,0.0,0.0,0.0,1.21846967915e-07,-0.186529204249,-0.172803327441,9.78479862213,9e-08,0.0,0.0,0.0,9e-08,0.0,0.0,0.0,9e-08
2770450000000,1917,2770450000000,base_link,0.00833559181179,-0.0124683731531,0.020686558333,-0.999673555544,1.0,0.0,0.0,0.0,1.0,0.0,0.0,0.0,1.0,0.00342233665287,-0.00555187091231,-0.00108621269464,1.21846967915e-07,0.0,0.0,0.0,1.21846967915e-07,0.0,0.0,0.0,1.21846967915e-07,-0.227045193315,-0.100065812469,9.75720691681,9e-08,0.0,0.0,0.0,9e-08,0.0,0.0,0.0,9e-08
2770470000000,1918,2770466000000,base_link,0.00833465256268,-0.0124982620188,0.0206999188839,-0.999672923341,1.0,0.0,0.0,0.0,1.0,0.0,0.0,0.0,1.0,0.00125856162049,-0.00202205823734,0.000229817116633,1.21846967915e-07,0.0,0.0,0.0,1.21846967915e-07,0.0,0.0,0.0,1.21846967915e-07,-0.244506895542,-0.172645881772,9.79221439362,9e-08,0.0,0.0,0.0,9e-08,0.0,0.0,0.0,9e-08
2770490000000,1919,2770490000000,base_link,0.00832668779613,-0.0124992159205,0.0206943133531,-0.999673049782,1.0,0.0,0.0,0.0,1.0,0.0,0.0,0.0,1.0,0.00339070241898,-0.00567419361323,0.000886823050678,1.21846967915e-07,0.0,0.0,0.0,1.21846967915e-07,0.0,0.0,0.0,1.21846967915e-07,-0.187619417906,-0.204424828291,9.71438503265,9e-08,0.0,0.0,0.0,9e-08,0.0,0.0,0.0,9e-08
2770510000000,1920,2770510000000,base_link,0.00785821322722,-0.0125068607991,0.0206034868946,-0.999678655313,1.0,0.0,0.0,0.0,1.0,0.0,0.0,0.0,1.0,0.050071220845,-0.00682934001088,0.0127802211791,1.21846967915e-07,0.0,0.0,0.0,1.21846967915e-07,0.0,0.0,0.0,1.21846967915e-07,-0.332535892725,-0.348703831434,10.1191511154,9e-08,0.0,0.0,0.0,9e-08,0.0,0.0,0.0,9e-08
2770530000000,1921,2770530000000,base_link,0.00661458238158,-0.0122092814935,0.0205092886881,-0.999693280269,1.0,0.0,0.0,0.0,1.0,0.0,0.0,0.0,1.0,0.139078244567,-0.0382952168584,0.0116398129612,1.21846967915e-07,0.0,0.0,0.0,1.21846967915e-07,0.0,0.0,0.0,1.21846967915e-07,-0.391318947077,-0.261352002621,10.6355791092,9e-08,0.0,0.0,0.0,9e-08,0.0,0.0,0.0,9e-08
2770550000000,1922,2770550000000,base_link,0.00518374659475,-0.0115388163421,0.0203958293719,-0.99971199347,1.0,0.0,0.0,0.0,1.0,0.0,0.0,0.0,1.0,0.192741602659,-0.103171475232,0.0167531371117,1.21846967915e-07,0.0,0.0,0.0,1.21846967915e-07,0.0,0.0,0.0,1.21846967915e-07,-0.262899428606,-0.0952656939626,11.227686882,9e-08,0.0,0.0,0.0,9e-08,0.0,0.0,0.0,9e-08
2770570000000,1923,2770570000000,base_link,0.00345541760697,-0.0101909732976,0.0203553262505,-0.999734963502,1.0,0.0,0.0,0.0,1.0,0.0,0.0,0.0,1.0,0.172787547112,-0.144743591547,0.00574890244752,1.21846967915e-07,0.0,0.0,0.0,1.21846967915e-07,0.0,0.0,0.0,1.21846967915e-07,-0.151337116957,-0.268927931786,11.6715354919,9e-08,0.0,0.0,0.0,9e-08,0.0,0.0,0.0,9e-08
2770590000000,1924,2770590000000,base_link,0.00261452772236,-0.00897208215811,0.0202725076932,-0.999750852864,1.0,0.0,0.0,0.0,1.0,0.0,0.0,0.0,1.0,0.0725287944078,-0.123307749629,0.0108552463353,1.21846967915e-07,0.0,0.0,0.0,1.21846967915e-07,0.0,0.0,0.0,1.21846967915e-07,-0.303165823221,-0.3161444664,11.9046449661,9e-08,0.0,0.0,0.0,9e-08,0.0,0.0,0.0,9e-08
2770610000000,1925,2770610000000,base_link,0.00239516226621,-0.00822634207673,0.0201665926629,-0.999759914437,1.0,0.0,0.0,0.0,1.0,0.0,0.0,0.0,1.0,0.0197502654046,-0.0734648704529,0.0122277792543,1.21846967915e-07,0.0,0.0,0.0,1.21846967915e-07,0.0,0.0,0.0,1.21846967915e-07,-0.317801386118,-0.270111560822,11.9143857956,9e-08,0.0,0.0,0.0,9e-08,0.0,0.0,0.0,9e-08
2770630000000,1926,2770630000000,base_link,0.00157974620025,-0.00757689371476,0.0200959545448,-0.999768090925,1.0,0.0,0.0,0.0,1.0,0.0,0.0,0.0,1.0,0.0852354094386,-0.0563542768359,0.00928756315261,1.21846967915e-07,0.0,0.0,0.0,1.21846967915e-07,0.0,0.0,0.0,1.21846967915e-07,-0.241671726108,-0.0555401481688,11.9730205536,9e-08,0.0,0.0,0.0,9e-08,0.0,0.0,0.0,9e-08
2770650000000,1927,2770650000000,base_link,0.000716910649181,-0.00710973607023,0.0200305847827,-0.999773865043,1.0,0.0,0.0,0.0,1.0,0.0,0.0,0.0,1.0,0.113414615393,-0.0624720677733,0.0110914660618,1.21846967915e-07,0.0,0.0,0.0,1.21846967915e-07,0.0,0.0,0.0,1.21846967915e-07,-0.236214369535,-0.172001868486,11.6806497574,9e-08,0.0,0.0,0.0,9e-08,0.0,0.0,0.0,9e-08
2770670000000,1928,2770670000000,base_link,-0.000198271946285,-0.00639450009974,0.020013262428,-0.999779301987,1.0,0.0,0.0,0.0,1.0,0.0,0.0,0.0,1.0,0.064302071929,-0.0653296262026,0.00190114160068,1.21846967915e-07,0.0,0.0,0.0,1.21846967915e-07,0.0,0.0,0.0,1.21846967915e-07,-0.132153108716,-0.116162821651,11.5483446121,9e-08,0.0,0.0,0.0,9e-08,0.0,0.0,0.0,9e-08
2770686000000,1929,2770686000000,base_link,-7.21290628703e-05,-0.00601328053787,0.0199902502487,-0.999782083679,1.0,0.0,0.0,0.0,1.0,0.0,0.0,0.0,1.0,-0.0173011478037,-0.0542998686433,0.00445091864094,1.21846967915e-07,0.0,0.0,0.0,1.21846967915e-07,0.0,0.0,0.0,1.21846967915e-07,-0.203343331814,-0.254057615995,11.4182605743,9e-08,0.0,0.0,0.0,9e-08,0.0,0.0,0.0,9e-08
2770710000000,1930,2770710000000,base_link,0.000646965319899,-0.00576217290716,0.0199970358913,-0.999783305938,1.0,0.0,0.0,0.0,1.0,0.0,0.0,0.0,1.0,-0.0776920318604,-0.0284397043288,-0.000664635910653,1.21846967915e-07,0.0,0.0,0.0,1.21846967915e-07,0.0,0.0,0.0,1.21846967915e-07,-0.234207049012,-0.194845989347,11.1831989288,9e-08,0.0,0.0,0.0,9e-08,0.0,0.0,0.0,9e-08
2770730000000,1931,2770730000000,base_link,0.00113917284506,-0.00576044077047,0.0200205959796,-0.99978233656,1.0,0.0,0.0,0.0,1.0,0.0,0.0,0.0,1.0,-0.0408079102635,-0.00482138711959,-0.00139222422149,1.21846967915e-07,0.0,0.0,0.0,1.21846967915e-07,0.0,0.0,0.0,1.21846967915e-07,-0.264595091343,-0.100493662059,11.2455682755,9e-08,0.0,0.0,0.0,9e-08,0.0,0.0,0.0,9e-08
2770750000000,1932,2770750000000,base_link,0.0010923638307,-0.00582283950896,0.0200269601538,-0.999781957238,1.0,0.0,0.0,0.0,1.0,0.0,0.0,0.0,1.0,0.0136264674366,0.000420420255978,0.000297524238704,1.21846967915e-07,0.0,0.0,0.0,1.21846967915e-07,0.0,0.0,0.0,1.21846967915e-07,-0.103572554886,-0.128483608365,11.1625928879,9e-08,0.0,0.0,0.0,9e-08,0.0,0.0,0.0,9e-08
2770770000000,1933,2770770000000,base_link,0.00107954279231,-0.00586087160675,0.0200010819888,-0.999782210119,1.0,0.0,0.0,0.0,1.0,0.0,0.0,0.0,1.0,-0.0104410080239,-0.00497387489304,0.00194741785526,1.21846967915e-07,0.0,0.0,0.0,1.21846967915e-07,0.0,0.0,0.0,1.21846967915e-07,-0.162832632661,-0.168239101768,11.1684913635,9e-08,0.0,0.0,0.0,9e-08,0.0,0.0,0.0,9e-08
2770790000000,1934,2770790000000,base_link,0.00162007250247,-0.00594115773117,0.0200049594988,-0.999780945714,1.0,0.0,0.0,0.0,1.0,0.0,0.0,0.0,1.0,-0.0701086372137,0.00225758599117,0.00105602119584,1.21846967915e-07,0.0,0.0,0.0,1.21846967915e-07,0.0,0.0,0.0,1.21846967915e-07,-0.238382831216,-0.22776016593,11.2018499374,9e-08,0.0,0.0,0.0,9e-08,0.0,0.0,0.0,9e-08
2770810000000,1935,2770810000000,base_link,0.00271431088012,-0.00611118322178,0.0200204273923,-0.999777278938,1.0,0.0,0.0,0.0,1.0,0.0,0.0,0.0,1.0,-0.0892515182495,0.0081396503374,0.00218382617459,1.21846967915e-07,0.0,0.0,0.0,1.21846967915e-07,0.0,0.0,0.0,1.21846967915e-07,-0.157322928309,-0.223938733339,11.3700580597,9e-08,0.0,0.0,0.0,9e-08,0.0,0.0,0.0,9e-08
2770830000000,1936,2770830000000,base_link,0.00304392211989,-0.00623343558888,0.0200468113194,-0.999775003008,1.0,0.0,0.0,0.0,1.0,0.0,0.0,0.0,1.0,-0.0375392772257,0.0092332130298,-0.00196638982743,1.21846967915e-07,0.0,0.0,0.0,1.21846967915e-07,0.0,0.0,0.0,1.21846967915e-07,-0.214976087213,-0.0394914932549,11.407365799,9e-08,0.0,0.0,0.0,9e-08,0.0,0.0,0.0,9e-08
2770850000000,1937,2770850000000,base_link,0.0029986391178,-0.00632829382154,0.0200934257339,-0.999773654309,1.0,0.0,0.0,0.0,1.0,0.0,0.0,0.0,1.0,0.0122576663271,0.00203121616505,-0.00316559802741,1.21846967915e-07,0.0,0.0,0.0,1.21846967915e-07,0.0,0.0,0.0,1.21846967915e-07,-0.154433876276,-0.0809024572372,11.5319929123,9e-08,0.0,0.0,0.0,9e-08,0.0,0.0,0.0,9e-08
2770870000000,1938,2770870000000,base_link,0.00317758854504,-0.00646732129289,0.0201115910256,-0.999771841995,1.0,0.0,0.0,0.0,1.0,0.0,0.0,0.0,1.0,-0.0232983492315,0.00886303186417,-0.00097543746233,1.21846967915e-07,0.0,0.0,0.0,1.21846967915e-07,0.0,0.0,0.0,1.21846967915e-07,-0.211824536324,-0.200312942266,11.6783208847,9e-08,0.0,0.0,0.0,9e-08,0.0,0.0,0.0,9e-08
2770890000000,1939,2770890000000,base_link,0.00397607293779,-0.00674279062521,0.0201033723901,-0.999767332282,1.0,0.0,0.0,0.0,1.0,0.0,0.0,0.0,1.0,-0.0876519083977,0.023050993681,0.00224955705926,1.21846967915e-07,0.0,0.0,0.0,1.21846967915e-07,0.0,0.0,0.0,1.21846967915e-07,-0.261096745729,-0.145152896643,11.5815505981,9e-08,0.0,0.0,0.0,9e-08,0.0,0.0,0.0,9e-08
2770910000000,1940,2770910000000,base_link,0.00477959618384,-0.00706072718795,0.020139028624,-0.999760841667,1.0,0.0,0.0,0.0,1.0,0.0,0.0,0.0,1.0,-0.0637551099062,0.0216852426529,-0.000174094137037,1.21846967915e-07,0.0,0.0,0.0,1.21846967915e-07,0.0,0.0,0.0,1.21846967915e-07,-0.120195642114,-0.0663615465164,11.6627092361,9e-08,0.0,0.0,0.0,9e-08,0.0,0.0,0.0,9e-08
2770930000000,1941,2770930000000,base_link,0.00498879107861,-0.00728757700243,0.0201773401093,-0.999757427773,1.0,0.0,0.0,0.0,1.0,0.0,0.0,0.0,1.0,-0.0108116893098,0.0154061298817,-0.00226143957116,1.21846967915e-07,0.0,0.0,0.0,1.21846967915e-07,0.0,0.0,0.0,1.21846967915e-07,-0.172998204827,-0.0204527154565,11.7348861694,9e-08,0.0,0.0,0.0,9e-08,0.0,0.0,0.0,9e-08
2770950000000,1942,2770950000000,base_link,0.00477774271032,-0.00758608008138,0.0201850108357,-0.999756079073,1.0,0.0,0.0,0.0,1.0,0.0,0.0,0.0,1.0,0.0249284598976,0.0275315269828,0.00213345931843,1.21846967915e-07,0.0,0.0,0.0,1.21846967915e-07,0.0,0.0,0.0,1.21846967915e-07,-0.175717294216,-0.128032416105,11.6793613434,9e-08,0.0,0.0,0.0,9e-08,0.0,0.0,0.0,9e-08
2770970000000,1943,2770970000000,base_link,0.004793462497,-0.00783398224669,0.0201976127434,-0.99975384529,1.0,0.0,0.0,0.0,1.0,0.0,0.0,0.0,1.0,-0.0198367722332,0.0136548615992,-0.00397474551573,1.21846967915e-07,0.0,0.0,0.0,1.21846967915e-07,0.0,0.0,0.0,1.21846967915e-07,-0.282564043999,-0.118116736412,11.5455322266,9e-08,0.0,0.0,0.0,9e-08,0.0,0.0,0.0,9e-08
2770990000000,1944,2770990000000,base_link,0.00532062120178,-0.00794578688749,0.0202312459285,-0.999749630606,1.0,0.0,0.0,0.0,1.0,0.0,0.0,0.0,1.0,-0.0664959698915,0.00133245415054,-0.000196713837795,1.21846967915e-07,0.0,0.0,0.0,1.21846967915e-07,0.0,0.0,0.0,1.21846967915e-07,-0.116125963628,-0.122689880431,11.462433815,9e-08,0.0,0.0,0.0,9e-08,0.0,0.0,0.0,9e-08
2771010000000,1945,2771010000000,base_link,0.00591552660269,-0.00802868842142,0.0202340697674,-0.999745542361,1.0,0.0,0.0,0.0,1.0,0.0,0.0,0.0,1.0,-0.0554411262274,0.000533080543391,0.0010746777989,1.21846967915e-07,0.0,0.0,0.0,1.21846967915e-07,0.0,0.0,0.0,1.21846967915e-07,-0.188929542899,-0.0829030647874,11.3603458405,9e-08,0.0,0.0,0.0,9e-08,0.0,0.0,0.0,9e-08
2771030000000,1946,2771030000000,base_link,0.00609045635657,-0.00806195224538,0.0202730977491,-0.999743435019,1.0,0.0,0.0,0.0,1.0,0.0,0.0,0.0,1.0,-0.00712653202936,-0.00278692599386,-0.00273813586682,1.21846967915e-07,0.0,0.0,0.0,1.21846967915e-07,0.0,0.0,0.0,1.21846967915e-07,-0.200070753694,-0.128605633974,11.4149637222,9e-08,0.0,0.0,0.0,9e-08,0.0,0.0,0.0,9e-08
2771050000000,1947,2771050000000,base_link,0.00588826088443,-0.00816723894191,0.0202968685716,-0.999743350725,1.0,0.0,0.0,0.0,1.0,0.0,0.0,0.0,1.0,0.0261539947242,0.00577715784311,0.000271876109764,1.21846967915e-07,0.0,0.0,0.0,1.21846967915e-07,0.0,0.0,0.0,1.21846967915e-07,-0.149463504553,-0.173094749451,11.3746881485,9e-08,0.0,0.0,0.0,9e-08,0.0,0.0,0.0,9e-08
2771070000000,1948,2771070000000,base_link,0.00585723002026,-0.00829205576364,0.020309849801,-0.999742254907,1.0,0.0,0.0,0.0,1.0,0.0,0.0,0.0,1.0,-0.0109158717096,0.00637957360595,-0.00153553916607,1.21846967915e-07,0.0,0.0,0.0,1.21846967915e-07,0.0,0.0,0.0,1.21846967915e-07,-0.176839470863,-0.146487131715,11.3704767227,9e-08,0.0,0.0,0.0,9e-08,0.0,0.0,0.0,9e-08
2771090000000,1949,2771090000000,base_link,0.00628638602468,-0.00836369651576,0.0203330305677,-0.999738545984,1.0,0.0,0.0,0.0,1.0,0.0,0.0,0.0,1.0,-0.0465332195163,-0.00188883044757,-0.00177172548138,1.21846967915e-07,0.0,0.0,0.0,1.21846967915e-07,0.0,0.0,0.0,1.21846967915e-07,-0.212528303266,-0.130615442991,11.4091711044,9e-08,0.0,0.0,0.0,9e-08,0.0,0.0,0.0,9e-08
2771110000000,1950,2771110000000,base_link,0.00676983120357,-0.00837049425912,0.0203609739282,-0.999734794915,1.0,0.0,0.0,0.0,1.0,0.0,0.0,0.0,1.0,-0.0453568920493,-0.0066026924178,-0.00304071605206,1.21846967915e-07,0.0,0.0,0.0,1.21846967915e-07,0.0,0.0,0.0,1.21846967915e-07,-0.179638028145,-0.0132745783776,11.4028978348,9e-08,0.0,0.0,0.0,9e-08,0.0,0.0,0.0,9e-08
2771130000000,1951,2771130000000,base_link,0.00684978402215,-0.00840166160664,0.0203063516125,-0.999735047796,1.0,0.0,0.0,0.0,1.0,0.0,0.0,0.0,1.0,0.00399098033085,-0.00156106078066,0.00453568389639,1.21846967915e-07,0.0,0.0,0.0,1.21846967915e-07,0.0,0.0,0.0,1.21846967915e-07,-0.0663352906704,-0.0710962340236,11.5676002502,9e-08,0.0,0.0,0.0,9e-08,0.0,0.0,0.0,9e-08
2771150000000,1952,2771150000000,base_link,0.00675351650425,-0.00844498082901,0.0203478241115,-0.999734542034,1.0,0.0,0.0,0.0,1.0,0.0,0.0,0.0,1.0,0.0142542393878,0.000504023570102,-0.00491397548467,1.21846967915e-07,0.0,0.0,0.0,1.21846967915e-07,0.0,0.0,0.0,1.21846967915e-07,-0.0833292007446,-0.0437029488385,11.5084877014,9e-08,0.0,0.0,0.0,9e-08,0.0,0.0,0.0,9e-08
2771170000000,1953,2771166000000,base_link,0.00683311181548,-0.0084674019646,0.0203967144558,-0.999732771866,1.0,0.0,0.0,0.0,1.0,0.0,0.0,0.0,1.0,-0.0127296075225,-0.00447070971131,-0.00210826424882,1.21846967915e-07,0.0,0.0,0.0,1.21846967915e-07,0.0,0.0,0.0,1.21846967915e-07,-0.17493532598,-0.162985682487,11.4870033264,9e-08,0.0,0.0,0.0,9e-08,0.0,0.0,0.0,9e-08
2771190000000,1954,2771190000000,base_link,0.0070720596688,-0.00846174218615,0.0204082205454,-0.999730959552,1.0,0.0,0.0,0.0,1.0,0.0,0.0,0.0,1.0,-0.0287011340261,-0.00545673724264,-0.00120180589147,1.21846967915e-07,0.0,0.0,0.0,1.21846967915e-07,0.0,0.0,0.0,1.21846967915e-07,-0.160120874643,-0.116173312068,11.4630994797,9e-08,0.0,0.0,0.0,9e-08,0.0,0.0,0.0,9e-08
2771210000000,1955,2771210000000,base_link,0.00733488914479,-0.00840080269997,0.0204108757969,-0.999729484412,1.0,0.0,0.0,0.0,1.0,0.0,0.0,0.0,1.0,-0.0238740649074,-0.0123225171119,-0.000411047687521,1.21846967915e-07,0.0,0.0,0.0,1.21846967915e-07,0.0,0.0,0.0,1.21846967915e-07,-0.0309134237468,-0.113676413894,11.3968839645,9e-08,0.0,0.0,0.0,9e-08,0.0,0.0,0.0,9e-08
2771230000000,1956,2771230000000,base_link,0.00725447550969,-0.00830899509243,0.0203882850861,-0.999731338873,1.0,0.0,0.0,0.0,1.0,0.0,0.0,0.0,1.0,0.0142007414252,-0.0146687673405,0.00288286292925,1.21846967915e-07,0.0,0.0,0.0,1.21846967915e-07,0.0,0.0,0.0,1.21846967915e-07,-0.149234741926,-0.0653277784586,11.3807821274,9e-08,0.0,0.0,0.0,9e-08,0.0,0.0,0.0,9e-08
2771250000000,1957,2771250000000,base_link,0.0070179742727,-0.0082135661898,0.0203465175592,-0.999734668474,1.0,0.0,0.0,0.0,1.0,0.0,0.0,0.0,1.0,0.0242514181882,-0.0133037241176,0.00550726894289,1.21846967915e-07,0.0,0.0,0.0,1.21846967915e-07,0.0,0.0,0.0,1.21846967915e-07,-0.183556169271,-0.142479136586,11.3497648239,9e-08,0.0,0.0,0.0,9e-08,0.0,0.0,0.0,9e-08
2771270000000,1958,2771270000000,base_link,0.00706537000905,-0.00819195115384,0.0203094283325,-0.99973525853,1.0,0.0,0.0,0.0,1.0,0.0,0.0,0.0,1.0,-0.0130624715239,-0.00818999111652,0.00225831009448,1.21846967915e-07,0.0,0.0,0.0,1.21846967915e-07,0.0,0.0,0.0,1.21846967915e-07,-0.203943878412,-0.143018886447,11.4339504242,9e-08,0.0,0.0,0.0,9e-08,0.0,0.0,0.0,9e-08
2771290000000,1959,2771290000000,base_link,0.00739045330258,-0.0081613900377,0.0203262870719,-0.999732814013,1.0,0.0,0.0,0.0,1.0,0.0,0.0,0.0,1.0,-0.0335213877261,-0.00935763772577,-0.00212250417098,1.21846967915e-07,0.0,0.0,0.0,1.21846967915e-07,0.0,0.0,0.0,1.21846967915e-07,-0.145492404699,-0.176609128714,11.3570356369,9e-08,0.0,0.0,0.0,9e-08,0.0,0.0,0.0,9e-08
2771310000000,1960,2771310000000,base_link,0.0076415335008,-0.00810446851678,0.0203436937203,-0.999731001699,1.0,0.0,0.0,0.0,1.0,0.0,0.0,0.0,1.0,-0.0227664671838,-0.0125408004969,-0.000903283944353,1.21846967915e-07,0.0,0.0,0.0,1.21846967915e-07,0.0,0.0,0.0,1.21846967915e-07,-0.130878955126,-0.0885525271296,11.2292337418,9e-08,0.0,0.0,0.0,9e-08,0.0,0.0,0.0,9e-08
2771326000000,1961,2771330000000,base_link,0.00764962057141,-0.00805030440403,0.020323758261,-0.999731802489,1.0,0.0,0.0,0.0,1.0,0.0,0.0,0.0,1.0,0.00433981977403,-0.0108490716666,0.0035771294497,1.21846967915e-07,0.0,0.0,0.0,1.21846967915e-07,0.0,0.0,0.0,1.21846967915e-07,-0.19957664609,-0.133416414261,11.0561494827,9e-08,0.0,0.0,0.0,9e-08,0.0,0.0,0.0,9e-08
2771350000000,1962,2771350000000,base_link,0.00756796201966,-0.00802668144529,0.0203435251329,-0.99973218181,1.0,0.0,0.0,0.0,1.0,0.0,0.0,0.0,1.0,0.0102208554745,-0.00591655028984,6.38363417239e-07,1.21846967915e-07,0.0,0.0,0.0,1.21846967915e-07,0.0,0.0,0.0,1.21846967915e-07,-0.229761451483,-0.108068458736,10.8864221573,9e-08,0.0,0.0,0.0,9e-08,0.0,0.0,0.0,9e-08
2771370000000,1963,2771370000000,base_link,0.00758150992655,-0.00804758068452,0.0203690239763,-0.999731465314,1.0,0.0,0.0,0.0,1.0,0.0,0.0,0.0,1.0,-0.00187203614041,-0.00445458944887,-0.00164780090563,1.21846967915e-07,0.0,0.0,0.0,1.21846967915e-07,0.0,0.0,0.0,1.21846967915e-07,-0.173882424831,-0.216867819428,10.746553421,9e-08,0.0,0.0,0.0,9e-08,0.0,0.0,0.0,9e-08
2771390000000,1964,2771390000000,base_link,0.00775913800481,-0.0081071050203,0.0203784648704,-0.999729357971,1.0,0.0,0.0,0.0,1.0,0.0,0.0,0.0,1.0,-0.017839146778,-0.000466780969873,-0.000971945584752,1.21846967915e-07,0.0,0.0,0.0,1.21846967915e-07,0.0,0.0,0.0,1.21846967915e-07,-0.132017716765,-0.114567868412,10.5051021576,9e-08,0.0,0.0,0.0,9e-08,0.0,0.0,0.0,9e-08
2771410000000,1965,2771410000000,base_link,0.00810847301275,-0.00821194576901,0.0203492149575,-0.999726323398,1.0,0.0,0.0,0.0,1.0,0.0,0.0,0.0,1.0,-0.0357919111848,0.00463881436735,0.00371467322111,1.21846967915e-07,0.0,0.0,0.0,1.21846967915e-07,0.0,0.0,0.0,1.21846967915e-07,-0.227391019464,-0.0913988500833,10.1973428726,9e-08,0.0,0.0,0.0,9e-08,0.0,0.0,0.0,9e-08
2771426000000,1966,2771426000000,base_link,0.00845252687187,-0.00837157704263,0.0203093440388,-0.999723035944,1.0,0.0,0.0,0.0,1.0,0.0,0.0,0.0,1.0,-0.0242614299059,0.00782852806151,0.00590720865875,1.21846967915e-07,0.0,0.0,0.0,1.21846967915e-07,0.0,0.0,0.0,1.21846967915e-07,-0.156044140458,-0.101155593991,9.96996307373,9e-08,0.0,0.0,0.0,9e-08,0.0,0.0,0.0,9e-08
2771446000000,1967,2771450000000,base_link,0.00859981625226,-0.00862189971401,0.0203496785728,-0.999718779112,1.0,0.0,0.0,0.0,1.0,0.0,0.0,0.0,1.0,-0.0129201309755,0.0198990143836,-0.00196687621064,1.21846967915e-07,0.0,0.0,0.0,1.21846967915e-07,0.0,0.0,0.0,1.21846967915e-07,-0.203923240304,-0.0720093399286,9.78787136078,9e-08,0.0,0.0,0.0,9e-08,0.0,0.0,0.0,9e-08
2771470000000,1968,2771470000000,base_link,0.0086489776056,-0.00891920389467,0.0203818787651,-0.99971507019,1.0,0.0,0.0,0.0,1.0,0.0,0.0,0.0,1.0,-0.00540086813271,0.0323240682483,-0.00234071328305,1.21846967915e-07,0.0,0.0,0.0,1.21846967915e-07,0.0,0.0,0.0,1.21846967915e-07,-0.12723582983,-0.0699074715376,9.51131534576,9e-08,0.0,0.0,0.0,9e-08,0.0,0.0,0.0,9e-08
2771490000000,1969,2771490000000,base_link,0.00874363199815,-0.00921889122186,0.0204020671055,-0.999711150533,1.0,0.0,0.0,0.0,1.0,0.0,0.0,0.0,1.0,-0.0112994061783,0.0246826391667,-0.0002519483387,1.21846967915e-07,0.0,0.0,0.0,1.21846967915e-07,0.0,0.0,0.0,1.21846967915e-07,-0.216720715165,-0.170755714178,9.59176921844,9e-08,0.0,0.0,0.0,9e-08,0.0,0.0,0.0,9e-08
2771510000000,1970,2771510000000,base_link,0.00885620330824,-0.00952091450931,0.0203985267702,-0.99970744161,1.0,0.0,0.0,0.0,1.0,0.0,0.0,0.0,1.0,-0.0083337360993,0.0146861122921,3.73910879716e-05,1.21846967915e-07,0.0,0.0,0.0,1.21846967915e-07,0.0,0.0,0.0,1.21846967915e-07,-0.22447951138,-0.120275482535,9.48344230652,9e-08,0.0,0.0,0.0,9e-08,0.0,0.0,0.0,9e-08
2771530000000,1971,2771530000000,base_link,0.00895082561732,-0.00975660363745,0.0204095692446,-0.999704069862,1.0,0.0,0.0,0.0,1.0,0.0,0.0,0.0,1.0,-0.00860192999244,0.0165136680007,-8.65602632985e-05,1.21846967915e-07,0.0,0.0,0.0,1.21846967915e-07,0.0,0.0,0.0,1.21846967915e-07,-0.175854220986,-0.131767526269,9.57667255402,9e-08,0.0,0.0,0.0,9e-08,0.0,0.0,0.0,9e-08
2771550000000,1972,2771550000000,base_link,0.00897522123398,-0.00997520172461,0.0204110022374,-0.999701625345,1.0,0.0,0.0,0.0,1.0,0.0,0.0,0.0,1.0,-0.00261331163347,0.0219187214971,0.00172809499782,1.21846967915e-07,0.0,0.0,0.0,1.21846967915e-07,0.0,0.0,0.0,1.21846967915e-07,-0.266701459885,-0.112961687148,9.60614585876,9e-08,0.0,0.0,0.0,9e-08,0.0,0.0,0.0,9e-08
2771566000000,1973,2771570000000,base_link,0.00901335787571,-0.0102610637125,0.0204241099073,-0.999698127157,1.0,0.0,0.0,0.0,1.0,0.0,0.0,0.0,1.0,-0.00304873404093,0.0241804812104,-0.000459644099465,1.21846967915e-07,0.0,0.0,0.0,1.21846967915e-07,0.0,0.0,0.0,1.21846967915e-07,-0.151178136468,-0.185616567731,9.72031784058,9e-08,0.0,0.0,0.0,9e-08,0.0,0.0,0.0,9e-08
2771590000000,1974,2771590000000,base_link,0.00915345013121,-0.0104598558266,0.0204598504348,-0.999694081059,1.0,0.0,0.0,0.0,1.0,0.0,0.0,0.0,1.0,-0.0150496922433,0.0110958535224,-0.00133656349499,1.21846967915e-07,0.0,0.0,0.0,1.21846967915e-07,0.0,0.0,0.0,1.21846967915e-07,-0.171377658844,-0.2406963557,9.8000087738,9e-08,0.0,0.0,0.0,9e-08,0.0,0.0,0.0,9e-08
2771610000000,1975,2771610000000,base_link,0.00930810334085,-0.0106036523538,0.0204588810573,-0.999691172927,1.0,0.0,0.0,0.0,1.0,0.0,0.0,0.0,1.0,-0.0149028524756,0.00845722295344,0.000947701337282,1.21846967915e-07,0.0,0.0,0.0,1.21846967915e-07,0.0,0.0,0.0,1.21846967915e-07,-0.0809476003051,-0.205699056387,9.91868686676,9e-08,0.0,0.0,0.0,9e-08,0.0,0.0,0.0,9e-08
2771630000000,1976,2771630000000,base_link,0.00945964735608,-0.0107548978837,0.0204810081528,-0.999687674738,1.0,0.0,0.0,0.0,1.0,0.0,0.0,0.0,1.0,-0.0150771699846,0.00834933761507,-0.00182877993211,1.21846967915e-07,0.0,0.0,0.0,1.21846967915e-07,0.0,0.0,0.0,1.21846967915e-07,-0.220548391342,-0.116609141231,9.91438484192,9e-08,0.0,0.0,0.0,9e-08,0.0,0.0,0.0,9e-08
2771650000000,1977,2771650000000,base_link,0.00959636893383,-0.0108793208135,0.0204522640021,-0.999685567396,1.0,0.0,0.0,0.0,1.0,0.0,0.0,0.0,1.0,-0.0117132309824,0.00548453908414,0.0049458569847,1.21846967915e-07,0.0,0.0,0.0,1.21846967915e-07,0.0,0.0,0.0,1.21846967915e-07,-0.118393018842,-0.183435827494,9.92349052429,9e-08,0.0,0.0,0.0,9e-08,0.0,0.0,0.0,9e-08
2771670000000,1978,2771670000000,base_link,0.00970255388507,-0.0109291687638,0.0204263858371,-0.999684555871,1.0,0.0,0.0,0.0,1.0,0.0,0.0,0.0,1.0,-0.00743426894769,-0.00130146811716,0.0039243795909,1.21846967915e-07,0.0,0.0,0.0,1.21846967915e-07,0.0,0.0,0.0,1.21846967915e-07,-0.132150739431,-0.164287149906,9.84224414825,9e-08,0.0,0.0,0.0,9e-08,0.0,0.0,0.0,9e-08
2771690000000,1979,2771690000000,base_link,0.00979857407835,-0.0109382983721,0.0203667901933,-0.999684724459,1.0,0.0,0.0,0.0,1.0,0.0,0.0,0.0,1.0,-0.00832764524966,-0.00478680618107,0.00802367739379,1.21846967915e-07,0.0,0.0,0.0,1.21846967915e-07,0.0,0.0,0.0,1.21846967915e-07,-0.228569746017,-0.184222772717,9.86786556244,9e-08,0.0,0.0,0.0,9e-08,0.0,0.0,0.0,9e-08
2771710000000,1980,2771710000000,base_link,0.00992522185961,-0.0109566041396,0.0203318926027,-0.999683965816,1.0,0.0,0.0,0.0,1.0,0.0,0.0,0.0,1.0,-0.0124423792586,-0.00429736776277,0.00413680216298,1.21846967915e-07,0.0,0.0,0.0,1.21846967915e-07,0.0,0.0,0.0,1.21846967915e-07,-0.164540827274,-0.165947109461,9.85765647888,9e-08,0.0,0.0,0.0,9e-08,0.0,0.0,0.0,9e-08
2771730000000,1981,2771730000000,base_link,0.0100209255811,-0.0109331150918,0.020331555428,-0.999683291466,1.0,0.0,0.0,0.0,1.0,0.0,0.0,0.0,1.0,-0.00902445986867,-0.00901499018073,0.00100289843976,1.21846967915e-07,0.0,0.0,0.0,1.21846967915e-07,0.0,0.0,0.0,1.21846967915e-07,-0.192687809467,-0.20766313374,9.88383388519,9e-08,0.0,0.0,0.0,9e-08,0.0,0.0,0.0,9e-08
2771750000000,1982,2771750000000,base_link,0.0101198453047,-0.0109337686149,0.0203323562181,-0.999682322089,1.0,0.0,0.0,0.0,1.0,0.0,0.0,0.0,1.0,-0.0103157451376,-0.00538193248212,0.0018465151079,1.21846967915e-07,0.0,0.0,0.0,1.21846967915e-07,0.0,0.0,0.0,1.21846967915e-07,-0.131811261177,-0.151423841715,9.94701385498,9e-08,0.0,0.0,0.0,9e-08,0.0,0.0,0.0,9e-08
2771770000000,1983,2771770000000,base_link,0.0102111110536,-0.0109808261886,0.0203061830252,-0.999681352711,1.0,0.0,0.0,0.0,1.0,0.0,0.0,0.0,1.0,-0.00795930251479,-0.00142795557622,0.00300195626915,1.21846967915e-07,0.0,0.0,0.0,1.21846967915e-07,0.0,0.0,0.0,1.21846967915e-07,-0.241818532348,-0.173218935728,9.87318992615,9e-08,0.0,0.0,0.0,9e-08,0.0,0.0,0.0,9e-08
2771790000000,1984,2771790000000,base_link,0.0104033902037,-0.0110453135422,0.0203393947418,-0.999677980963,1.0,0.0,0.0,0.0,1.0,0.0,0.0,0.0,1.0,-0.0192029587924,0.000511952675879,-0.0036997445859,1.21846967915e-07,0.0,0.0,0.0,1.21846967915e-07,0.0,0.0,0.0,1.21846967915e-07,-0.129416912794,-0.202515006065,9.74986457825,9e-08,0.0,0.0,0.0,9e-08,0.0,0.0,0.0,9e-08
2771810000000,1985,2771810000000,base_link,0.0106887717627,-0.0110734031202,0.0203621961868,-0.999674229894,1.0,0.0,0.0,0.0,1.0,0.0,0.0,0.0,1.0,-0.0226395726204,-0.00371423154138,-0.00194642599672,1.21846967915e-07,0.0,0.0,0.0,1.21846967915e-07,0.0,0.0,0.0,1.21846967915e-07,-0.0743728205562,-0.207869470119,9.8990020752,9e-08,0.0,0.0,0.0,9e-08,0.0,0.0,0.0,9e-08
2771830000000,1986,2771830000000,base_link,0.0108253130228,-0.0111118792828,0.020371342053,-0.999672164698,1.0,0.0,0.0,0.0,1.0,0.0,0.0,0.0,1.0,-0.0158297959715,-0.00150014716201,-0.000152195250848,1.21846967915e-07,0.0,0.0,0.0,1.21846967915e-07,0.0,0.0,0.0,1.21846967915e-07,-0.155744940042,-0.16071087122,9.76286697388,9e-08,0.0,0.0,0.0,9e-08,0.0,0.0,0.0,9e-08
2771850000000,1987,2771846000000,base_link,0.0109086242022,-0.0111986174662,0.0203692768574,-0.999670352384,1.0,0.0,0.0,0.0,1.0,0.0,0.0,0.0,1.0,-0.00531643768772,0.00561476731673,0.00163344887551,1.21846967915e-07,0.0,0.0,0.0,1.21846967915e-07,0.0,0.0,0.0,1.21846967915e-07,-0.216207876801,-0.12500487268,9.84298324585,9e-08,0.0,0.0,0.0,9e-08,0.0,0.0,0.0,9e-08
2771870000000,1988,2771870000000,base_link,0.0109524332685,-0.01130182451,0.0203423028743,-0.999669256565,1.0,0.0,0.0,0.0,1.0,0.0,0.0,0.0,1.0,-0.00287752831355,0.00602386705577,0.00342767545953,1.21846967915e-07,0.0,0.0,0.0,1.21846967915e-07,0.0,0.0,0.0,1.21846967915e-07,-0.231580108404,-0.188330665231,9.64717292786,9e-08,0.0,0.0,0.0,9e-08,0.0,0.0,0.0,9e-08
2771890000000,1989,2771890000000,base_link,0.0109599072548,-0.0113737077711,0.0203251912538,-0.99966866651,1.0,0.0,0.0,0.0,1.0,0.0,0.0,0.0,1.0,0.000741039053537,0.000343473860994,0.0036155115813,1.21846967915e-07,0.0,0.0,0.0,1.21846967915e-07,0.0,0.0,0.0,1.21846967915e-07,-0.150343611836,-0.166001573205,9.78334999084,9e-08,0.0,0.0,0.0,9e-08,0.0,0.0,0.0,9e-08
2771910000000,1990,2771910000000,base_link,0.0110105086623,-0.0114814441709,0.0202517714437,-0.999668413628,1.0,0.0,0.0,0.0,1.0,0.0,0.0,0.0,1.0,-0.00503782462329,0.00621005706489,0.0075018806383,1.21846967915e-07,0.0,0.0,0.0,1.21846967915e-07,0.0,0.0,0.0,1.21846967915e-07,-0.168097242713,-0.123720757663,9.73016643524,9e-08,0.0,0.0,0.0,9e-08,0.0,0.0,0.0,9e-08
2771930000000,1991,2771930000000,base_link,0.0111325722124,-0.0115836255626,0.0202444378921,-0.999665969111,1.0,0.0,0.0,0.0,1.0,0.0,0.0,0.0,1.0,-0.0118078580126,0.00458522327244,0.000677124829963,1.21846967915e-07,0.0,0.0,0.0,1.21846967915e-07,0.0,0.0,0.0,1.21846967915e-07,-0.23930157721,-0.166118934751,9.7652015686,9e-08,0.0,0.0,0.0,9e-08,0.0,0.0,0.0,9e-08
2771950000000,1992,2771950000000,base_link,0.0112525909817,-0.0117285102728,0.0202218050344,-0.999663398154,1.0,0.0,0.0,0.0,1.0,0.0,0.0,0.0,1.0,-0.00998017471284,0.00875166989863,0.003426841693,1.21846967915e-07,0.0,0.0,0.0,1.21846967915e-07,0.0,0.0,0.0,1.21846967915e-07,-0.242376491427,-0.16745480895,9.85149002075,9e-08,0.0,0.0,0.0,9e-08,0.0,0.0,0.0,9e-08
2771970000000,1993,2771970000000,base_link,0.0112186856119,-0.011875967155,0.0202789140142,-0.999660911489,1.0,0.0,0.0,0.0,1.0,0.0,0.0,0.0,1.0,0.00584201654419,0.00985727086663,-0.0040150959976,1.21846967915e-07,0.0,0.0,0.0,1.21846967915e-07,0.0,0.0,0.0,1.21846967915e-07,-0.200920894742,-0.123298883438,9.79379081726,9e-08,0.0,0.0,0.0,9e-08,0.0,0.0,0.0,9e-08
2771990000000,1994,2771990000000,base_link,0.0111019328118,-0.0120110116874,0.0202785346925,-0.999660616462,1.0,0.0,0.0,0.0,1.0,0.0,0.0,0.0,1.0,0.0130789354444,0.00530566228554,0.00186326727271,1.21846967915e-07,0.0,0.0,0.0,1.21846967915e-07,0.0,0.0,0.0,1.21846967915e-07,-0.23446072638,-0.131903022528,9.80884075165,9e-08,0.0,0.0,0.0,9e-08,0.0,0.0,0.0,9e-08
2772010000000,1995,2772010000000,base_link,0.0110511948797,-0.0121724272437,0.0203342528263,-0.999658087651,1.0,0.0,0.0,0.0,1.0,0.0,0.0,0.0,1.0,-0.000113987465738,0.00874618627131,-0.00272979866713,1.21846967915e-07,0.0,0.0,0.0,1.21846967915e-07,0.0,0.0,0.0,1.21846967915e-07,-0.124761715531,-0.16037863493,9.72321987152,9e-08,0.0,0.0,0.0,9e-08,0.0,0.0,0.0,9e-08
2772030000000,1996,2772030000000,base_link,0.0111556591776,-0.0122279365777,0.0203388046859,-0.999656148896,1.0,0.0,0.0,0.0,1.0,0.0,0.0,0.0,1.0,-0.0130836497992,0.00130643625744,0.000463653472252,1.21846967915e-07,0.0,0.0,0.0,1.21846967915e-07,0.0,0.0,0.0,1.21846967915e-07,-0.225934073329,-0.187867373228,9.75230693817,9e-08,0.0,0.0,0.0,9e-08,0.0,0.0,0.0,9e-08
2772050000000,1997,2772050000000,base_link,0.0112076533656,-0.0123166312041,0.020329869554,-0.999654631609,1.0,0.0,0.0,0.0,1.0,0.0,0.0,0.0,1.0,-0.00236105313525,0.00479426234961,0.00380318146199,1.21846967915e-07,0.0,0.0,0.0,1.21846967915e-07,0.0,0.0,0.0,1.21846967915e-07,-0.204502210021,-0.195922911167,9.79699134827,9e-08,0.0,0.0,0.0,9e-08,0.0,0.0,0.0,9e-08
2772070000000,1998,2772070000000,base_link,0.0111583999575,-0.0123860755868,0.020324601198,-0.999654420875,1.0,0.0,0.0,0.0,1.0,0.0,0.0,0.0,1.0,0.00813782960176,0.000630358757917,0.00328350043856,1.21846967915e-07,0.0,0.0,0.0,1.21846967915e-07,0.0,0.0,0.0,1.21846967915e-07,-0.104034386575,-0.173666030169,9.70073795319,9e-08,0.0,0.0,0.0,9e-08,0.0,0.0,0.0,9e-08
2772090000000,1999,2772090000000,base_link,0.0110864162684,-0.0124345492371,0.0203645142635,-0.999653872966,1.0,0.0,0.0,0.0,1.0,0.0,0.0,0.0,1.0,0.00672805588692,-0.00177990575321,-0.00400401931256,1.21846967915e-07,0.0,0.0,0.0,1.21846967915e-07,0.0,0.0,0.0,1.21846967915e-07,-0.171926647425,-0.144128754735,9.70223617554,9e-08,0.0,0.0,0.0,9e-08,0.0,0.0,0.0,9e-08
2772110000000,2000,2772110000000,base_link,0.0110812030654,-0.0124120561555,0.0203598359633,-0.999654252287,1.0,0.0,0.0,0.0,1.0,0.0,0.0,0.0,1.0,0.000374937575543,-0.00943864509463,0.00102213921491,1.21846967915e-07,0.0,0.0,0.0,1.21846967915e-07,0.0,0.0,0.0,1.21846967915e-07,-0.17321716249,-0.135247066617,9.71382713318,9e-08,0.0,0.0,0.0,9e-08,0.0,0.0,0.0,9e-08
2772130000000,2001,2772130000000,base_link,0.0110375966353,-0.012461157481,0.0268529794449,-0.999500837759,1.0,0.0,0.0,0.0,1.0,0.0,0.0,0.0,1.0,-0.00239737518132,-0.00760238943622,-0.0014875291381,1.21846967915e-07,0.0,0.0,0.0,1.21846967915e-07,0.0,0.0,0.0,1.21846967915e-07,-0.16682703793,-0.201762914658,9.75772762299,9e-08,0.0,0.0,0.0,9e-08,0.0,0.0,0.0,9e-08
2772150000000,2002,2772150000000,base_link,0.0109943877192,-0.0124100654578,0.0267812455087,-0.999503872332,1.0,0.0,0.0,0.0,1.0,0.0,0.0,0.0,1.0,0.00828807149082,-0.0113043487072,0.00361877377145,1.21846967915e-07,0.0,0.0,0.0,1.21846967915e-07,0.0,0.0,0.0,1.21846967915e-07,-0.253917753696,-0.14566577971,9.77464199066,9e-08,0.0,0.0,0.0,9e-08,0.0,0.0,0.0,9e-08
2772174000000,2003,2772170000000,base_link,0.0108944766391,-0.0123437888799,0.0266659738781,-0.999508803513,1.0,0.0,0.0,0.0,1.0,0.0,0.0,0.0,1.0,0.0118928160518,-0.0110411439091,0.00817883387208,1.21846967915e-07,0.0,0.0,0.0,1.21846967915e-07,0.0,0.0,0.0,1.21846967915e-07,-0.171203806996,-0.194932565093,9.78145694733,9e-08,0.0,0.0,0.0,9e-08,0.0,0.0,0.0,9e-08
2772190000000,2004,2772190000000,base_link,0.0107588991178,-0.0123206729799,0.0265327476899,-0.999514156163,1.0,0.0,0.0,0.0,1.0,0.0,0.0,0.0,1.0,0.0141479158774,-0.00832608249038,0.00677487999201,1.21846967915e-07,0.0,0.0,0.0,1.21846967915e-07,0.0,0.0,0.0,1.21846967915e-07,-0.174506738782,-0.227022141218,9.80625343323,9e-08,0.0,0.0,0.0,9e-08,0.0,0.0,0.0,9e-08
2772210000000,2005,2772210000000,base_link,0.0107809819262,-0.0123606145275,0.026369681533,-0.999517738645,1.0,0.0,0.0,0.0,1.0,0.0,0.0,0.0,1.0,-0.00253743026406,-0.00219859951176,0.00798292085528,1.21846967915e-07,0.0,0.0,0.0,1.21846967915e-07,0.0,0.0,0.0,1.21846967915e-07,-0.175540998578,-0.265165328979,9.91492176056,9e-08,0.0,0.0,0.0,9e-08,0.0,0.0,0.0,9e-08
2772230000000,2006,2772230000000,base_link,0.0108682960376,-0.0123004851334,0.0262056459986,-0.999521869036,1.0,0.0,0.0,0.0,1.0,0.0,0.0,0.0,1.0,-0.00939725432545,-0.0131361540407,0.0136961173266,1.21846967915e-07,0.0,0.0,0.0,1.21846967915e-07,0.0,0.0,0.0,1.21846967915e-07,-0.173360750079,-0.150247260928,9.73869609833,9e-08,0.0,0.0,0.0,9e-08,0.0,0.0,0.0,9e-08
2772250000000,2007,2772250000000,base_link,0.0109076702079,-0.0122552946979,0.0259674320108,-0.999528191063,1.0,0.0,0.0,0.0,1.0,0.0,0.0,0.0,1.0,0.00166369858198,-0.00813416671008,0.0155337471515,1.21846967915e-07,0.0,0.0,0.0,1.21846967915e-07,0.0,0.0,0.0,1.21846967915e-07,-0.195052683353,-0.15172688663,9.83914852142,9e-08,0.0,0.0,0.0,9e-08,0.0,0.0,0.0,9e-08
2772270000000,2008,2772270000000,base_link,0.0107898248207,-0.0121471276101,0.0257184705767,-0.999537168342,1.0,0.0,0.0,0.0,1.0,0.0,0.0,0.0,1.0,0.0153970886022,-0.0185277052224,0.0167174637318,1.21846967915e-07,0.0,0.0,0.0,1.21846967915e-07,0.0,0.0,0.0,1.21846967915e-07,-0.195904999971,-0.188945680857,9.81105709076,9e-08,0.0,0.0,0.0,9e-08,0.0,0.0,0.0,9e-08
2772290000000,2009,2772290000000,base_link,0.0107230009923,-0.012061132234,0.0254329678249,-0.999546272062,1.0,0.0,0.0,0.0,1.0,0.0,0.0,0.0,1.0,0.00498461443931,-0.0110707115382,0.0189889762551,1.21846967915e-07,0.0,0.0,0.0,1.21846967915e-07,0.0,0.0,0.0,1.21846967915e-07,-0.169496536255,-0.170040890574,9.79684352875,9e-08,0.0,0.0,0.0,9e-08,0.0,0.0,0.0,9e-08
2772310000000,2010,2772310000000,base_link,0.0107877062418,-0.0120127167415,0.0251383192069,-0.99955364776,1.0,0.0,0.0,0.0,1.0,0.0,0.0,0.0,1.0,-0.00831769406796,-0.0106433816254,0.0221460927278,1.21846967915e-07,0.0,0.0,0.0,1.21846967915e-07,0.0,0.0,0.0,1.21846967915e-07,-0.246728673577,-0.190365448594,9.73469257355,9e-08,0.0,0.0,0.0,9e-08,0.0,0.0,0.0,9e-08
2772330000000,2011,2772330000000,base_link,0.0108526984109,-0.0119420057719,0.0248670199431,-0.999560517696,1.0,0.0,0.0,0.0,1.0,0.0,0.0,0.0,1.0,-0.00446151010692,-0.0123015772551,0.0172089543194,1.21846967915e-07,0.0,0.0,0.0,1.21846967915e-07,0.0,0.0,0.0,1.21846967915e-07,-0.378836154938,-0.225538134575,9.72337245941,9e-08,0.0,0.0,0.0,9e-08,0.0,0.0,0.0,9e-08
2772350000000,2012,2772350000000,base_link,0.0107545174508,-0.0119007359812,0.0245416041257,-0.999570169325,1.0,0.0,0.0,0.0,1.0,0.0,0.0,0.0,1.0,0.0134391514584,-0.00870875827968,0.0233285352588,1.21846967915e-07,0.0,0.0,0.0,1.21846967915e-07,0.0,0.0,0.0,1.21846967915e-07,-0.274940401316,-0.113733626902,9.74112319946,9e-08,0.0,0.0,0.0,9e-08,0.0,0.0,0.0,9e-08
2772370000000,2013,2772366000000,base_link,0.0106042063955,-0.0119417023064,0.0242239011816,-0.999579020163,1.0,0.0,0.0,0.0,1.0,0.0,0.0,0.0,1.0,0.0154226906598,0.0012982878834,0.0233008228242,1.21846967915e-07,0.0,0.0,0.0,1.21846967915e-07,0.0,0.0,0.0,1.21846967915e-07,-0.227118879557,-0.171302527189,9.79844284058,9e-08,0.0,0.0,0.0,9e-08,0.0,0.0,0.0,9e-08
2772390000000,2014,2772390000000,base_link,0.0105290145656,-0.0120087835021,0.0239127309991,-0.999586480155,1.0,0.0,0.0,0.0,1.0,0.0,0.0,0.0,1.0,0.0072357878089,0.000707991654053,0.0192659720778,1.21846967915e-07,0.0,0.0,0.0,1.21846967915e-07,0.0,0.0,0.0,1.21846967915e-07,-0.196948736906,-0.198954388499,9.70885753632,9e-08,0.0,0.0,0.0,9e-08,0.0,0.0,0.0,9e-08
2772410000000,2015,2772410000000,base_link,0.0105474993337,-0.0120298324779,0.0235884109998,-0.99959377156,1.0,0.0,0.0,0.0,1.0,0.0,0.0,0.0,1.0,-0.00132249831222,-0.00380596937612,0.021394090727,1.21846967915e-07,0.0,0.0,0.0,1.21846967915e-07,0.0,0.0,0.0,1.21846967915e-07,-0.235128164291,-0.1459736377,9.77397441864,9e-08,0.0,0.0,0.0,9e-08,0.0,0.0,0.0,9e-08
2772430000000,2016,2772430000000,base_link,0.0106384773398,-0.0120904171732,0.0232999158217,-0.999598787035,1.0,0.0,0.0,0.0,1.0,0.0,0.0,0.0,1.0,-0.00902805384248,0.00141750299372,0.0201737731695,1.21846967915e-07,0.0,0.0,0.0,1.21846967915e-07,0.0,0.0,0.0,1.21846967915e-07,-0.29355931282,-0.156018003821,9.70694065094,9e-08,0.0,0.0,0.0,9e-08,0.0,0.0,0.0,9e-08
2772450000000,2017,2772450000000,base_link,0.01061186498,-0.0121487055239,0.0229811592064,-0.999605741265,1.0,0.0,0.0,0.0,1.0,0.0,0.0,0.0,1.0,0.0065070297569,0.000912976684049,0.0195737332106,1.21846967915e-07,0.0,0.0,0.0,1.21846967915e-07,0.0,0.0,0.0,1.21846967915e-07,-0.176214694977,-0.205775976181,9.6956243515,9e-08,0.0,0.0,0.0,9e-08,0.0,0.0,0.0,9e-08
2772470000000,2018,2772470000000,base_link,0.010500490945,-0.0121977575408,0.0227259178919,-0.999612231879,1.0,0.0,0.0,0.0,1.0,0.0,0.0,0.0,1.0,0.0141762653366,0.000359810714144,0.0145533774048,1.21846967915e-07,0.0,0.0,0.0,1.21846967915e-07,0.0,0.0,0.0,1.21846967915e-07,-0.17590534687,-0.220906704664,9.76574039459,9e-08,0.0,0.0,0.0,9e-08,0.0,0.0,0.0,9e-08
2772490000000,2019,2772490000000,base_link,0.0104530526091,-0.012253485635,0.0224402886995,-0.99961851176,1.0,0.0,0.0,0.0,1.0,0.0,0.0,0.0,1.0,0.00542431883514,0.000172940635821,0.0189977958798,1.21846967915e-07,0.0,0.0,0.0,1.21846967915e-07,0.0,0.0,0.0,1.21846967915e-07,-0.20547029376,-0.241474956274,9.67964935303,9e-08,0.0,0.0,0.0,9e-08,0.0,0.0,0.0,9e-08
2772510000000,2020,2772510000000,base_link,0.010499953655,-0.0123083376181,0.0222299337786,-0.999622009948,1.0,0.0,0.0,0.0,1.0,0.0,0.0,0.0,1.0,-0.00560694653541,0.000586351961829,0.00940853636712,1.21846967915e-07,0.0,0.0,0.0,1.21846967915e-07,0.0,0.0,0.0,1.21846967915e-07,-0.174314945936,-0.231996446848,9.73513221741,9e-08,0.0,0.0,0.0,9e-08,0.0,0.0,0.0,9e-08
2772530000000,2021,2772530000000,base_link,0.0105787251271,-0.01236355888,0.0219905818259,-0.999625761018,1.0,0.0,0.0,0.0,1.0,0.0,0.0,0.0,1.0,-0.00758287403733,0.0003439047141,0.0141542339697,1.21846967915e-07,0.0,0.0,0.0,1.21846967915e-07,0.0,0.0,0.0,1.21846967915e-07,-0.245351612568,-0.203687950969,9.82449245453,9e-08,0.0,0.0,0.0,9e-08,0.0,0.0,0.0,9e-08
2772550000000,2022,2772550000000,base_link,0.0105581243731,-0.0123983315117,0.021766023417,-0.999630481465,1.0,0.0,0.0,0.0,1.0,0.0,0.0,0.0,1.0,0.00476256385446,-0.00377270206809,0.0139769185334,1.21846967915e-07,0.0,0.0,0.0,1.21846967915e-07,0.0,0.0,0.0,1.21846967915e-07,-0.173164337873,-0.191315278411,9.79363250732,9e-08,0.0,0.0,0.0,9e-08,0.0,0.0,0.0,9e-08
2772570000000,2023,2772566000000,base_link,0.0105211788738,-0.0124277696037,0.0215355223025,-0.99963549694,1.0,0.0,0.0,0.0,1.0,0.0,0.0,0.0,1.0,0.00278566172346,-0.00469605624676,0.0135793527588,1.21846967915e-07,0.0,0.0,0.0,1.21846967915e-07,0.0,0.0,0.0,1.21846967915e-07,-0.282618314028,-0.192664384842,9.81973266602,9e-08,0.0,0.0,0.0,9e-08,0.0,0.0,0.0,9e-08
2772590000000,2024,2772590000000,base_link,0.0105785731679,-0.0124639597525,0.0213162743966,-0.999639121569,1.0,0.0,0.0,0.0,1.0,0.0,0.0,0.0,1.0,-0.00496371043846,-0.00221061753109,0.0170541461557,1.21846967915e-07,0.0,0.0,0.0,1.21846967915e-07,0.0,0.0,0.0,1.21846967915e-07,-0.241009011865,-0.155641034245,9.77789020538,9e-08,0.0,0.0,0.0,9e-08,0.0,0.0,0.0,9e-08
2772610000000,2025,2772610000000,base_link,0.0106955832738,-0.0124658722481,0.0211308282631,-0.999641818967,1.0,0.0,0.0,0.0,1.0,0.0,0.0,0.0,1.0,-0.0110291345045,-0.00586120598018,0.0111184203997,1.21846967915e-07,0.0,0.0,0.0,1.21846967915e-07,0.0,0.0,0.0,1.21846967915e-07,-0.203825294971,-0.27466288209,9.78108119965,9e-08,0.0,0.0,0.0,9e-08,0.0,0.0,0.0,9e-08
2772630000000,2026,2772630000000,base_link,0.0107106509368,-0.0124811266084,0.0209239293838,-0.999645822918,1.0,0.0,0.0,0.0,1.0,0.0,0.0,0.0,1.0,0.00168469292112,-0.00212328624912,0.0137675479054,1.21846967915e-07,0.0,0.0,0.0,1.21846967915e-07,0.0,0.0,0.0,1.21846967915e-07,-0.157639428973,-0.139797925949,9.84297084808,9e-08,0.0,0.0,0.0,9e-08,0.0,0.0,0.0,9e-08
2772650000000,2027,2772650000000,base_link,0.0105127959315,-0.0125411219064,0.02075386685,-0.999650669805,1.0,0.0,0.0,0.0,1.0,0.0,0.0,0.0,1.0,0.0240914709866,0.000626472581644,0.0109877996147,1.21846967915e-07,0.0,0.0,0.0,1.21846967915e-07,0.0,0.0,0.0,1.21846967915e-07,-0.244433164597,-0.217004656792,9.74831008911,9e-08,0.0,0.0,0.0,9e-08,0.0,0.0,0.0,9e-08
2772670000000,2028,2772670000000,base_link,0.0104211313927,-0.0125744710119,0.02063952245,-0.999653577938,1.0,0.0,0.0,0.0,1.0,0.0,0.0,0.0,1.0,0.00663629407063,-0.00302070379257,0.00643872236833,1.21846967915e-07,0.0,0.0,0.0,1.21846967915e-07,0.0,0.0,0.0,1.21846967915e-07,-0.244696751237,-0.190268263221,9.76498126984,9e-08,0.0,0.0,0.0,9e-08,0.0,0.0,0.0,9e-08
2772690000000,2029,2772690000000,base_link,0.0104969165301,-0.0126405337274,0.0205631102137,-0.999653535791,1.0,0.0,0.0,0.0,1.0,0.0,0.0,0.0,1.0,-0.0098844114691,-0.00149411102757,0.00253874738701,1.21846967915e-07,0.0,0.0,0.0,1.21846967915e-07,0.0,0.0,0.0,1.21846967915e-07,-0.248526185751,-0.18929746747,9.71445560455,9e-08,0.0,0.0,0.0,9e-08,0.0,0.0,0.0,9e-08
2772710000000,2030,2772710000000,base_link,0.0105394366087,-0.0126911028662,0.0204690805946,-0.999654420875,1.0,0.0,0.0,0.0,1.0,0.0,0.0,0.0,1.0,-0.00022774131503,0.000126663275296,0.00430218270048,1.21846967915e-07,0.0,0.0,0.0,1.21846967915e-07,0.0,0.0,0.0,1.21846967915e-07,-0.204693168402,-0.288332015276,9.73874855042,9e-08,0.0,0.0,0.0,9e-08,0.0,0.0,0.0,9e-08
2772730000000,2031,2772730000000,base_link,0.0104599239448,-0.0127168256147,0.020364935732,-0.999657076126,1.0,0.0,0.0,0.0,1.0,0.0,0.0,0.0,1.0,0.0112218344584,-0.00296621234156,0.00718128774315,1.21846967915e-07,0.0,0.0,0.0,1.21846967915e-07,0.0,0.0,0.0,1.21846967915e-07,-0.231255456805,-0.220172002912,9.70233440399,9e-08,0.0,0.0,0.0,9e-08,0.0,0.0,0.0,9e-08
2772750000000,2032,2772750000000,base_link,0.0104010691636,-0.0126908941076,0.0203108191785,-0.999659099175,1.0,0.0,0.0,0.0,1.0,0.0,0.0,0.0,1.0,0.00600857613608,-0.00942945666611,0.000873883021995,1.21846967915e-07,0.0,0.0,0.0,1.21846967915e-07,0.0,0.0,0.0,1.21846967915e-07,-0.199998751283,-0.168403640389,9.79855632782,9e-08,0.0,0.0,0.0,9e-08,0.0,0.0,0.0,9e-08
2772770000000,2033,2772766000000,base_link,0.0104929804919,-0.0126531546506,0.0201928080027,-0.99966103793,1.0,0.0,0.0,0.0,1.0,0.0,0.0,0.0,1.0,-0.00766460411251,-0.00732423365116,0.00496033998206,1.21846967915e-07,0.0,0.0,0.0,1.21846967915e-07,0.0,0.0,0.0,1.21846967915e-07,-0.231324881315,-0.209620639682,9.69600486755,9e-08,0.0,0.0,0.0,9e-08,0.0,0.0,0.0,9e-08
2772790000000,2034,2772790000000,base_link,0.0106243198677,-0.0126912377032,0.0201241086396,-0.999660532168,1.0,0.0,0.0,0.0,1.0,0.0,0.0,0.0,1.0,-0.0136922821403,0.000822478614282,0.00410455837846,1.21846967915e-07,0.0,0.0,0.0,1.21846967915e-07,0.0,0.0,0.0,1.21846967915e-07,-0.270709276199,-0.286171376705,9.74161815643,9e-08,0.0,0.0,0.0,9e-08,0.0,0.0,0.0,9e-08
2772810000000,2035,2772810000000,base_link,0.0106837986198,-0.0127481026922,0.0200562100666,-0.999660490021,1.0,0.0,0.0,0.0,1.0,0.0,0.0,0.0,1.0,-0.00295662111603,4.17525297962e-05,0.000973136513494,1.21846967915e-07,0.0,0.0,0.0,1.21846967915e-07,0.0,0.0,0.0,1.21846967915e-07,-0.226352185011,-0.12494134903,9.73894309998,9e-08,0.0,0.0,0.0,9e-08,0.0,0.0,0.0,9e-08
2772830000000,2036,2772830000000,base_link,0.0106817393511,-0.0127885208614,0.0199662265451,-0.999661796573,1.0,0.0,0.0,0.0,1.0,0.0,0.0,0.0,1.0,0.00185624638107,-0.00639884453267,0.0079262368381,1.21846967915e-07,0.0,0.0,0.0,1.21846967915e-07,0.0,0.0,0.0,1.21846967915e-07,-0.158767074347,-0.170921415091,9.86100101471,9e-08,0.0,0.0,0.0,9e-08,0.0,0.0,0.0,9e-08
2772850000000,2037,2772850000000,base_link,0.0107047577043,-0.0128152832047,0.0198949983711,-0.99966263951,1.0,0.0,0.0,0.0,1.0,0.0,0.0,0.0,1.0,-0.00138042238541,-0.000598055019509,0.00237400457263,1.21846967915e-07,0.0,0.0,0.0,1.21846967915e-07,0.0,0.0,0.0,1.21846967915e-07,-0.126217573881,-0.149734824896,9.79218578339,9e-08,0.0,0.0,0.0,9e-08,0.0,0.0,0.0,9e-08
2772870000000,2038,2772870000000,base_link,0.0107837181786,-0.0128288008185,0.0198410082581,-0.999662681657,1.0,0.0,0.0,0.0,1.0,0.0,0.0,0.0,1.0,-0.00715851411223,-0.00708892848343,0.00484303059056,1.21846967915e-07,0.0,0.0,0.0,1.21846967915e-07,0.0,0.0,0.0,1.21846967915e-07,-0.19883954525,-0.18164280057,9.7522983551,9e-08,0.0,0.0,0.0,9e-08,0.0,0.0,0.0,9e-08
2772890000000,2039,2772890000000,base_link,0.0108107000642,-0.0128173711201,0.0198323681542,-0.999662723804,1.0,0.0,0.0,0.0,1.0,0.0,0.0,0.0,1.0,0.000245035858825,-0.00593291316181,-0.00226420420222,1.21846967915e-07,0.0,0.0,0.0,1.21846967915e-07,0.0,0.0,0.0,1.21846967915e-07,-0.244487389922,-0.167794838548,9.68886470795,9e-08,0.0,0.0,0.0,9e-08,0.0,0.0,0.0,9e-08
2772910000000,2040,2772910000000,base_link,0.0107644640659,-0.0127982215513,0.0198166052329,-0.999663819622,1.0,0.0,0.0,0.0,1.0,0.0,0.0,0.0,1.0,0.0114850392565,-0.00924103427678,0.00164839229546,1.21846967915e-07,0.0,0.0,0.0,1.21846967915e-07,0.0,0.0,0.0,1.21846967915e-07,-0.248476669192,-0.210928082466,9.6927652359,9e-08,0.0,0.0,0.0,9e-08,0.0,0.0,0.0,9e-08
2772930000000,2041,2772930000000,base_link,0.010609742985,-0.0127643881686,0.0198002944025,-0.999666221992,1.0,0.0,0.0,0.0,1.0,0.0,0.0,0.0,1.0,0.0184551272541,-0.00861205160618,-0.000996211078018,1.21846967915e-07,0.0,0.0,0.0,1.21846967915e-07,0.0,0.0,0.0,1.21846967915e-07,-0.219351634383,-0.205167517066,9.61831378937,9e-08,0.0,0.0,0.0,9e-08,0.0,0.0,0.0,9e-08
2772950000000,2042,2772950000000,base_link,0.0104130905643,-0.0127663142467,0.0197411202272,-0.999669425153,1.0,0.0,0.0,0.0,1.0,0.0,0.0,0.0,1.0,0.0220431927592,-0.00318896397948,0.00559496274218,1.21846967915e-07,0.0,0.0,0.0,1.21846967915e-07,0.0,0.0,0.0,1.21846967915e-07,-0.195344373584,-0.204593479633,9.67421531677,9e-08,0.0,0.0,0.0,9e-08,0.0,0.0,0.0,9e-08
2772970000000,2043,2772970000000,base_link,0.0103800792921,-0.0128423943296,0.0197075713358,-0.999669425153,1.0,0.0,0.0,0.0,1.0,0.0,0.0,0.0,1.0,-0.00194495893084,0.00181711197365,0.00249718781561,1.21846967915e-07,0.0,0.0,0.0,1.21846967915e-07,0.0,0.0,0.0,1.21846967915e-07,-0.237986475229,-0.162933796644,9.74095344543,9e-08,0.0,0.0,0.0,9e-08,0.0,0.0,0.0,9e-08
2772990000000,2044,2772990000000,base_link,0.0104599875766,-0.0128382239319,0.0196653823404,-0.9996694673,1.0,0.0,0.0,0.0,1.0,0.0,0.0,0.0,1.0,-0.00988700427115,-0.00601230282336,0.00414624158293,1.21846967915e-07,0.0,0.0,0.0,1.21846967915e-07,0.0,0.0,0.0,1.21846967915e-07,-0.147826164961,-0.310510486364,9.78064918518,9e-08,0.0,0.0,0.0,9e-08,0.0,0.0,0.0,9e-08
2773010000000,2045,2773010000000,base_link,0.010453437446,-0.0127820147709,0.0196321284769,-0.999670942439,1.0,0.0,0.0,0.0,1.0,0.0,0.0,0.0,1.0,0.00796932168305,-0.0135388998315,0.00440897140652,1.21846967915e-07,0.0,0.0,0.0,1.21846967915e-07,0.0,0.0,0.0,1.21846967915e-07,-0.194987073541,-0.175110295415,9.82714939117,9e-08,0.0,0.0,0.0,9e-08,0.0,0.0,0.0,9e-08
2773030000000,2046,2773030000000,base_link,0.0103101499326,-0.0127273069268,0.019615143297,-0.999673429103,1.0,0.0,0.0,0.0,1.0,0.0,0.0,0.0,1.0,0.0185358673334,-0.0099125597626,0.00206029554829,1.21846967915e-07,0.0,0.0,0.0,1.21846967915e-07,0.0,0.0,0.0,1.21846967915e-07,-0.253713130951,-0.21586805582,9.73540687561,9e-08,0.0,0.0,0.0,9e-08,0.0,0.0,0.0,9e-08
2773050000000,2047,2773050000000,base_link,0.0102128219934,-0.0126755983413,0.0195797820911,-0.999675831474,1.0,0.0,0.0,0.0,1.0,0.0,0.0,0.0,1.0,0.00977923441678,-0.0119346613064,0.00543554173782,1.21846967915e-07,0.0,0.0,0.0,1.21846967915e-07,0.0,0.0,0.0,1.21846967915e-07,-0.174306362867,-0.200047641993,9.77659130096,9e-08,0.0,0.0,0.0,9e-08,0.0,0.0,0.0,9e-08
2773070000000,2048,2773070000000,base_link,0.0103243195878,-0.0126216180242,0.0195832381326,-0.999675325712,1.0,0.0,0.0,0.0,1.0,0.0,0.0,0.0,1.0,-0.0118402400985,-0.00980463251472,-0.000636709388345,1.21846967915e-07,0.0,0.0,0.0,1.21846967915e-07,0.0,0.0,0.0,1.21846967915e-07,-0.222460910678,-0.224654003978,9.72214221954,9e-08,0.0,0.0,0.0,9e-08,0.0,0.0,0.0,9e-08
2773090000000,2049,2773090000000,base_link,0.0104746736131,-0.0125581075803,0.0196138367447,-0.999673892719,1.0,0.0,0.0,0.0,1.0,0.0,0.0,0.0,1.0,-0.0131912566721,-0.0129705835134,-0.00278837280348,1.21846967915e-07,0.0,0.0,0.0,1.21846967915e-07,0.0,0.0,0.0,1.21846967915e-07,-0.223129585385,-0.244966894388,9.70220088959,9e-08,0.0,0.0,0.0,9e-08,0.0,0.0,0.0,9e-08
2773110000000,2050,2773110000000,base_link,0.010470025359,-0.0124541144298,0.0196246684847,-0.999675030684,1.0,0.0,0.0,0.0,1.0,0.0,0.0,0.0,1.0,0.00402612797916,-0.0166615098715,0.000726637721527,1.21846967915e-07,0.0,0.0,0.0,1.21846967915e-07,0.0,0.0,0.0,1.21846967915e-07,-0.232953250408,-0.192874625325,9.73436069489,9e-08,0.0,0.0,0.0,9e-08,0.0,0.0,0.0,9e-08
2773130000000,2051,2773130000000,base_link,0.0103586163388,-0.0123009571451,0.0196531176075,-0.999677517348,1.0,0.0,0.0,0.0,1.0,0.0,0.0,0.0,1.0,0.013903029263,-0.0220668725669,-0.000948846631218,1.21846967915e-07,0.0,0.0,0.0,1.21846967915e-07,0.0,0.0,0.0,1.21846967915e-07,-0.252412587404,-0.326240450144,9.72729206085,9e-08,0.0,0.0,0.0,9e-08,0.0,0.0,0.0,9e-08
2773150000000,2052,2773150000000,base_link,0.0102564307284,-0.0122350400503,0.0196752447029,-0.999678992487,1.0,0.0,0.0,0.0,1.0,0.0,0.0,0.0,1.0,0.00998823065311,-0.011229287833,0.00107049406506,1.21846967915e-07,0.0,0.0,0.0,1.21846967915e-07,0.0,0.0,0.0,1.21846967915e-07,-0.205133259296,-0.236267015338,9.78130531311,9e-08,0.0,0.0,0.0,9e-08,0.0,0.0,0.0,9e-08
2773170000000,2053,2773170000000,base_link,0.0102751225264,-0.012275928091,0.0197063069303,-0.999677685935,1.0,0.0,0.0,0.0,1.0,0.0,0.0,0.0,1.0,-0.00073976488784,5.04853960592e-05,-0.0015119749587,1.21846967915e-07,0.0,0.0,0.0,1.21846967915e-07,0.0,0.0,0.0,1.21846967915e-07,-0.247949242592,-0.229253470898,9.78991317749,9e-08,0.0,0.0,0.0,9e-08,0.0,0.0,0.0,9e-08
2773190000000,2054,2773190000000,base_link,0.0103590254596,-0.0123424288209,0.0197027244482,-0.999676042208,1.0,0.0,0.0,0.0,1.0,0.0,0.0,0.0,1.0,-0.00774334836751,5.28755481355e-05,0.00325873773545,1.21846967915e-07,0.0,0.0,0.0,1.21846967915e-07,0.0,0.0,0.0,1.21846967915e-07,-0.331079810858,-0.181977838278,9.80247783661,9e-08,0.0,0.0,0.0,9e-08,0.0,0.0,0.0,9e-08
2773210000000,2055,2773210000000,base_link,0.0104123534883,-0.0123366213638,0.0197283075852,-0.999675072831,1.0,0.0,0.0,0.0,1.0,0.0,0.0,0.0,1.0,-0.00423779059201,-0.0063423588872,-0.00169740943238,1.21846967915e-07,0.0,0.0,0.0,1.21846967915e-07,0.0,0.0,0.0,1.21846967915e-07,-0.233453124762,-0.185190886259,9.89248561859,9e-08,0.0,0.0,0.0,9e-08,0.0,0.0,0.0,9e-08
2773230000000,2056,2773230000000,base_link,0.0103597411328,-0.0122849624161,0.0197364840738,-0.999676084355,1.0,0.0,0.0,0.0,1.0,0.0,0.0,0.0,1.0,0.00736690592021,-0.011384411715,0.00144392752554,1.21846967915e-07,0.0,0.0,0.0,1.21846967915e-07,0.0,0.0,0.0,1.21846967915e-07,-0.225966453552,-0.212326571345,9.78511333466,9e-08,0.0,0.0,0.0,9e-08,0.0,0.0,0.0,9e-08
2773250000000,2057,2773250000000,base_link,0.0103110109795,-0.0122770393025,0.0197449555904,-0.99967654797,1.0,0.0,0.0,0.0,1.0,0.0,0.0,0.0,1.0,0.00398627854884,-0.00590849341825,0.000513299542945,1.21846967915e-07,0.0,0.0,0.0,1.21846967915e-07,0.0,0.0,0.0,1.21846967915e-07,-0.232340499759,-0.210244506598,9.90959358215,9e-08,0.0,0.0,0.0,9e-08,0.0,0.0,0.0,9e-08
2773270000000,2058,2773270000000,base_link,0.0103291444964,-0.0123745567379,0.0197688107066,-0.999674693509,1.0,0.0,0.0,0.0,1.0,0.0,0.0,0.0,1.0,-0.00142578291707,0.00694801006466,-0.00200081034563,1.21846967915e-07,0.0,0.0,0.0,1.21846967915e-07,0.0,0.0,0.0,1.21846967915e-07,-0.181004330516,-0.149274259806,9.74346065521,9e-08,0.0,0.0,0.0,9e-08,0.0,0.0,0.0,9e-08
2773290000000,2059,2773290000000,base_link,0.0104116859712,-0.0125322048845,0.0197645117281,-0.999671911817,1.0,0.0,0.0,0.0,1.0,0.0,0.0,0.0,1.0,-0.00908279977739,0.0112130660564,0.0023576670792,1.21846967915e-07,0.0,0.0,0.0,1.21846967915e-07,0.0,0.0,0.0,1.21846967915e-07,-0.305389553308,-0.184711575508,9.88513565063,9e-08,0.0,0.0,0.0,9e-08,0.0,0.0,0.0,9e-08
2773310000000,2060,2773310000000,base_link,0.0105075711217,-0.0126115557934,0.0197863437956,-0.9996694673,1.0,0.0,0.0,0.0,1.0,0.0,0.0,0.0,1.0,-0.00899948179722,0.000284176494461,-0.00159243983217,1.21846967915e-07,0.0,0.0,0.0,1.21846967915e-07,0.0,0.0,0.0,1.21846967915e-07,-0.230708688498,-0.267114251852,9.78145885468,9e-08,0.0,0.0,0.0,9e-08,0.0,0.0,0.0,9e-08
2773330000000,2061,2773330000000,base_link,0.0104491576476,-0.0126526943279,0.0197995357592,-0.999669340859,1.0,0.0,0.0,0.0,1.0,0.0,0.0,0.0,1.0,0.0103704985231,-0.00148476776667,-0.0015604516957,1.21846967915e-07,0.0,0.0,0.0,1.21846967915e-07,0.0,0.0,0.0,1.21846967915e-07,-0.218218252063,-0.1997833848,9.8557434082,9e-08,0.0,0.0,0.0,9e-08,0.0,0.0,0.0,9e-08
2773350000000,2062,2773350000000,base_link,0.0102180507544,-0.0126306224679,0.0197687685598,-0.999672628313,1.0,0.0,0.0,0.0,1.0,0.0,0.0,0.0,1.0,0.0287481490523,-0.00676686223596,0.00298675894737,1.21846967915e-07,0.0,0.0,0.0,1.21846967915e-07,0.0,0.0,0.0,1.21846967915e-07,-0.2861751616,-0.255068898201,9.81802368164,9e-08,0.0,0.0,0.0,9e-08,0.0,0.0,0.0,9e-08
2773370000000,2063,2773370000000,base_link,0.0102327353091,-0.0125878786488,0.0197890833408,-0.999672628313,1.0,0.0,0.0,0.0,1.0,0.0,0.0,0.0,1.0,-0.00538168335333,-0.0066152093932,-0.00358516001143,1.21846967915e-07,0.0,0.0,0.0,1.21846967915e-07,0.0,0.0,0.0,1.21846967915e-07,-0.254175871611,-0.204535141587,9.82343769073,9e-08,0.0,0.0,0.0,9e-08,0.0,0.0,0.0,9e-08
2773390000000,2064,2773390000000,base_link,0.0103960887561,-0.0125909473016,0.0197849950965,-0.999670984586,1.0,0.0,0.0,0.0,1.0,0.0,0.0,0.0,1.0,-0.020146522671,-0.00508713722229,0.000402097008191,1.21846967915e-07,0.0,0.0,0.0,1.21846967915e-07,0.0,0.0,0.0,1.21846967915e-07,-0.226270973682,-0.27448964119,9.85646629333,9e-08,0.0,0.0,0.0,9e-08,0.0,0.0,0.0,9e-08
2773410000000,2065,2773410000000,base_link,0.0104711163203,-0.0126099361855,0.0198158887364,-0.999669340859,1.0,0.0,0.0,0.0,1.0,0.0,0.0,0.0,1.0,-0.00216241320595,-0.00437492225319,-0.00471800705418,1.21846967915e-07,0.0,0.0,0.0,1.21846967915e-07,0.0,0.0,0.0,1.21846967915e-07,-0.301260471344,-0.166449651122,9.89288330078,9e-08,0.0,0.0,0.0,9e-08,0.0,0.0,0.0,9e-08
2773430000000,2066,2773430000000,base_link,0.0103229152416,-0.012628846538,0.0197884932849,-0.999671111027,1.0,0.0,0.0,0.0,1.0,0.0,0.0,0.0,1.0,0.0199081934988,-0.00422422168776,0.00312729668804,1.21846967915e-07,0.0,0.0,0.0,1.21846967915e-07,0.0,0.0,0.0,1.21846967915e-07,-0.218127042055,-0.176296710968,9.8698348999,9e-08,0.0,0.0,0.0,9e-08,0.0,0.0,0.0,9e-08
2773450000000,2067,2773450000000,base_link,0.0101130245946,-0.0126980720781,0.0198160994707,-0.999671911817,1.0,0.0,0.0,0.0,1.0,0.0,0.0,0.0,1.0,0.0224599353969,0.00259499112144,-0.00478812446818,1.21846967915e-07,0.0,0.0,0.0,1.21846967915e-07,0.0,0.0,0.0,1.21846967915e-07,-0.193849354982,-0.268952548504,9.81693077087,9e-08,0.0,0.0,0.0,9e-08,0.0,0.0,0.0,9e-08
2773470000000,2068,2773470000000,base_link,0.0100217737864,-0.0127321717597,0.0198316095109,-0.999672080404,1.0,0.0,0.0,0.0,1.0,0.0,0.0,0.0,1.0,0.00807719491422,-0.00105623004492,-0.00175082706846,1.21846967915e-07,0.0,0.0,0.0,1.21846967915e-07,0.0,0.0,0.0,1.21846967915e-07,-0.14168164134,-0.294171661139,9.83339500427,9e-08,0.0,0.0,0.0,9e-08,0.0,0.0,0.0,9e-08
2773490000000,2069,2773490000000,base_link,0.0101113544434,-0.0127780141954,0.0198232644349,-0.999670731705,1.0,0.0,0.0,0.0,1.0,0.0,0.0,0.0,1.0,-0.010746397078,-0.00314473058097,-0.000802473805379,1.21846967915e-07,0.0,0.0,0.0,1.21846967915e-07,0.0,0.0,0.0,1.21846967915e-07,-0.209603175521,-0.18249297142,9.72699928284,9e-08,0.0,0.0,0.0,9e-08,0.0,0.0,0.0,9e-08
2773510000000,2070,2773510000000,base_link,0.0102349940345,-0.0128443725973,0.0197847843622,-0.999669425153,1.0,0.0,0.0,0.0,1.0,0.0,0.0,0.0,1.0,-0.00704016769305,0.000801277870778,0.0034280619584,1.21846967915e-07,0.0,0.0,0.0,1.21846967915e-07,0.0,0.0,0.0,1.21846967915e-07,-0.259140133858,-0.197418048978,9.66321563721,9e-08,0.0,0.0,0.0,9e-08,0.0,0.0,0.0,9e-08
2773530000000,2071,2773530000000,base_link,0.0101873000186,-0.0128584650382,0.019773994769,-0.999669846621,1.0,0.0,0.0,0.0,1.0,0.0,0.0,0.0,1.0,0.0110177528113,-0.00485312379897,-0.0018346257275,1.21846967915e-07,0.0,0.0,0.0,1.21846967915e-07,0.0,0.0,0.0,1.21846967915e-07,-0.354741126299,-0.198314785957,9.64640712738,9e-08,0.0,0.0,0.0,9e-08,0.0,0.0,0.0,9e-08
2773550000000,2072,2773546000000,base_link,0.0100622099833,-0.0128040858901,0.0197535114006,-0.999672291139,1.0,0.0,0.0,0.0,1.0,0.0,0.0,0.0,1.0,0.014415810816,-0.0116932662204,-0.00036269769771,1.21846967915e-07,0.0,0.0,0.0,1.21846967915e-07,0.0,0.0,0.0,1.21846967915e-07,-0.203693687916,-0.223467186093,9.71923542023,9e-08,0.0,0.0,0.0,9e-08,0.0,0.0,0.0,9e-08
2773570000000,2073,2773570000000,base_link,0.0100467260378,-0.0127209409417,0.0197638373785,-0.999673260516,1.0,0.0,0.0,0.0,1.0,0.0,0.0,0.0,1.0,0.000773220672272,-0.01498251874,-0.00289863860235,1.21846967915e-07,0.0,0.0,0.0,1.21846967915e-07,0.0,0.0,0.0,1.21846967915e-07,-0.275577694178,-0.192046746612,9.70344924927,9e-08,0.0,0.0,0.0,9e-08,0.0,0.0,0.0,9e-08
2773590000000,2074,2773590000000,base_link,0.0101596702899,-0.0127384069414,0.019723629285,-0.99967267046,1.0,0.0,0.0,0.0,1.0,0.0,0.0,0.0,1.0,-0.0111906416714,-0.00370828062296,0.00429058261216,1.21846967915e-07,0.0,0.0,0.0,1.21846967915e-07,0.0,0.0,0.0,1.21846967915e-07,-0.246587753296,-0.221726819873,9.82764911652,9e-08,0.0,0.0,0.0,9e-08,0.0,0.0,0.0,9e-08
2773610000000,2075,2773610000000,base_link,0.0102062766372,-0.0127813521105,0.0196875937296,-0.999672375432,1.0,0.0,0.0,0.0,1.0,0.0,0.0,0.0,1.0,0.00228453194723,-0.000930969137698,-0.000974580063485,1.21846967915e-07,0.0,0.0,0.0,1.21846967915e-07,0.0,0.0,0.0,1.21846967915e-07,-0.177816659212,-0.111573264003,9.81880569458,9e-08,0.0,0.0,0.0,9e-08,0.0,0.0,0.0,9e-08
2773630000000,2076,2773630000000,base_link,0.0101015536547,-0.0128640112177,0.0196751604092,-0.99967267046,1.0,0.0,0.0,0.0,1.0,0.0,0.0,0.0,1.0,0.0157692003995,-2.61153327301e-05,0.000682112411596,1.21846967915e-07,0.0,0.0,0.0,1.21846967915e-07,0.0,0.0,0.0,1.21846967915e-07,-0.217251881957,-0.201034337282,9.659740448,9e-08,0.0,0.0,0.0,9e-08,0.0,0.0,0.0,9e-08
2773650000000,2077,2773650000000,base_link,0.00994200725362,-0.0129203557919,0.019655477831,-0.999673892719,1.0,0.0,0.0,0.0,1.0,0.0,0.0,0.0,1.0,0.0188139714301,0.00149893411435,0.000379275763407,1.21846967915e-07,0.0,0.0,0.0,1.21846967915e-07,0.0,0.0,0.0,1.21846967915e-07,-0.163100346923,-0.149898707867,9.58490085602,9e-08,0.0,0.0,0.0,9e-08,0.0,0.0,0.0,9e-08
