%time,field.header.seq,field.header.stamp,field.header.frame_id,field.orientation.x,field.orientation.y,field.orientation.z,field.orientation.w,field.orientation_covariance0,field.orientation_covariance1,field.orientation_covariance2,field.orientation_covariance3,field.orientation_covariance4,field.orientation_covariance5,field.orientation_covariance6,field.orientation_covariance7,field.orientation_covariance8,field.angular_velocity.x,field.angular_velocity.y,field.angular_velocity.z,field.angular_velocity_covariance0,field.angular_velocity_covariance1,field.angular_velocity_covariance2,field.angular_velocity_covariance3,field.angular_velocity_covariance4,field.angular_velocity_covariance5,field.angular_velocity_covariance6,field.angular_velocity_covariance7,field.angular_velocity_covariance8,field.linear_acceleration.x,field.linear_acceleration.y,field.linear_acceleration.z,field.linear_acceleration_covariance0,field.linear_acceleration_covariance1,field.linear_acceleration_covariance2,field.linear_acceleration_covariance3,field.linear_acceleration_covariance4,field.linear_acceleration_covariance5,field.linear_acceleration_covariance6,field.linear_acceleration_covariance7,field.linear_acceleration_covariance8
3099790000000,1342,3099790000000,base_link,0.00966855298517,-0.0110059737396,0.0168223666741,-0.999751190039,1.0,0.0,0.0,0.0,1.0,0.0,0.0,0.0,1.0,-0.00139333691914,-0.00608795974404,-0.000568061310332,1.21846967915e-07,0.0,0.0,0.0,1.21846967915e-07,0.0,0.0,0.0,1.21846967915e-07,-0.275560259819,-0.120699189603,9.79013633728,9e-08,0.0,0.0,0.0,9e-08,0.0,0.0,0.0,9e-08
3099810000000,1343,3099810000000,base_link,0.00970643110702,-0.0110218631427,0.0168039063544,-0.999750937158,1.0,0.0,0.0,0.0,1.0,0.0,0.0,0.0,1.0,-0.000935769290663,-0.00306767970324,0.0052427155897,1.21846967915e-07,0.0,0.0,0.0,1.21846967915e-07,0.0,0.0,0.0,1.21846967915e-07,-0.246690765023,-0.186915159225,9.80518245697,9e-08,0.0,0.0,0.0,9e-08,0.0,0.0,0.0,9e-08
3099830000000,1344,3099830000000,base_link,0.009674645592,-0.0110155031256,0.0167908408314,-0.999751527214,1.0,0.0,0.0,0.0,1.0,0.0,0.0,0.0,1.0,0.0047344933264,-0.00784434191883,0.00440752226859,1.21846967915e-07,0.0,0.0,0.0,1.21846967915e-07,0.0,0.0,0.0,1.21846967915e-07,-0.257988780737,-0.267428189516,9.77631187439,9e-08,0.0,0.0,0.0,9e-08,0.0,0.0,0.0,9e-08
3099850000000,1345,3099850000000,base_link,0.00966279512474,-0.0110411803934,0.0167879326989,-0.999751400773,1.0,0.0,0.0,0.0,1.0,0.0,0.0,0.0,1.0,0.00211261631921,-0.00280376244336,0.000258190499153,1.21846967915e-07,0.0,0.0,0.0,1.21846967915e-07,0.0,0.0,0.0,1.21846967915e-07,-0.242879465222,-0.104629054666,9.80996608734,9e-08,0.0,0.0,0.0,9e-08,0.0,0.0,0.0,9e-08
3099870000000,1346,3099870000000,base_link,0.00961855496903,-0.0110332414335,0.0167488625703,-0.999752623032,1.0,0.0,0.0,0.0,1.0,0.0,0.0,0.0,1.0,0.00357226701453,-0.00777389574796,0.00509621202946,1.21846967915e-07,0.0,0.0,0.0,1.21846967915e-07,0.0,0.0,0.0,1.21846967915e-07,-0.232427895069,-0.22776094079,9.73764801025,9e-08,0.0,0.0,0.0,9e-08,0.0,0.0,0.0,9e-08
3099890000000,1347,3099890000000,base_link,0.0096099085266,-0.0110272220898,0.0167724226586,-0.999752412298,1.0,0.0,0.0,0.0,1.0,0.0,0.0,0.0,1.0,0.00143169076182,-0.00561007577926,-0.00227277819067,1.21846967915e-07,0.0,0.0,0.0,1.21846967915e-07,0.0,0.0,0.0,1.21846967915e-07,-0.283825516701,-0.216886609793,9.74363613129,9e-08,0.0,0.0,0.0,9e-08,0.0,0.0,0.0,9e-08
3099910000000,1348,3099910000000,base_link,0.00965342802882,-0.0110344961255,0.0166931865834,-0.999753170941,1.0,0.0,0.0,0.0,1.0,0.0,0.0,0.0,1.0,-0.00325701665133,-0.00516182836145,0.0120693743229,1.21846967915e-07,0.0,0.0,0.0,1.21846967915e-07,0.0,0.0,0.0,1.21846967915e-07,-0.22841334343,-0.1383369416,9.80394077301,9e-08,0.0,0.0,0.0,9e-08,0.0,0.0,0.0,9e-08
3099930000000,1349,3099930000000,base_link,0.00965936645392,-0.0110261131831,0.0167287585236,-0.999752665179,1.0,0.0,0.0,0.0,1.0,0.0,0.0,0.0,1.0,0.00040104665095,-0.00570451421663,-0.00172315398231,1.21846967915e-07,0.0,0.0,0.0,1.21846967915e-07,0.0,0.0,0.0,1.21846967915e-07,-0.269220083952,-0.140707269311,9.75901889801,9e-08,0.0,0.0,0.0,9e-08,0.0,0.0,0.0,9e-08
3099950000000,1350,3099950000000,base_link,0.00963856517318,-0.0110332536166,0.0167373986275,-0.999752623032,1.0,0.0,0.0,0.0,1.0,0.0,0.0,0.0,1.0,0.00507584540173,-0.00506429746747,-3.17074445775e-05,1.21846967915e-07,0.0,0.0,0.0,1.21846967915e-07,0.0,0.0,0.0,1.21846967915e-07,-0.11058948189,-0.157347708941,9.78471851349,9e-08,0.0,0.0,0.0,9e-08,0.0,0.0,0.0,9e-08
3099970000000,1351,3099970000000,base_link,0.00964787061287,-0.011008014034,0.0167085280363,-0.999753255235,1.0,0.0,0.0,0.0,1.0,0.0,0.0,0.0,1.0,-0.0007457145839,-0.0075483135879,0.00323605490848,1.21846967915e-07,0.0,0.0,0.0,1.21846967915e-07,0.0,0.0,0.0,1.21846967915e-07,-0.217099860311,-0.100685067475,9.80360889435,9e-08,0.0,0.0,0.0,9e-08,0.0,0.0,0.0,9e-08
3099990000000,1352,3099990000000,base_link,0.00967913246153,-0.0110543129233,0.0166752320259,-0.999753086647,1.0,0.0,0.0,0.0,1.0,0.0,0.0,0.0,1.0,-0.00290817045607,-0.00101847760379,0.00546565791592,1.21846967915e-07,0.0,0.0,0.0,1.21846967915e-07,0.0,0.0,0.0,1.21846967915e-07,-0.197062507272,-0.149856954813,9.8165512085,9e-08,0.0,0.0,0.0,9e-08,0.0,0.0,0.0,9e-08
3100010000000,1353,3100010000000,base_link,0.00970983253056,-0.0110776029672,0.0166665497751,-0.999752665179,1.0,0.0,0.0,0.0,1.0,0.0,0.0,0.0,1.0,0.00172798824497,-0.00247558602132,0.00185505277477,1.21846967915e-07,0.0,0.0,0.0,1.21846967915e-07,0.0,0.0,0.0,1.21846967915e-07,-0.311297476292,-0.163847476244,9.81485748291,9e-08,0.0,0.0,0.0,9e-08,0.0,0.0,0.0,9e-08
3100030000000,1354,3100030000000,base_link,0.0097223343395,-0.0110852025708,0.0166888876049,-0.999752075123,1.0,0.0,0.0,0.0,1.0,0.0,0.0,0.0,1.0,-0.00174302770756,-0.00572715140879,-0.00261088949628,1.21846967915e-07,0.0,0.0,0.0,1.21846967915e-07,0.0,0.0,0.0,1.21846967915e-07,-0.192694813013,-0.219558537006,9.76324558258,9e-08,0.0,0.0,0.0,9e-08,0.0,0.0,0.0,9e-08
3100046000000,1355,3100050000000,base_link,0.00969687982443,-0.0110517476455,0.0166590054893,-0.999753128794,1.0,0.0,0.0,0.0,1.0,0.0,0.0,0.0,1.0,0.00520324520767,-0.00874256715178,0.0043182070367,1.21846967915e-07,0.0,0.0,0.0,1.21846967915e-07,0.0,0.0,0.0,1.21846967915e-07,-0.238887265325,-0.223230034113,9.80494403839,9e-08,0.0,0.0,0.0,9e-08,0.0,0.0,0.0,9e-08
3100070000000,1356,3100070000000,base_link,0.0096625324478,-0.0110251164349,0.0166719867186,-0.999753550262,1.0,0.0,0.0,0.0,1.0,0.0,0.0,0.0,1.0,0.00341974431649,-0.010841823183,-0.00286006345414,1.21846967915e-07,0.0,0.0,0.0,1.21846967915e-07,0.0,0.0,0.0,1.21846967915e-07,-0.252910017967,-0.193939849734,9.81920051575,9e-08,0.0,0.0,0.0,9e-08,0.0,0.0,0.0,9e-08
3100090000000,1357,3100090000000,base_link,0.00967065287781,-0.0110133121069,0.0166553387134,-0.99975384529,1.0,0.0,0.0,0.0,1.0,0.0,0.0,0.0,1.0,-0.000541619083378,-0.00722866412252,0.00502524059266,1.21846967915e-07,0.0,0.0,0.0,1.21846967915e-07,0.0,0.0,0.0,1.21846967915e-07,-0.202730461955,-0.154803782701,9.79245567322,9e-08,0.0,0.0,0.0,9e-08,0.0,0.0,0.0,9e-08
3100110000000,1358,3100106000000,base_link,0.00969516089979,-0.0110116345059,0.0166325794152,-0.999754013878,1.0,0.0,0.0,0.0,1.0,0.0,0.0,0.0,1.0,-0.00203240709379,-0.006460363511,0.00439397105947,1.21846967915e-07,0.0,0.0,0.0,1.21846967915e-07,0.0,0.0,0.0,1.21846967915e-07,-0.259562551975,-0.193837657571,9.7506980896,9e-08,0.0,0.0,0.0,9e-08,0.0,0.0,0.0,9e-08
3100130000000,1359,3100130000000,base_link,0.00969358162774,-0.0109916029814,0.016613739774,-0.999754646081,1.0,0.0,0.0,0.0,1.0,0.0,0.0,0.0,1.0,0.00206626788713,-0.00862611550838,0.00431475928053,1.21846967915e-07,0.0,0.0,0.0,1.21846967915e-07,0.0,0.0,0.0,1.21846967915e-07,-0.211772546172,-0.100367762148,9.84592914581,9e-08,0.0,0.0,0.0,9e-08,0.0,0.0,0.0,9e-08
3100150000000,1360,3100150000000,base_link,0.00969583302678,-0.0109967351834,0.0166010535726,-0.999754772521,1.0,0.0,0.0,0.0,1.0,0.0,0.0,0.0,1.0,-0.000351273571141,-0.00540426233783,0.00418835552409,1.21846967915e-07,0.0,0.0,0.0,1.21846967915e-07,0.0,0.0,0.0,1.21846967915e-07,-0.253980636597,-0.17601595819,9.76595306396,9e-08,0.0,0.0,0.0,9e-08,0.0,0.0,0.0,9e-08
3100170000000,1361,3100170000000,base_link,0.00967811315811,-0.0110210642047,0.0165472741939,-0.999755531164,1.0,0.0,0.0,0.0,1.0,0.0,0.0,0.0,1.0,0.00278412830085,-0.00438632024452,0.00408986583352,1.21846967915e-07,0.0,0.0,0.0,1.21846967915e-07,0.0,0.0,0.0,1.21846967915e-07,-0.155324921012,-0.139902189374,9.76282787323,9e-08,0.0,0.0,0.0,9e-08,0.0,0.0,0.0,9e-08
3100190000000,1362,3100190000000,base_link,0.00969109455209,-0.0110368612057,0.0165459676416,-0.999755236136,1.0,0.0,0.0,0.0,1.0,0.0,0.0,0.0,1.0,-0.00129448971711,-0.00250264513306,0.00182877318002,1.21846967915e-07,0.0,0.0,0.0,1.21846967915e-07,0.0,0.0,0.0,1.21846967915e-07,-0.282748728991,-0.184331610799,9.75393772125,9e-08,0.0,0.0,0.0,9e-08,0.0,0.0,0.0,9e-08
3100210000000,1363,3100210000000,base_link,0.00969531162416,-0.0110506000082,0.0165253578326,-0.999755362577,1.0,0.0,0.0,0.0,1.0,0.0,0.0,0.0,1.0,-0.00157326692715,-0.00480334647,0.00541609525681,1.21846967915e-07,0.0,0.0,0.0,1.21846967915e-07,0.0,0.0,0.0,1.21846967915e-07,-0.250112622976,-0.151867866516,9.83832931519,9e-08,0.0,0.0,0.0,9e-08,0.0,0.0,0.0,9e-08
3100230000000,1364,3100230000000,base_link,0.00968382290363,-0.0110289204761,0.0164589343994,-0.999756879864,1.0,0.0,0.0,0.0,1.0,0.0,0.0,0.0,1.0,0.00236594234593,-0.00667202519253,0.00994407292455,1.21846967915e-07,0.0,0.0,0.0,1.21846967915e-07,0.0,0.0,0.0,1.21846967915e-07,-0.209331601858,-0.15151463449,9.83717441559,9e-08,0.0,0.0,0.0,9e-08,0.0,0.0,0.0,9e-08
3100250000000,1365,3100246000000,base_link,0.00970067308195,-0.0110288987441,0.016420370033,-0.999757343479,1.0,0.0,0.0,0.0,1.0,0.0,0.0,0.0,1.0,-1.44162331708e-05,-0.00667048012838,0.00510742329061,1.21846967915e-07,0.0,0.0,0.0,1.21846967915e-07,0.0,0.0,0.0,1.21846967915e-07,-0.236193105578,-0.215170741081,9.83691883087,9e-08,0.0,0.0,0.0,9e-08,0.0,0.0,0.0,9e-08
3100270000000,1366,3100270000000,base_link,0.0094042457353,-0.0110133972649,0.0164578385813,-0.999759661556,1.0,0.0,0.0,0.0,1.0,0.0,0.0,0.0,1.0,0.0371926240623,-0.00592787144706,-0.00152411870658,1.21846967915e-07,0.0,0.0,0.0,1.21846967915e-07,0.0,0.0,0.0,1.21846967915e-07,-0.177752748132,-0.368296682835,10.205034256,9e-08,0.0,0.0,0.0,9e-08,0.0,0.0,0.0,9e-08
3100290000000,1367,3100290000000,base_link,0.0083630181326,-0.0109704564587,0.0164706933701,-0.99976922889,1.0,0.0,0.0,0.0,1.0,0.0,0.0,0.0,1.0,0.117939814925,-0.00910944677889,0.00173504697159,1.21846967915e-07,0.0,0.0,0.0,1.21846967915e-07,0.0,0.0,0.0,1.21846967915e-07,-0.234996691346,-0.232266157866,10.7863693237,9e-08,0.0,0.0,0.0,9e-08,0.0,0.0,0.0,9e-08
3100310000000,1368,3100310000000,base_link,0.00626249551166,-0.0109382945443,0.0164282514937,-0.999785624014,1.0,0.0,0.0,0.0,1.0,0.0,0.0,0.0,1.0,0.227636530995,-0.00566909601912,0.00961078610271,1.21846967915e-07,0.0,0.0,0.0,1.21846967915e-07,0.0,0.0,0.0,1.21846967915e-07,-0.291410088539,-0.0297729354352,11.0093126297,9e-08,0.0,0.0,0.0,9e-08,0.0,0.0,0.0,9e-08
3100330000000,1369,3100330000000,base_link,0.00431437795289,-0.0108272053298,0.0163947447491,-0.99979772016,1.0,0.0,0.0,0.0,1.0,0.0,0.0,0.0,1.0,0.237314075232,-0.0220415368676,0.00643553119153,1.21846967915e-07,0.0,0.0,0.0,1.21846967915e-07,0.0,0.0,0.0,1.21846967915e-07,-0.210305228829,-0.242663040757,11.4893093109,9e-08,0.0,0.0,0.0,9e-08,0.0,0.0,0.0,9e-08
3100350000000,1370,3100350000000,base_link,0.00265523894384,-0.0105012646525,0.0163812577576,-0.999807161054,1.0,0.0,0.0,0.0,1.0,0.0,0.0,0.0,1.0,0.103284865618,-0.0343689844012,0.00457778479904,1.21846967915e-07,0.0,0.0,0.0,1.21846967915e-07,0.0,0.0,0.0,1.21846967915e-07,-0.243778645992,-0.255392640829,11.8637170792,9e-08,0.0,0.0,0.0,9e-08,0.0,0.0,0.0,9e-08
3100370000000,1371,3100370000000,base_link,0.00248716290961,-0.0103131194744,0.0163703838707,-0.999809774158,1.0,0.0,0.0,0.0,1.0,0.0,0.0,0.0,1.0,0.0159912351519,-0.0295346900821,0.00336646661162,1.21846967915e-07,0.0,0.0,0.0,1.21846967915e-07,0.0,0.0,0.0,1.21846967915e-07,-0.21694020927,-0.122995451093,12.1052885056,9e-08,0.0,0.0,0.0,9e-08,0.0,0.0,0.0,9e-08
3100390000000,1372,3100390000000,base_link,0.00175629869012,-0.0100849400585,0.0164565741759,-0.999812260822,1.0,0.0,0.0,0.0,1.0,0.0,0.0,0.0,1.0,0.0833148807287,-0.0244021210819,-0.00463148579001,1.21846967915e-07,0.0,0.0,0.0,1.21846967915e-07,0.0,0.0,0.0,1.21846967915e-07,-0.179557427764,-0.087981544435,12.0502109528,9e-08,0.0,0.0,0.0,9e-08,0.0,0.0,0.0,9e-08
3100410000000,1373,3100406000000,base_link,0.000414218239348,-0.0099712071171,0.0164972880315,-0.999814115284,1.0,0.0,0.0,0.0,1.0,0.0,0.0,0.0,1.0,0.187616050243,-0.0176898650825,-0.000375901669031,1.21846967915e-07,0.0,0.0,0.0,1.21846967915e-07,0.0,0.0,0.0,1.21846967915e-07,-0.29914906621,0.00450871046633,11.9133834839,9e-08,0.0,0.0,0.0,9e-08,0.0,0.0,0.0,9e-08
3100430000000,1374,3100430000000,base_link,-0.00122360763524,-0.00977308400187,0.0165310055103,-0.999814873927,1.0,0.0,0.0,0.0,1.0,0.0,0.0,0.0,1.0,0.132965296507,-0.0281027909368,0.00307256751694,1.21846967915e-07,0.0,0.0,0.0,1.21846967915e-07,0.0,0.0,0.0,1.21846967915e-07,-0.269752800465,-0.245313972235,11.7185792923,9e-08,0.0,0.0,0.0,9e-08,0.0,0.0,0.0,9e-08
3100446000000,1375,3100446000000,base_link,-0.00148984565529,-0.00947838302965,0.0166523462872,-0.999815337542,1.0,0.0,0.0,0.0,1.0,0.0,0.0,0.0,1.0,-0.00996058061719,-0.0310301184654,-0.00845216680318,1.21846967915e-07,0.0,0.0,0.0,1.21846967915e-07,0.0,0.0,0.0,1.21846967915e-07,-0.160840287805,-0.227003514767,11.4752845764,9e-08,0.0,0.0,0.0,9e-08,0.0,0.0,0.0,9e-08
3100470000000,1376,3100470000000,base_link,-0.000828048925254,-0.00928802777616,0.0167204555944,-0.999816770535,1.0,0.0,0.0,0.0,1.0,0.0,0.0,0.0,1.0,-0.0865386649966,-0.0317289978266,-0.00645939260721,1.21846967915e-07,0.0,0.0,0.0,1.21846967915e-07,0.0,0.0,0.0,1.21846967915e-07,-0.205769047141,-0.190893486142,11.3093700409,9e-08,0.0,0.0,0.0,9e-08,0.0,0.0,0.0,9e-08
3100490000000,1377,3100490000000,base_link,-0.000311476735024,-0.00894924877365,0.0167652576944,-0.999819425787,1.0,0.0,0.0,0.0,1.0,0.0,0.0,0.0,1.0,-0.0444583967328,-0.0353225022554,-0.0010278330883,1.21846967915e-07,0.0,0.0,0.0,1.21846967915e-07,0.0,0.0,0.0,1.21846967915e-07,-0.272977203131,-0.0123331109062,11.2209920883,9e-08,0.0,0.0,0.0,9e-08,0.0,0.0,0.0,9e-08
3100510000000,1378,3100510000000,base_link,-0.000809016330428,-0.00872868377869,0.0168464746714,-0.999819720815,1.0,0.0,0.0,0.0,1.0,0.0,0.0,0.0,1.0,0.0644295215607,-0.0276473760605,-0.00557257514447,1.21846967915e-07,0.0,0.0,0.0,1.21846967915e-07,0.0,0.0,0.0,1.21846967915e-07,-0.236148297787,-0.0557980239391,11.156291008,9e-08,0.0,0.0,0.0,9e-08,0.0,0.0,0.0,9e-08
3100530000000,1379,3100526000000,base_link,-0.00112529484273,-0.00855695710297,0.0169037943854,-0.999819889402,1.0,0.0,0.0,0.0,1.0,0.0,0.0,0.0,1.0,0.025809224695,-0.0232336595654,-0.00162909051869,1.21846967915e-07,0.0,0.0,0.0,1.21846967915e-07,0.0,0.0,0.0,1.21846967915e-07,-0.212526828051,-0.17173075676,11.1311359406,9e-08,0.0,0.0,0.0,9e-08,0.0,0.0,0.0,9e-08
3100550000000,1380,3100550000000,base_link,-0.000420630487222,-0.00850849151991,0.0169169020553,-0.999820690192,1.0,0.0,0.0,0.0,1.0,0.0,0.0,0.0,1.0,-0.0858927965164,-0.00984300114214,0.00159456976689,1.21846967915e-07,0.0,0.0,0.0,1.21846967915e-07,0.0,0.0,0.0,1.21846967915e-07,-0.185723856091,-0.245010674,11.1286125183,9e-08,0.0,0.0,0.0,9e-08,0.0,0.0,0.0,9e-08
3100570000000,1381,3100570000000,base_link,0.000676617274188,-0.00854089256824,0.0169294196693,-0.999820057989,1.0,0.0,0.0,0.0,1.0,0.0,0.0,0.0,1.0,-0.108931005001,-0.00307141058147,0.000828475458547,1.21846967915e-07,0.0,0.0,0.0,1.21846967915e-07,0.0,0.0,0.0,1.21846967915e-07,-0.224819377065,-0.13398116827,11.3169841766,9e-08,0.0,0.0,0.0,9e-08,0.0,0.0,0.0,9e-08
3100590000000,1382,3100590000000,base_link,0.00100728860599,-0.00854443257425,0.0169547077784,-0.999819299346,1.0,0.0,0.0,0.0,1.0,0.0,0.0,0.0,1.0,-0.0145542053506,-0.011172093451,0.00101060152519,1.21846967915e-07,0.0,0.0,0.0,1.21846967915e-07,0.0,0.0,0.0,1.21846967915e-07,-0.140418559313,0.00755576603115,11.4254665375,9e-08,0.0,0.0,0.0,9e-08,0.0,0.0,0.0,9e-08
3100610000000,1383,3100610000000,base_link,0.000720269226171,-0.00845619353708,0.0169984140603,-0.99981951008,1.0,0.0,0.0,0.0,1.0,0.0,0.0,0.0,1.0,0.0383605137467,-0.0140745425597,-0.00236269459128,1.21846967915e-07,0.0,0.0,0.0,1.21846967915e-07,0.0,0.0,0.0,1.21846967915e-07,-0.190857648849,-0.147572800517,11.5195732117,9e-08,0.0,0.0,0.0,9e-08,0.0,0.0,0.0,9e-08
3100630000000,1384,3100630000000,base_link,0.000981594833463,-0.00848943883947,0.0170081078355,-0.999818835731,1.0,0.0,0.0,0.0,1.0,0.0,0.0,0.0,1.0,-0.0215300060809,-0.00202664965764,0.00205713394098,1.21846967915e-07,0.0,0.0,0.0,1.21846967915e-07,0.0,0.0,0.0,1.21846967915e-07,-0.231631875038,-0.253879010677,11.608089447,9e-08,0.0,0.0,0.0,9e-08,0.0,0.0,0.0,9e-08
3100650000000,1385,3100650000000,base_link,0.00185182155882,-0.00854593504354,0.0169905747465,-0.999817487032,1.0,0.0,0.0,0.0,1.0,0.0,0.0,0.0,1.0,-0.112081259489,-0.00130532856565,0.00420523900539,1.21846967915e-07,0.0,0.0,0.0,1.21846967915e-07,0.0,0.0,0.0,1.21846967915e-07,-0.188156977296,-0.15542961657,11.6123600006,9e-08,0.0,0.0,0.0,9e-08,0.0,0.0,0.0,9e-08
3100670000000,1386,3100670000000,base_link,0.00318799947517,-0.00861679410333,0.0169930614106,-0.999813483081,1.0,0.0,0.0,0.0,1.0,0.0,0.0,0.0,1.0,-0.0990280807018,-0.00154017435852,0.00123064150102,1.21846967915e-07,0.0,0.0,0.0,1.21846967915e-07,0.0,0.0,0.0,1.21846967915e-07,-0.183533892035,-0.0468417294323,11.6300773621,9e-08,0.0,0.0,0.0,9e-08,0.0,0.0,0.0,9e-08
3100690000000,1387,3100690000000,base_link,0.00338051969372,-0.00864946317928,0.0170296448751,-0.999811881501,1.0,0.0,0.0,0.0,1.0,0.0,0.0,0.0,1.0,-0.0186786912382,-0.00247811502777,-0.00107940123416,1.21846967915e-07,0.0,0.0,0.0,1.21846967915e-07,0.0,0.0,0.0,1.21846967915e-07,-0.251657664776,-0.0198340732604,11.5544462204,9e-08,0.0,0.0,0.0,9e-08,0.0,0.0,0.0,9e-08
3100710000000,1388,3100710000000,base_link,0.00303856584814,-0.00866601306131,0.0170726346606,-0.999812134382,1.0,0.0,0.0,0.0,1.0,0.0,0.0,0.0,1.0,0.0336844958365,-0.00628764554858,-0.000528224045411,1.21846967915e-07,0.0,0.0,0.0,1.21846967915e-07,0.0,0.0,0.0,1.21846967915e-07,-0.232861191034,-0.161148265004,11.5923194885,9e-08,0.0,0.0,0.0,9e-08,0.0,0.0,0.0,9e-08
3100730000000,1389,3100730000000,base_link,0.00323280305686,-0.00863236851631,0.0170699372622,-0.999811797207,1.0,0.0,0.0,0.0,1.0,0.0,0.0,0.0,1.0,-0.0448773950338,-0.01058914233,0.00393883977085,1.21846967915e-07,0.0,0.0,0.0,1.21846967915e-07,0.0,0.0,0.0,1.21846967915e-07,-0.260770797729,-0.211090356112,11.5280981064,9e-08,0.0,0.0,0.0,9e-08,0.0,0.0,0.0,9e-08
3100750000000,1390,3100750000000,base_link,0.00416909249771,-0.0086526979499,0.0170850679809,-0.999807961844,1.0,0.0,0.0,0.0,1.0,0.0,0.0,0.0,1.0,-0.107092455029,-0.00292936712503,0.00156554940622,1.21846967915e-07,0.0,0.0,0.0,1.21846967915e-07,0.0,0.0,0.0,1.21846967915e-07,-0.281355410814,-0.168452426791,11.481543541,9e-08,0.0,0.0,0.0,9e-08,0.0,0.0,0.0,9e-08
3100770000000,1391,3100770000000,base_link,0.00513847873918,-0.00869190686673,0.0170709066398,-0.999803325691,1.0,0.0,0.0,0.0,1.0,0.0,0.0,0.0,1.0,-0.0651472955942,-0.00403405213729,0.0029954565689,1.21846967915e-07,0.0,0.0,0.0,1.21846967915e-07,0.0,0.0,0.0,1.21846967915e-07,-0.218033418059,-0.0477846041322,11.467625618,9e-08,0.0,0.0,0.0,9e-08,0.0,0.0,0.0,9e-08
3100790000000,1392,3100786000000,base_link,0.0051400888805,-0.0087179121308,0.0170449863279,-0.999803536425,1.0,0.0,0.0,0.0,1.0,0.0,0.0,0.0,1.0,0.0208505131304,-0.0049886899069,0.00579721201211,1.21846967915e-07,0.0,0.0,0.0,1.21846967915e-07,0.0,0.0,0.0,1.21846967915e-07,-0.239410221577,-0.109138973057,11.4711761475,9e-08,0.0,0.0,0.0,9e-08,0.0,0.0,0.0,9e-08
3100810000000,1393,3100810000000,base_link,0.00479777184762,-0.00872631285382,0.0170057054651,-0.999805812355,1.0,0.0,0.0,0.0,1.0,0.0,0.0,0.0,1.0,0.035706423223,-0.00330871436745,0.00660705287009,1.21846967915e-07,0.0,0.0,0.0,1.21846967915e-07,0.0,0.0,0.0,1.21846967915e-07,-0.164759576321,-0.0610125437379,11.4897661209,9e-08,0.0,0.0,0.0,9e-08,0.0,0.0,0.0,9e-08
3100830000000,1394,3100830000000,base_link,0.0050786247813,-0.00874691657121,0.01703078284,-0.999803831453,1.0,0.0,0.0,0.0,1.0,0.0,0.0,0.0,1.0,-0.0536641925573,-0.00478045083582,-0.00367724942043,1.21846967915e-07,0.0,0.0,0.0,1.21846967915e-07,0.0,0.0,0.0,1.21846967915e-07,-0.186455354095,-0.189210638404,11.5134620667,9e-08,0.0,0.0,0.0,9e-08,0.0,0.0,0.0,9e-08
3100846000000,1395,3100850000000,base_link,0.00598627403919,-0.00871438471947,0.0170426261044,-0.999798900271,1.0,0.0,0.0,0.0,1.0,0.0,0.0,0.0,1.0,-0.0813181400299,-0.00933494977653,-0.000312471442157,1.21846967915e-07,0.0,0.0,0.0,1.21846967915e-07,0.0,0.0,0.0,1.21846967915e-07,-0.147309362888,-0.0599540919065,11.3953485489,9e-08,0.0,0.0,0.0,9e-08,0.0,0.0,0.0,9e-08
3100870000000,1396,3100870000000,base_link,0.00622575803005,-0.00869460039608,0.0170052839966,-0.999798225922,1.0,0.0,0.0,0.0,1.0,0.0,0.0,0.0,1.0,-0.0118161318824,-0.00834684632719,0.00594475399703,1.21846967915e-07,0.0,0.0,0.0,1.21846967915e-07,0.0,0.0,0.0,1.21846967915e-07,-0.154085889459,1.27269886448e-05,11.4463996887,9e-08,0.0,0.0,0.0,9e-08,0.0,0.0,0.0,9e-08
3100890000000,1397,3100890000000,base_link,0.00590857821727,-0.00864449544878,0.0169940729349,-0.999800839027,1.0,0.0,0.0,0.0,1.0,0.0,0.0,0.0,1.0,0.045502461493,-0.0119777098298,0.0031800980214,1.21846967915e-07,0.0,0.0,0.0,1.21846967915e-07,0.0,0.0,0.0,1.21846967915e-07,-0.254340201616,-0.0506128929555,11.4076137543,9e-08,0.0,0.0,0.0,9e-08,0.0,0.0,0.0,9e-08
3100910000000,1398,3100910000000,base_link,0.00549625625683,-0.00850129692116,0.016993777907,-0.999804421509,1.0,0.0,0.0,0.0,1.0,0.0,0.0,0.0,1.0,0.0325508788228,-0.021424183622,0.00418125279248,1.21846967915e-07,0.0,0.0,0.0,1.21846967915e-07,0.0,0.0,0.0,1.21846967915e-07,-0.234705045819,-0.0728191882372,11.4887218475,9e-08,0.0,0.0,0.0,9e-08,0.0,0.0,0.0,9e-08
3100930000000,1399,3100926000000,base_link,0.00579287071245,-0.00830925801632,0.0169541177225,-0.999804969418,1.0,0.0,0.0,0.0,1.0,0.0,0.0,0.0,1.0,-0.0395759604871,-0.0225978456438,0.00644553964958,1.21846967915e-07,0.0,0.0,0.0,1.21846967915e-07,0.0,0.0,0.0,1.21846967915e-07,-0.200979322195,-0.0716428458691,11.4829235077,9e-08,0.0,0.0,0.0,9e-08,0.0,0.0,0.0,9e-08
3100950000000,1400,3100950000000,base_link,0.00621936051711,-0.00822552745717,0.0169718615458,-0.999802819928,1.0,0.0,0.0,0.0,1.0,0.0,0.0,0.0,1.0,-0.0396186113358,-0.0134528838098,-0.00244345841929,1.21846967915e-07,0.0,0.0,0.0,1.21846967915e-07,0.0,0.0,0.0,1.21846967915e-07,-0.231198087335,-0.138253182173,11.5517511368,9e-08,0.0,0.0,0.0,9e-08,0.0,0.0,0.0,9e-08
3100970000000,1401,3100970000000,base_link,0.00607618084032,-0.00821611183475,0.0169829040201,-0.999803578572,1.0,0.0,0.0,0.0,1.0,0.0,0.0,0.0,1.0,0.0364954173565,-0.00517694745213,0.00149789475836,1.21846967915e-07,0.0,0.0,0.0,1.21846967915e-07,0.0,0.0,0.0,1.21846967915e-07,-0.152409374714,0.0515150241554,11.5996675491,9e-08,0.0,0.0,0.0,9e-08,0.0,0.0,0.0,9e-08
3100990000000,1402,3100990000000,base_link,0.00555415450216,-0.00826297196862,0.0169829883138,-0.99980627597,1.0,0.0,0.0,0.0,1.0,0.0,0.0,0.0,1.0,0.0561293028295,0.000597462290898,0.000708134146407,1.21846967915e-07,0.0,0.0,0.0,1.21846967915e-07,0.0,0.0,0.0,1.21846967915e-07,-0.18432508409,-0.0504343546927,11.582906723,9e-08,0.0,0.0,0.0,9e-08,0.0,0.0,0.0,9e-08
3101010000000,1403,3101006000000,base_link,0.00537467313559,-0.0083141728163,0.0169914598303,-0.999806655292,1.0,0.0,0.0,0.0,1.0,0.0,0.0,0.0,1.0,0.0106145795435,-0.00263694254681,0.00102922669612,1.21846967915e-07,0.0,0.0,0.0,1.21846967915e-07,0.0,0.0,0.0,1.21846967915e-07,-0.224318757653,-0.156566828489,11.4910812378,9e-08,0.0,0.0,0.0,9e-08,0.0,0.0,0.0,9e-08
3101030000000,1404,3101030000000,base_link,0.0057150020226,-0.00832655509941,0.016985432831,-0.999804758683,1.0,0.0,0.0,0.0,1.0,0.0,0.0,0.0,1.0,-0.039035294205,-0.0073539451696,0.000935466436204,1.21846967915e-07,0.0,0.0,0.0,1.21846967915e-07,0.0,0.0,0.0,1.21846967915e-07,-0.134400904179,-0.0756733864546,11.4955263138,9e-08,0.0,0.0,0.0,9e-08,0.0,0.0,0.0,9e-08
3101050000000,1405,3101050000000,base_link,0.00601652247016,-0.00817634447218,0.0170282118822,-0.999803536425,1.0,0.0,0.0,0.0,1.0,0.0,0.0,0.0,1.0,-0.0267669372261,-0.0206698775291,-0.00165412691422,1.21846967915e-07,0.0,0.0,0.0,1.21846967915e-07,0.0,0.0,0.0,1.21846967915e-07,-0.244949758053,-0.0930068567395,11.4487829208,9e-08,0.0,0.0,0.0,9e-08,0.0,0.0,0.0,9e-08
3101070000000,1406,3101070000000,base_link,0.00588308595937,-0.00799393908568,0.0170389171817,-0.999805559474,1.0,0.0,0.0,0.0,1.0,0.0,0.0,0.0,1.0,0.0202148482203,-0.0290061142296,-0.000164132303325,1.21846967915e-07,0.0,0.0,0.0,1.21846967915e-07,0.0,0.0,0.0,1.21846967915e-07,-0.206416860223,-0.00736841186881,11.2099237442,9e-08,0.0,0.0,0.0,9e-08,0.0,0.0,0.0,9e-08
3101090000000,1407,3101090000000,base_link,0.00554959696257,-0.00785647129468,0.0170846043655,-0.999807835403,1.0,0.0,0.0,0.0,1.0,0.0,0.0,0.0,1.0,0.0308838747442,-0.0163083095104,-0.00186402059626,1.21846967915e-07,0.0,0.0,0.0,1.21846967915e-07,0.0,0.0,0.0,1.21846967915e-07,-0.166189238429,-0.0927934721112,10.9482145309,9e-08,0.0,0.0,0.0,9e-08,0.0,0.0,0.0,9e-08
3101110000000,1408,3101110000000,base_link,0.00549899209767,-0.00788532048322,0.0171059728177,-0.999807456082,1.0,0.0,0.0,0.0,1.0,0.0,0.0,0.0,1.0,0.00350170023739,3.28451278619e-05,0.000218352040974,1.21846967915e-07,0.0,0.0,0.0,1.21846967915e-07,0.0,0.0,0.0,1.21846967915e-07,-0.172970831394,-0.0817556604743,10.7462177277,9e-08,0.0,0.0,0.0,9e-08,0.0,0.0,0.0,9e-08
3101130000000,1409,3101130000000,base_link,0.00566320346346,-0.00795133100906,0.0170595269907,-0.999806866026,1.0,0.0,0.0,0.0,1.0,0.0,0.0,0.0,1.0,-0.0216936059296,0.0025267158635,0.00627698376775,1.21846967915e-07,0.0,0.0,0.0,1.21846967915e-07,0.0,0.0,0.0,1.21846967915e-07,-0.208798363805,-0.0681532174349,10.5537252426,9e-08,0.0,0.0,0.0,9e-08,0.0,0.0,0.0,9e-08
3101150000000,1410,3101150000000,base_link,0.00592175750387,-0.00810443050641,0.0170604542213,-0.999804084334,1.0,0.0,0.0,0.0,1.0,0.0,0.0,0.0,1.0,-0.0212205946445,0.00487565621734,-0.0002909063478,1.21846967915e-07,0.0,0.0,0.0,1.21846967915e-07,0.0,0.0,0.0,1.21846967915e-07,-0.15557038784,0.0101530514658,10.3961744308,9e-08,0.0,0.0,0.0,9e-08,0.0,0.0,0.0,9e-08
3101170000000,1411,3101170000000,base_link,0.00599878613788,-0.00814114963109,0.0170837192817,-0.999802988516,1.0,0.0,0.0,0.0,1.0,0.0,0.0,0.0,1.0,-0.00813036412001,-0.00128794996999,-0.0034964219667,1.21846967915e-07,0.0,0.0,0.0,1.21846967915e-07,0.0,0.0,0.0,1.21846967915e-07,-0.123221993446,-0.171720191836,10.0902633667,9e-08,0.0,0.0,0.0,9e-08,0.0,0.0,0.0,9e-08
3101190000000,1412,3101190000000,base_link,0.00602350666394,-0.00821001618215,0.0171467288202,-0.999801176201,1.0,0.0,0.0,0.0,1.0,0.0,0.0,0.0,1.0,0.000209581048694,0.000785485666711,-0.00182263168972,1.21846967915e-07,0.0,0.0,0.0,1.21846967915e-07,0.0,0.0,0.0,1.21846967915e-07,-0.219344049692,-0.150286018848,9.94101524353,9e-08,0.0,0.0,0.0,9e-08,0.0,0.0,0.0,9e-08
3101210000000,1413,3101210000000,base_link,0.00606075896272,-0.00823075926402,0.0171659056363,-0.999800459705,1.0,0.0,0.0,0.0,1.0,0.0,0.0,0.0,1.0,-0.00463723344728,-0.00646858429536,0.000728149956558,1.21846967915e-07,0.0,0.0,0.0,1.21846967915e-07,0.0,0.0,0.0,1.21846967915e-07,-0.251319915056,-0.0993000641465,9.68749809265,9e-08,0.0,0.0,0.0,9e-08,0.0,0.0,0.0,9e-08
3101230000000,1414,3101230000000,base_link,0.00630212828419,-0.00823527597384,0.0171935539689,-0.999798436656,1.0,0.0,0.0,0.0,1.0,0.0,0.0,0.0,1.0,-0.0217434447259,-0.00739582581446,-0.00115938740782,1.21846967915e-07,0.0,0.0,0.0,1.21846967915e-07,0.0,0.0,0.0,1.21846967915e-07,-0.169283434749,-0.0700549706817,9.57229614258,9e-08,0.0,0.0,0.0,9e-08,0.0,0.0,0.0,9e-08
3101250000000,1415,3101250000000,base_link,0.00652246575203,-0.00828799871788,0.0172284515595,-0.999795992139,1.0,0.0,0.0,0.0,1.0,0.0,0.0,0.0,1.0,-0.0210781171918,-0.00124826189131,-0.00292228511535,1.21846967915e-07,0.0,0.0,0.0,1.21846967915e-07,0.0,0.0,0.0,1.21846967915e-07,-0.102412313223,-0.164385378361,9.61209487915,9e-08,0.0,0.0,0.0,9e-08,0.0,0.0,0.0,9e-08
3101270000000,1416,3101270000000,base_link,0.00665164798299,-0.00832215528124,0.0172625062131,-0.999794221971,1.0,0.0,0.0,0.0,1.0,0.0,0.0,0.0,1.0,-0.0144786611199,-0.00117268029135,-0.00185019976925,1.21846967915e-07,0.0,0.0,0.0,1.21846967915e-07,0.0,0.0,0.0,1.21846967915e-07,-0.21057087183,-0.0863059386611,9.57100009918,9e-08,0.0,0.0,0.0,9e-08,0.0,0.0,0.0,9e-08
3101290000000,1417,3101290000000,base_link,0.00686290288729,-0.0084445282443,0.0172900281052,-0.999791313839,1.0,0.0,0.0,0.0,1.0,0.0,0.0,0.0,1.0,-0.018592139706,0.00475297309458,-0.00223437324166,1.21846967915e-07,0.0,0.0,0.0,1.21846967915e-07,0.0,0.0,0.0,1.21846967915e-07,-0.237078204751,-0.136663019657,9.48241901398,9e-08,0.0,0.0,0.0,9e-08,0.0,0.0,0.0,9e-08
3101310000000,1418,3101310000000,base_link,0.00702540854049,-0.00848822736453,0.0172796178336,-0.999790007286,1.0,0.0,0.0,0.0,1.0,0.0,0.0,0.0,1.0,-0.0198650546372,-0.000364990613889,0.00435177842155,1.21846967915e-07,0.0,0.0,0.0,1.21846967915e-07,0.0,0.0,0.0,1.21846967915e-07,-0.211343362927,-0.0763856172562,9.62741088867,9e-08,0.0,0.0,0.0,9e-08,0.0,0.0,0.0,9e-08
3101330000000,1419,3101330000000,base_link,0.00719576791317,-0.00853010635007,0.01729036528,-0.999788279266,1.0,0.0,0.0,0.0,1.0,0.0,0.0,0.0,1.0,-0.0161624066532,-0.00245932582766,0.00153540004976,1.21846967915e-07,0.0,0.0,0.0,1.21846967915e-07,0.0,0.0,0.0,1.21846967915e-07,-0.193538859487,-0.0654950514436,9.77000427246,9e-08,0.0,0.0,0.0,9e-08,0.0,0.0,0.0,9e-08
3101350000000,1420,3101350000000,base_link,0.00738951347725,-0.00855079473158,0.0172828209941,-0.999786804126,1.0,0.0,0.0,0.0,1.0,0.0,0.0,0.0,1.0,-0.0185536835343,-0.00537877995521,0.00302626797929,1.21846967915e-07,0.0,0.0,0.0,1.21846967915e-07,0.0,0.0,0.0,1.21846967915e-07,-0.178122282028,-0.100192651153,9.80258083344,9e-08,0.0,0.0,0.0,9e-08,0.0,0.0,0.0,9e-08
3101370000000,1421,3101370000000,base_link,0.00757356106796,-0.00864265753338,0.0173123659349,-0.999784148875,1.0,0.0,0.0,0.0,1.0,0.0,0.0,0.0,1.0,-0.0129940854385,0.000418010080466,0.0010319177527,1.21846967915e-07,0.0,0.0,0.0,1.21846967915e-07,0.0,0.0,0.0,1.21846967915e-07,-0.227208644152,-0.135006502271,9.8733625412,9e-08,0.0,0.0,0.0,9e-08,0.0,0.0,0.0,9e-08
3101390000000,1422,3101390000000,base_link,0.00762939193628,-0.00872827017158,0.0173027143066,-0.999783095203,1.0,0.0,0.0,0.0,1.0,0.0,0.0,0.0,1.0,-0.00524688325822,0.00240087579004,0.00375035079196,1.21846967915e-07,0.0,0.0,0.0,1.21846967915e-07,0.0,0.0,0.0,1.21846967915e-07,-0.100851021707,-0.0530998259783,9.87864780426,9e-08,0.0,0.0,0.0,9e-08,0.0,0.0,0.0,9e-08
3101410000000,1423,3101410000000,base_link,0.0076406438689,-0.00881972484042,0.0172943270837,-0.999782378707,1.0,0.0,0.0,0.0,1.0,0.0,0.0,0.0,1.0,-0.00123089819681,0.00557636655867,0.00462419306859,1.21846967915e-07,0.0,0.0,0.0,1.21846967915e-07,0.0,0.0,0.0,1.21846967915e-07,-0.220051527023,-0.119843252003,9.89349842072,9e-08,0.0,0.0,0.0,9e-08,0.0,0.0,0.0,9e-08
3101430000000,1424,3101430000000,base_link,0.00774727733011,-0.00889257373359,0.0172919668602,-0.999780945714,1.0,0.0,0.0,0.0,1.0,0.0,0.0,0.0,1.0,-0.00938415154815,-0.000140856674989,0.00330194225535,1.21846967915e-07,0.0,0.0,0.0,1.21846967915e-07,0.0,0.0,0.0,1.21846967915e-07,-0.196340799332,-0.0418489016592,9.90442085266,9e-08,0.0,0.0,0.0,9e-08,0.0,0.0,0.0,9e-08
3101450000000,1425,3101450000000,base_link,0.00784907369959,-0.0089076914048,0.0172850969239,-0.999780144924,1.0,0.0,0.0,0.0,1.0,0.0,0.0,0.0,1.0,-0.0118160136044,-0.00392762199044,0.002546033822,1.21846967915e-07,0.0,0.0,0.0,1.21846967915e-07,0.0,0.0,0.0,1.21846967915e-07,-0.221260383725,-0.0876564234495,9.83038806915,9e-08,0.0,0.0,0.0,9e-08,0.0,0.0,0.0,9e-08
3101470000000,1426,3101470000000,base_link,0.00790264300259,-0.00893604767277,0.0172599352553,-0.99977993419,1.0,0.0,0.0,0.0,1.0,0.0,0.0,0.0,1.0,-0.00601063668728,-0.00367662170902,0.00315462844446,1.21846967915e-07,0.0,0.0,0.0,1.21846967915e-07,0.0,0.0,0.0,1.21846967915e-07,-0.129988014698,-0.0630005225539,9.75613975525,9e-08,0.0,0.0,0.0,9e-08,0.0,0.0,0.0,9e-08
3101490000000,1427,3101490000000,base_link,0.00785380628854,-0.00895337961756,0.0172401262365,-0.999780439952,1.0,0.0,0.0,0.0,1.0,0.0,0.0,0.0,1.0,0.00935391057283,-0.00423699012026,0.00701911794022,1.21846967915e-07,0.0,0.0,0.0,1.21846967915e-07,0.0,0.0,0.0,1.21846967915e-07,-0.225350707769,-0.117604337633,9.73954391479,9e-08,0.0,0.0,0.0,9e-08,0.0,0.0,0.0,9e-08
3101510000000,1428,3101510000000,base_link,0.00782371302711,-0.00894103890507,0.0172024048071,-0.999781493623,1.0,0.0,0.0,0.0,1.0,0.0,0.0,0.0,1.0,0.00148988468572,-0.00377501989715,0.00559933017939,1.21846967915e-07,0.0,0.0,0.0,1.21846967915e-07,0.0,0.0,0.0,1.21846967915e-07,-0.221289157867,-0.0603277236223,9.84701633453,9e-08,0.0,0.0,0.0,9e-08,0.0,0.0,0.0,9e-08
3101530000000,1429,3101530000000,base_link,0.00787030859073,-0.00892413052787,0.0171966306889,-0.999781367183,1.0,0.0,0.0,0.0,1.0,0.0,0.0,0.0,1.0,-0.00715017784387,-0.00767672946677,0.00143071403727,1.21846967915e-07,0.0,0.0,0.0,1.21846967915e-07,0.0,0.0,0.0,1.21846967915e-07,-0.179580435157,-0.128152489662,9.81855392456,9e-08,0.0,0.0,0.0,9e-08,0.0,0.0,0.0,9e-08
3101550000000,1430,3101550000000,base_link,0.00790287390476,-0.00892453853735,0.0172296738181,-0.999780524246,1.0,0.0,0.0,0.0,1.0,0.0,0.0,0.0,1.0,-0.00159955001436,-0.00395692698658,-0.00157930841669,1.21846967915e-07,0.0,0.0,0.0,1.21846967915e-07,0.0,0.0,0.0,1.21846967915e-07,-0.264033257961,-0.114682279527,9.92731285095,9e-08,0.0,0.0,0.0,9e-08,0.0,0.0,0.0,9e-08
3101570000000,1431,3101570000000,base_link,0.00793866699238,-0.00900429103493,0.0172554255425,-0.999779049106,1.0,0.0,0.0,0.0,1.0,0.0,0.0,0.0,1.0,-0.00399489607662,0.00353017845191,0.00023949133174,1.21846967915e-07,0.0,0.0,0.0,1.21846967915e-07,0.0,0.0,0.0,1.21846967915e-07,-0.193460151553,-0.0306413006037,9.84359264374,9e-08,0.0,0.0,0.0,9e-08,0.0,0.0,0.0,9e-08
3101590000000,1432,3101590000000,base_link,0.00792317921916,-0.0091218387189,0.017271989254,-0.999777826847,1.0,0.0,0.0,0.0,1.0,0.0,0.0,0.0,1.0,0.00214343541302,0.00925978459418,-0.000103184080217,1.21846967915e-07,0.0,0.0,0.0,1.21846967915e-07,0.0,0.0,0.0,1.21846967915e-07,-0.234288617969,-0.147229656577,9.90120410919,9e-08,0.0,0.0,0.0,9e-08,0.0,0.0,0.0,9e-08
3101610000000,1433,3101610000000,base_link,0.00787419602012,-0.00929371949403,0.0172673531007,-0.999776731029,1.0,0.0,0.0,0.0,1.0,0.0,0.0,0.0,1.0,0.00359458941966,0.00606413371861,0.00206586741842,1.21846967915e-07,0.0,0.0,0.0,1.21846967915e-07,0.0,0.0,0.0,1.21846967915e-07,-0.173487484455,-0.0286009144038,9.97647857666,9e-08,0.0,0.0,0.0,9e-08,0.0,0.0,0.0,9e-08
3101630000000,1434,3101630000000,base_link,0.00779851559135,-0.00942903903053,0.0172848861897,-0.999775719505,1.0,0.0,0.0,0.0,1.0,0.0,0.0,0.0,1.0,0.0109949773178,0.0105150630698,0.000141824988532,1.21846967915e-07,0.0,0.0,0.0,1.21846967915e-07,0.0,0.0,0.0,1.21846967915e-07,-0.160624325275,-0.104083590209,9.80695343018,9e-08,0.0,0.0,0.0,9e-08,0.0,0.0,0.0,9e-08
3101650000000,1435,3101650000000,base_link,0.00773780659575,-0.00958374603502,0.0172844225743,-0.999774750127,1.0,0.0,0.0,0.0,1.0,0.0,0.0,0.0,1.0,0.0055974368006,0.00696654943749,0.00131773063913,1.21846967915e-07,0.0,0.0,0.0,1.21846967915e-07,0.0,0.0,0.0,1.21846967915e-07,-0.135019898415,-0.105468735099,9.84473609924,9e-08,0.0,0.0,0.0,9e-08,0.0,0.0,0.0,9e-08
3101670000000,1436,3101670000000,base_link,0.00778776155953,-0.00964380883382,0.0172914189512,-0.999773654309,1.0,0.0,0.0,0.0,1.0,0.0,0.0,0.0,1.0,-0.00649881456047,0.00140532187652,0.00140121649019,1.21846967915e-07,0.0,0.0,0.0,1.21846967915e-07,0.0,0.0,0.0,1.21846967915e-07,-0.18804012239,-0.11423701793,9.80711936951,9e-08,0.0,0.0,0.0,9e-08,0.0,0.0,0.0,9e-08
3101690000000,1437,3101690000000,base_link,0.00789704644441,-0.009747381339,0.0172804186237,-0.999772010582,1.0,0.0,0.0,0.0,1.0,0.0,0.0,0.0,1.0,-0.0101370615885,0.00326889427379,0.00558456033468,1.21846967915e-07,0.0,0.0,0.0,1.21846967915e-07,0.0,0.0,0.0,1.21846967915e-07,-0.202362045646,-0.059030815959,9.75198936462,9e-08,0.0,0.0,0.0,9e-08,0.0,0.0,0.0,9e-08
3101710000000,1438,3101710000000,base_link,0.00793562373473,-0.00984058934144,0.0172483027251,-0.999771336233,1.0,0.0,0.0,0.0,1.0,0.0,0.0,0.0,1.0,-0.000920472317375,0.00466399360448,0.00851969048381,1.21846967915e-07,0.0,0.0,0.0,1.21846967915e-07,0.0,0.0,0.0,1.21846967915e-07,-0.153956666589,-0.196131616831,9.7632188797,9e-08,0.0,0.0,0.0,9e-08,0.0,0.0,0.0,9e-08
3101730000000,1439,3101730000000,base_link,0.00796760545485,-0.00994422959438,0.0172337199156,-0.999770324708,1.0,0.0,0.0,0.0,1.0,0.0,0.0,0.0,1.0,-0.00045603804756,0.00126089085825,0.000632245617453,1.21846967915e-07,0.0,0.0,0.0,1.21846967915e-07,0.0,0.0,0.0,1.21846967915e-07,-0.197185561061,-0.1246394068,9.87494182587,9e-08,0.0,0.0,0.0,9e-08,0.0,0.0,0.0,9e-08
3101750000000,1440,3101750000000,base_link,0.00801970496883,-0.0100100806701,0.017232750538,-0.999769271037,1.0,0.0,0.0,0.0,1.0,0.0,0.0,0.0,1.0,-0.0041576474905,0.00161921279505,0.00167308677919,1.21846967915e-07,0.0,0.0,0.0,1.21846967915e-07,0.0,0.0,0.0,1.21846967915e-07,-0.297176420689,-0.14254745841,9.79370689392,9e-08,0.0,0.0,0.0,9e-08,0.0,0.0,0.0,9e-08
3101770000000,1441,3101770000000,base_link,0.00808592450024,-0.0100871116914,0.0172039642405,-0.999768470247,1.0,0.0,0.0,0.0,1.0,0.0,0.0,0.0,1.0,-0.00703908363357,0.0059325741604,0.00382018415257,1.21846967915e-07,0.0,0.0,0.0,1.21846967915e-07,0.0,0.0,0.0,1.21846967915e-07,-0.224006175995,-0.142031908035,9.84218406677,9e-08,0.0,0.0,0.0,9e-08,0.0,0.0,0.0,9e-08
3101790000000,1442,3101790000000,base_link,0.00818195914034,-0.0102418731904,0.0171922895635,-0.999766320758,1.0,0.0,0.0,0.0,1.0,0.0,0.0,0.0,1.0,-0.00819985382259,0.00921270437539,0.00516807055101,1.21846967915e-07,0.0,0.0,0.0,1.21846967915e-07,0.0,0.0,0.0,1.21846967915e-07,-0.301208972931,-0.0573594942689,9.90606594086,9e-08,0.0,0.0,0.0,9e-08,0.0,0.0,0.0,9e-08
3101810000000,1443,3101810000000,base_link,0.00820746975517,-0.0103548241926,0.0172203593646,-0.999764466296,1.0,0.0,0.0,0.0,1.0,0.0,0.0,0.0,1.0,-0.00116223935038,0.00448245601729,0.000465367862489,1.21846967915e-07,0.0,0.0,0.0,1.21846967915e-07,0.0,0.0,0.0,1.21846967915e-07,-0.15435308218,-0.0831231251359,9.93740081787,9e-08,0.0,0.0,0.0,9e-08,0.0,0.0,0.0,9e-08
3101830000000,1444,3101830000000,base_link,0.00812818840504,-0.0105545559674,0.0233177439387,-0.99963937445,1.0,0.0,0.0,0.0,1.0,0.0,0.0,0.0,1.0,0.00196208525449,0.00571555644274,0.0094943549484,1.21846967915e-07,0.0,0.0,0.0,1.21846967915e-07,0.0,0.0,0.0,1.21846967915e-07,-0.118282854557,-0.163020521402,9.9473323822,9e-08,0.0,0.0,0.0,9e-08,0.0,0.0,0.0,9e-08
3101850000000,1445,3101850000000,base_link,0.00821948498204,-0.0107688530181,0.023275091328,-0.999637351401,1.0,0.0,0.0,0.0,1.0,0.0,0.0,0.0,1.0,-0.0102189136669,0.0161350816488,0.00328995543532,1.21846967915e-07,0.0,0.0,0.0,1.21846967915e-07,0.0,0.0,0.0,1.21846967915e-07,-0.225787445903,-0.0460869148374,9.75541114807,9e-08,0.0,0.0,0.0,9e-08,0.0,0.0,0.0,9e-08
3101870000000,1446,3101866000000,base_link,0.00825622690882,-0.0109410633124,0.0232399408563,-0.999636002702,1.0,0.0,0.0,0.0,1.0,0.0,0.0,0.0,1.0,-0.00381586211734,0.0152672510594,0.00340205081739,1.21846967915e-07,0.0,0.0,0.0,1.21846967915e-07,0.0,0.0,0.0,1.21846967915e-07,-0.17529425025,-0.0469171740115,9.81227493286,9e-08,0.0,0.0,0.0,9e-08,0.0,0.0,0.0,9e-08
3101890000000,1447,3101890000000,base_link,0.00830918763438,-0.0111124265539,0.0231295582601,-0.999636213436,1.0,0.0,0.0,0.0,1.0,0.0,0.0,0.0,1.0,-0.00323471426964,0.00809782650322,0.00815353542566,1.21846967915e-07,0.0,0.0,0.0,1.21846967915e-07,0.0,0.0,0.0,1.21846967915e-07,-0.198047161102,-0.159148275852,9.71924972534,9e-08,0.0,0.0,0.0,9e-08,0.0,0.0,0.0,9e-08
3101910000000,1448,3101910000000,base_link,0.00836013016797,-0.0112331995007,0.0230032863019,-0.999637309254,1.0,0.0,0.0,0.0,1.0,0.0,0.0,0.0,1.0,-0.00736434245482,0.00393315404654,0.0120450975373,1.21846967915e-07,0.0,0.0,0.0,1.21846967915e-07,0.0,0.0,0.0,1.21846967915e-07,-0.281260937452,-0.0863156020641,9.70120716095,9e-08,0.0,0.0,0.0,9e-08,0.0,0.0,0.0,9e-08
3101930000000,1449,3101930000000,base_link,0.00850731577101,-0.011262831781,0.0228626001216,-0.999638995128,1.0,0.0,0.0,0.0,1.0,0.0,0.0,0.0,1.0,-0.015730317682,-0.00644795224071,0.0103811919689,1.21846967915e-07,0.0,0.0,0.0,1.21846967915e-07,0.0,0.0,0.0,1.21846967915e-07,-0.193761333823,-0.073097191751,9.74580001831,9e-08,0.0,0.0,0.0,9e-08,0.0,0.0,0.0,9e-08
3101950000000,1450,3101950000000,base_link,0.00859586029051,-0.0112708773016,0.0226929169095,-0.999642029701,1.0,0.0,0.0,0.0,1.0,0.0,0.0,0.0,1.0,-0.0044069760479,-0.00231358734891,0.0134807387367,1.21846967915e-07,0.0,0.0,0.0,1.21846967915e-07,0.0,0.0,0.0,1.21846967915e-07,-0.199346512556,-0.0845439508557,9.75844764709,9e-08,0.0,0.0,0.0,9e-08,0.0,0.0,0.0,9e-08
3101970000000,1451,3101970000000,base_link,0.00853562635245,-0.0113095478582,0.0223775741889,-0.999649194666,1.0,0.0,0.0,0.0,1.0,0.0,0.0,0.0,1.0,0.0115090366453,-0.00168147939257,0.0217864215374,1.21846967915e-07,0.0,0.0,0.0,1.21846967915e-07,0.0,0.0,0.0,1.21846967915e-07,-0.228267982602,-0.0737556517124,9.79281902313,9e-08,0.0,0.0,0.0,9e-08,0.0,0.0,0.0,9e-08
3101986000000,1452,3101986000000,base_link,0.00843367016245,-0.0113578853544,0.0222147187663,-0.999653156469,1.0,0.0,0.0,0.0,1.0,0.0,0.0,0.0,1.0,0.013605043292,0.000742353731766,0.0148649755865,1.21846967915e-07,0.0,0.0,0.0,1.21846967915e-07,0.0,0.0,0.0,1.21846967915e-07,-0.279650211334,-0.0873170271516,9.80689525604,9e-08,0.0,0.0,0.0,9e-08,0.0,0.0,0.0,9e-08
3102010000000,1453,3102010000000,base_link,0.00833759115292,-0.0113248962258,0.0219052344577,-0.999661122224,1.0,0.0,0.0,0.0,1.0,0.0,0.0,0.0,1.0,0.00377479847521,-0.00973455701023,0.0215023085475,1.21846967915e-07,0.0,0.0,0.0,1.21846967915e-07,0.0,0.0,0.0,1.21846967915e-07,-0.266589939594,-0.152672216296,9.89393043518,9e-08,0.0,0.0,0.0,9e-08,0.0,0.0,0.0,9e-08
3102030000000,1454,3102030000000,base_link,0.00842943539199,-0.0112775076923,0.0216523112197,-0.999666474873,1.0,0.0,0.0,0.0,1.0,0.0,0.0,0.0,1.0,-0.0122684584931,-0.0117708062753,0.0255966298282,1.21846967915e-07,0.0,0.0,0.0,1.21846967915e-07,0.0,0.0,0.0,1.21846967915e-07,-0.237940058112,-0.0855779796839,9.83515930176,9e-08,0.0,0.0,0.0,9e-08,0.0,0.0,0.0,9e-08
3102050000000,1455,3102050000000,base_link,0.00841450108428,-0.0111579132108,0.021364574685,-0.999674103453,1.0,0.0,0.0,0.0,1.0,0.0,0.0,0.0,1.0,0.00616758968681,-0.0148067250848,0.0189343448728,1.21846967915e-07,0.0,0.0,0.0,1.21846967915e-07,0.0,0.0,0.0,1.21846967915e-07,-0.225807130337,-0.11629140377,9.87186145782,9e-08,0.0,0.0,0.0,9e-08,0.0,0.0,0.0,9e-08
3102070000000,1456,3102070000000,base_link,0.00824201197866,-0.0110677536932,0.0211736073144,-0.999680636215,1.0,0.0,0.0,0.0,1.0,0.0,0.0,0.0,1.0,0.0242615826428,-0.016480512917,0.0178919602185,1.21846967915e-07,0.0,0.0,0.0,1.21846967915e-07,0.0,0.0,0.0,1.21846967915e-07,-0.155638039112,-0.0674010142684,9.86674404144,9e-08,0.0,0.0,0.0,9e-08,0.0,0.0,0.0,9e-08
3102090000000,1457,3102090000000,base_link,0.00810384785916,-0.0110229491237,0.0209042046587,-0.999687885473,1.0,0.0,0.0,0.0,1.0,0.0,0.0,0.0,1.0,0.00818855501711,-0.0110879493877,0.0198215916753,1.21846967915e-07,0.0,0.0,0.0,1.21846967915e-07,0.0,0.0,0.0,1.21846967915e-07,-0.257091522217,-0.119378000498,9.90825843811,9e-08,0.0,0.0,0.0,9e-08,0.0,0.0,0.0,9e-08
3102110000000,1458,3102110000000,base_link,0.00822445370035,-0.0109463142993,0.0205763021773,-0.999694544675,1.0,0.0,0.0,0.0,1.0,0.0,0.0,0.0,1.0,-0.0140476133674,-0.0146299526095,0.0175179131329,1.21846967915e-07,0.0,0.0,0.0,1.21846967915e-07,0.0,0.0,0.0,1.21846967915e-07,-0.189648389816,-0.210165902972,9.87342834473,9e-08,0.0,0.0,0.0,9e-08,0.0,0.0,0.0,9e-08
3102130000000,1459,3102130000000,base_link,0.00835616894044,-0.0108666846615,0.0203479926989,-0.999699054387,1.0,0.0,0.0,0.0,1.0,0.0,0.0,0.0,1.0,-0.0134283918887,-0.0147096011788,0.0201522465795,1.21846967915e-07,0.0,0.0,0.0,1.21846967915e-07,0.0,0.0,0.0,1.21846967915e-07,-0.142826288939,-0.163399174809,9.97699451447,9e-08,0.0,0.0,0.0,9e-08,0.0,0.0,0.0,9e-08
3102150000000,1460,3102150000000,base_link,0.00831725101797,-0.010740182789,0.0200260329231,-0.999707188729,1.0,0.0,0.0,0.0,1.0,0.0,0.0,0.0,1.0,0.0103301219642,-0.0152084631845,0.0200549475849,1.21846967915e-07,0.0,0.0,0.0,1.21846967915e-07,0.0,0.0,0.0,1.21846967915e-07,-0.178808480501,-0.106898419559,9.84760189056,9e-08,0.0,0.0,0.0,9e-08,0.0,0.0,0.0,9e-08
3102170000000,1461,3102170000000,base_link,0.00807488622415,-0.0106627201742,0.0197429746885,-0.999715618099,1.0,0.0,0.0,0.0,1.0,0.0,0.0,0.0,1.0,0.0275747664273,-0.0126945758238,0.0213969126344,1.21846967915e-07,0.0,0.0,0.0,1.21846967915e-07,0.0,0.0,0.0,1.21846967915e-07,-0.230934083462,-0.155762270093,9.85881710052,9e-08,0.0,0.0,0.0,9e-08,0.0,0.0,0.0,9e-08
3102190000000,1462,3102190000000,base_link,0.00800728695968,-0.0105892894981,0.0195209450905,-0.99972135007,1.0,0.0,0.0,0.0,1.0,0.0,0.0,0.0,1.0,0.0055697709322,-0.0124301053584,0.0208337642252,1.21846967915e-07,0.0,0.0,0.0,1.21846967915e-07,0.0,0.0,0.0,1.21846967915e-07,-0.214611932635,-0.225258603692,9.81395435333,9e-08,0.0,0.0,0.0,9e-08,0.0,0.0,0.0,9e-08
3102210000000,1463,3102206000000,base_link,0.0081413164898,-0.0104738058984,0.0192811295225,-0.999726154811,1.0,0.0,0.0,0.0,1.0,0.0,0.0,0.0,1.0,-0.0216425359249,-0.0173230543733,0.0178366620094,1.21846967915e-07,0.0,0.0,0.0,1.21846967915e-07,0.0,0.0,0.0,1.21846967915e-07,-0.246007174253,-0.101068675518,9.87781143188,9e-08,0.0,0.0,0.0,9e-08,0.0,0.0,0.0,9e-08
3102230000000,1464,3102230000000,base_link,0.00835389646798,-0.0104335472616,0.0190758743703,-0.999728683622,1.0,0.0,0.0,0.0,1.0,0.0,0.0,0.0,1.0,-0.0210724771023,-0.00745471287519,0.0135032013059,1.21846967915e-07,0.0,0.0,0.0,1.21846967915e-07,0.0,0.0,0.0,1.21846967915e-07,-0.274469733238,-0.0984574183822,9.76127910614,9e-08,0.0,0.0,0.0,9e-08,0.0,0.0,0.0,9e-08
3102246000000,1465,3102246000000,base_link,0.00848932845095,-0.0104768337214,0.0189059382771,-0.999730369496,1.0,0.0,0.0,0.0,1.0,0.0,0.0,0.0,1.0,-0.0051526161842,0.00171170709655,0.0137700755149,1.21846967915e-07,0.0,0.0,0.0,1.21846967915e-07,0.0,0.0,0.0,1.21846967915e-07,-0.253904908895,-0.143604055047,9.77991008759,9e-08,0.0,0.0,0.0,9e-08,0.0,0.0,0.0,9e-08
3102270000000,1466,3102270000000,base_link,0.00851384235867,-0.0106076046086,0.0187300173314,-0.99973205537,1.0,0.0,0.0,0.0,1.0,0.0,0.0,0.0,1.0,-0.000626764376648,0.00742807239294,0.0134293315932,1.21846967915e-07,0.0,0.0,0.0,1.21846967915e-07,0.0,0.0,0.0,1.21846967915e-07,-0.167627543211,-0.127187356353,9.81102275848,9e-08,0.0,0.0,0.0,9e-08,0.0,0.0,0.0,9e-08
3102290000000,1467,3102290000000,base_link,0.00855993405342,-0.0106371717753,0.0186205619658,-0.999733446216,1.0,0.0,0.0,0.0,1.0,0.0,0.0,0.0,1.0,-0.00794335082173,-0.00201958185062,0.0140732321888,1.21846967915e-07,0.0,0.0,0.0,1.21846967915e-07,0.0,0.0,0.0,1.21846967915e-07,-0.233868092299,-0.168284624815,9.73307609558,9e-08,0.0,0.0,0.0,9e-08,0.0,0.0,0.0,9e-08
3102310000000,1468,3102310000000,base_link,0.00867203273434,-0.0106520878908,0.0184963552032,-0.999734584181,1.0,0.0,0.0,0.0,1.0,0.0,0.0,0.0,1.0,-0.0090765664354,-0.00205022329465,0.0135463215411,1.21846967915e-07,0.0,0.0,0.0,1.21846967915e-07,0.0,0.0,0.0,1.21846967915e-07,-0.122934490442,-0.103477321565,9.7132768631,9e-08,0.0,0.0,0.0,9e-08,0.0,0.0,0.0,9e-08
3102330000000,1469,3102330000000,base_link,0.0087059614413,-0.0107049751063,0.0183530137715,-0.999736396495,1.0,0.0,0.0,0.0,1.0,0.0,0.0,0.0,1.0,-0.00156748329755,0.000931618968025,0.014299608767,1.21846967915e-07,0.0,0.0,0.0,1.21846967915e-07,0.0,0.0,0.0,1.21846967915e-07,-0.352607339621,-0.143801480532,9.88999938965,9e-08,0.0,0.0,0.0,9e-08,0.0,0.0,0.0,9e-08
3102350000000,1470,3102350000000,base_link,0.00861775656613,-0.0108193544915,0.0182280483656,-0.99973820881,1.0,0.0,0.0,0.0,1.0,0.0,0.0,0.0,1.0,0.00863498449326,0.00654142396525,0.015469269827,1.21846967915e-07,0.0,0.0,0.0,1.21846967915e-07,0.0,0.0,0.0,1.21846967915e-07,-0.224847599864,-0.121919497848,9.82444953918,9e-08,0.0,0.0,0.0,9e-08,0.0,0.0,0.0,9e-08
3102370000000,1471,3102370000000,base_link,0.00864250121138,-0.0108961047258,0.0181045159526,-0.999739431068,1.0,0.0,0.0,0.0,1.0,0.0,0.0,0.0,1.0,-0.00435288017616,-0.000380211567972,0.0126863140613,1.21846967915e-07,0.0,0.0,0.0,1.21846967915e-07,0.0,0.0,0.0,1.21846967915e-07,-0.189174234867,-0.151286944747,9.83862686157,9e-08,0.0,0.0,0.0,9e-08,0.0,0.0,0.0,9e-08
3102390000000,1472,3102390000000,base_link,0.00875639500231,-0.0109395345836,0.0179645041219,-0.999740442593,1.0,0.0,0.0,0.0,1.0,0.0,0.0,0.0,1.0,-0.0082991393283,-0.000468489073683,0.0139884185046,1.21846967915e-07,0.0,0.0,0.0,1.21846967915e-07,0.0,0.0,0.0,1.21846967915e-07,-0.264517307281,-0.0897389948368,9.87194252014,9e-08,0.0,0.0,0.0,9e-08,0.0,0.0,0.0,9e-08
3102410000000,1473,3102410000000,base_link,0.00874346374003,-0.0110427852252,0.0178946667939,-0.999740737621,1.0,0.0,0.0,0.0,1.0,0.0,0.0,0.0,1.0,0.00451465789229,0.00639305636287,0.00919311121106,1.21846967915e-07,0.0,0.0,0.0,1.21846967915e-07,0.0,0.0,0.0,1.21846967915e-07,-0.131495177746,-0.16385653615,9.90004730225,9e-08,0.0,0.0,0.0,9e-08,0.0,0.0,0.0,9e-08
3102430000000,1474,3102430000000,base_link,0.00859930233802,-0.0111764731353,0.0178638153008,-0.999740990502,1.0,0.0,0.0,0.0,1.0,0.0,0.0,0.0,1.0,0.016668394208,0.00845108460635,0.00370544986799,1.21846967915e-07,0.0,0.0,0.0,1.21846967915e-07,0.0,0.0,0.0,1.21846967915e-07,-0.220622986555,-0.120239362121,9.93050384521,9e-08,0.0,0.0,0.0,9e-08,0.0,0.0,0.0,9e-08
3102446000000,1475,3102446000000,base_link,0.00851841018801,-0.0112323208377,0.0177999206785,-0.999742254907,1.0,0.0,0.0,0.0,1.0,0.0,0.0,0.0,1.0,0.00936419516802,-0.00112177571282,0.0104111786932,1.21846967915e-07,0.0,0.0,0.0,1.21846967915e-07,0.0,0.0,0.0,1.21846967915e-07,-0.0977627485991,-0.160810396075,9.81918525696,9e-08,0.0,0.0,0.0,9e-08,0.0,0.0,0.0,9e-08
3102470000000,1476,3102470000000,base_link,0.00853255448927,-0.0112291386683,0.017781418212,-0.999742465641,1.0,0.0,0.0,0.0,1.0,0.0,0.0,0.0,1.0,-0.00507387239486,-0.00899618212134,0.00389374606311,1.21846967915e-07,0.0,0.0,0.0,1.21846967915e-07,0.0,0.0,0.0,1.21846967915e-07,-0.182760223746,-0.200719118118,9.83036613464,9e-08,0.0,0.0,0.0,9e-08,0.0,0.0,0.0,9e-08
3102486000000,1477,3102490000000,base_link,0.00868796811203,-0.0112295524812,0.0177345087696,-0.999741917732,1.0,0.0,0.0,0.0,1.0,0.0,0.0,0.0,1.0,-0.0176721066236,-0.00745531497523,0.0117444116622,1.21846967915e-07,0.0,0.0,0.0,1.21846967915e-07,0.0,0.0,0.0,1.21846967915e-07,-0.21217212081,-0.204408288002,9.82888031006,9e-08,0.0,0.0,0.0,9e-08,0.0,0.0,0.0,9e-08
3102510000000,1478,3102510000000,base_link,0.00878943508577,-0.0112251523338,0.0177134774922,-0.999741454117,1.0,0.0,0.0,0.0,1.0,0.0,0.0,0.0,1.0,-0.00550803542137,-0.0086809117347,0.00616579968482,1.21846967915e-07,0.0,0.0,0.0,1.21846967915e-07,0.0,0.0,0.0,1.21846967915e-07,-0.23794990778,-0.0720940455794,9.8460111618,9e-08,0.0,0.0,0.0,9e-08,0.0,0.0,0.0,9e-08
3102530000000,1479,3102530000000,base_link,0.00877297550666,-0.0112145062209,0.017738006958,-0.999741369823,1.0,0.0,0.0,0.0,1.0,0.0,0.0,0.0,1.0,0.0069117853418,-0.00757166696712,0.000801748596132,1.21846967915e-07,0.0,0.0,0.0,1.21846967915e-07,0.0,0.0,0.0,1.21846967915e-07,-0.166597872972,-0.108168415725,9.84161090851,9e-08,0.0,0.0,0.0,9e-08,0.0,0.0,0.0,9e-08
3102550000000,1480,3102550000000,base_link,0.00882523002555,-0.0112082786948,0.0177172285617,-0.999741327676,1.0,0.0,0.0,0.0,1.0,0.0,0.0,0.0,1.0,-0.00732470629737,-0.00535269360989,0.00908411573619,1.21846967915e-07,0.0,0.0,0.0,1.21846967915e-07,0.0,0.0,0.0,1.21846967915e-07,-0.252205461264,-0.165706947446,9.78652477264,9e-08,0.0,0.0,0.0,9e-08,0.0,0.0,0.0,9e-08
3102570000000,1481,3102570000000,base_link,0.0089998542971,-0.0111575622066,0.0176927833895,-0.999740737621,1.0,0.0,0.0,0.0,1.0,0.0,0.0,0.0,1.0,-0.0174003262073,-0.0113281868398,0.00633440818638,1.21846967915e-07,0.0,0.0,0.0,1.21846967915e-07,0.0,0.0,0.0,1.21846967915e-07,-0.193177908659,-0.108258515596,9.78000545502,9e-08,0.0,0.0,0.0,9e-08,0.0,0.0,0.0,9e-08
3102590000000,1482,3102590000000,base_link,0.00913467885508,-0.011137471907,0.0177083355766,-0.999739431068,1.0,0.0,0.0,0.0,1.0,0.0,0.0,0.0,1.0,-0.0132196694613,-0.00935475993901,0.00338713126257,1.21846967915e-07,0.0,0.0,0.0,1.21846967915e-07,0.0,0.0,0.0,1.21846967915e-07,-0.213277235627,-0.168952807784,9.81536102295,9e-08,0.0,0.0,0.0,9e-08,0.0,0.0,0.0,9e-08
3102610000000,1483,3102610000000,base_link,0.00916733311378,-0.0111495644305,0.0176484870518,-0.999740105418,1.0,0.0,0.0,0.0,1.0,0.0,0.0,0.0,1.0,0.000494188047014,-0.00339448661543,0.00999462231994,1.21846967915e-07,0.0,0.0,0.0,1.21846967915e-07,0.0,0.0,0.0,1.21846967915e-07,-0.261988967657,-0.0213514547795,9.83025836945,9e-08,0.0,0.0,0.0,9e-08,0.0,0.0,0.0,9e-08
3102630000000,1484,3102630000000,base_link,0.00905349949736,-0.0111613117944,0.0176059187348,-0.999741706998,1.0,0.0,0.0,0.0,1.0,0.0,0.0,0.0,1.0,0.0145313888788,-0.00419159280136,0.00821409653872,1.21846967915e-07,0.0,0.0,0.0,1.21846967915e-07,0.0,0.0,0.0,1.21846967915e-07,-0.215030640364,-0.127496674657,9.78676509857,9e-08,0.0,0.0,0.0,9e-08,0.0,0.0,0.0,9e-08
3102650000000,1485,3102650000000,base_link,0.00898602486243,-0.0111915378349,0.0175608216069,-0.999742802816,1.0,0.0,0.0,0.0,1.0,0.0,0.0,0.0,1.0,0.00978637114167,-0.00275186309591,0.00958900805563,1.21846967915e-07,0.0,0.0,0.0,1.21846967915e-07,0.0,0.0,0.0,1.21846967915e-07,-0.240575671196,-0.173841759562,9.70303344727,9e-08,0.0,0.0,0.0,9e-08,0.0,0.0,0.0,9e-08
3102670000000,1486,3102670000000,base_link,0.00907844960849,-0.0112032184388,0.0175377672807,-0.999742254907,1.0,0.0,0.0,0.0,1.0,0.0,0.0,0.0,1.0,-0.0136524084955,-0.00588734121993,0.00793274026364,1.21846967915e-07,0.0,0.0,0.0,1.21846967915e-07,0.0,0.0,0.0,1.21846967915e-07,-0.200085267425,-0.14709995687,9.78754138947,9e-08,0.0,0.0,0.0,9e-08,0.0,0.0,0.0,9e-08
3102690000000,1487,3102690000000,base_link,0.00925607536127,-0.0111889973348,0.0175264719253,-0.999740990502,1.0,0.0,0.0,0.0,1.0,0.0,0.0,0.0,1.0,-0.0182321351022,-0.00864008255303,0.00602260930464,1.21846967915e-07,0.0,0.0,0.0,1.21846967915e-07,0.0,0.0,0.0,1.21846967915e-07,-0.248805359006,-0.154366180301,9.74534797668,9e-08,0.0,0.0,0.0,9e-08,0.0,0.0,0.0,9e-08
3102710000000,1488,3102710000000,base_link,0.00930423447419,-0.0111313578151,0.0175360392599,-0.999740948355,1.0,0.0,0.0,0.0,1.0,0.0,0.0,0.0,1.0,-0.00170123879798,-0.0109258946031,0.00132966111414,1.21846967915e-07,0.0,0.0,0.0,1.21846967915e-07,0.0,0.0,0.0,1.21846967915e-07,-0.20814935863,-0.166191861033,9.77300739288,9e-08,0.0,0.0,0.0,9e-08,0.0,0.0,0.0,9e-08
3102730000000,1489,3102726000000,base_link,0.00922352062511,-0.0111245866605,0.0175502427479,-0.999741580558,1.0,0.0,0.0,0.0,1.0,0.0,0.0,0.0,1.0,0.0130293266848,-0.00415996275842,0.00217563426122,1.21846967915e-07,0.0,0.0,0.0,1.21846967915e-07,0.0,0.0,0.0,1.21846967915e-07,-0.188960015774,-0.114754602313,9.77725219727,9e-08,0.0,0.0,0.0,9e-08,0.0,0.0,0.0,9e-08
3102750000000,1490,3102750000000,base_link,0.00911796417229,-0.0112085560244,0.0175642355016,-0.999741327676,1.0,0.0,0.0,0.0,1.0,0.0,0.0,0.0,1.0,0.00718672946095,-0.000820133835077,0.00353166181594,1.21846967915e-07,0.0,0.0,0.0,1.21846967915e-07,0.0,0.0,0.0,1.21846967915e-07,-0.160509303212,-0.180491283536,9.82392787933,9e-08,0.0,0.0,0.0,9e-08,0.0,0.0,0.0,9e-08
3102770000000,1491,3102770000000,base_link,0.00916177532741,-0.0112728620724,0.0175493155172,-0.999740484739,1.0,0.0,0.0,0.0,1.0,0.0,0.0,0.0,1.0,-0.00725934235379,0.00105154130142,0.00760115450248,1.21846967915e-07,0.0,0.0,0.0,1.21846967915e-07,0.0,0.0,0.0,1.21846967915e-07,-0.193467438221,-0.12972125411,9.85607337952,9e-08,0.0,0.0,0.0,9e-08,0.0,0.0,0.0,9e-08
3102790000000,1492,3102786000000,base_link,0.00924935582007,-0.0113225235723,0.0175775117589,-0.999738672425,1.0,0.0,0.0,0.0,1.0,0.0,0.0,0.0,1.0,-0.00793291721493,-0.000545224524103,0.00201295060106,1.21846967915e-07,0.0,0.0,0.0,1.21846967915e-07,0.0,0.0,0.0,1.21846967915e-07,-0.227904856205,-0.14711175859,9.78032016754,9e-08,0.0,0.0,0.0,9e-08,0.0,0.0,0.0,9e-08
3102810000000,1493,3102810000000,base_link,0.00921173646505,-0.011319272338,0.0175506642164,-0.999739473215,1.0,0.0,0.0,0.0,1.0,0.0,0.0,0.0,1.0,0.0060349907726,-0.00724871456623,0.0100277885795,1.21846967915e-07,0.0,0.0,0.0,1.21846967915e-07,0.0,0.0,0.0,1.21846967915e-07,-0.233503386378,-0.117781482637,9.71106719971,9e-08,0.0,0.0,0.0,9e-08,0.0,0.0,0.0,9e-08
3102830000000,1494,3102830000000,base_link,0.00909147282005,-0.011329511635,0.0175582506491,-0.999740316152,1.0,0.0,0.0,0.0,1.0,0.0,0.0,0.0,1.0,0.0119999945164,-0.00707629835233,0.00281027401797,1.21846967915e-07,0.0,0.0,0.0,1.21846967915e-07,0.0,0.0,0.0,1.21846967915e-07,-0.212475866079,-0.146961390972,9.80536365509,9e-08,0.0,0.0,0.0,9e-08,0.0,0.0,0.0,9e-08
3102846000000,1495,3102846000000,base_link,0.00909931913091,-0.0114384173629,0.0175344798265,-0.999739473215,1.0,0.0,0.0,0.0,1.0,0.0,0.0,0.0,1.0,-0.00323699763976,0.00629725353792,0.00625315960497,1.21846967915e-07,0.0,0.0,0.0,1.21846967915e-07,0.0,0.0,0.0,1.21846967915e-07,-0.241219043732,-0.163726225495,9.79648113251,9e-08,0.0,0.0,0.0,9e-08,0.0,0.0,0.0,9e-08
3102870000000,1496,3102870000000,base_link,0.00923961010221,-0.0115535520986,0.017544089308,-0.999736691523,1.0,0.0,0.0,0.0,1.0,0.0,0.0,0.0,1.0,-0.0144882136956,0.00565713830292,0.00273569510318,1.21846967915e-07,0.0,0.0,0.0,1.21846967915e-07,0.0,0.0,0.0,1.21846967915e-07,-0.279086828232,-0.142853289843,9.74976921082,9e-08,0.0,0.0,0.0,9e-08,0.0,0.0,0.0,9e-08
3102890000000,1497,3102886000000,base_link,0.00937195639257,-0.0116337497311,0.0175430777836,-0.999734499887,1.0,0.0,0.0,0.0,1.0,0.0,0.0,0.0,1.0,-0.0101761082187,0.00227276328951,0.00347362179309,1.21846967915e-07,0.0,0.0,0.0,1.21846967915e-07,0.0,0.0,0.0,1.21846967915e-07,-0.276011556387,-0.219849452376,9.7548084259,9e-08,0.0,0.0,0.0,9e-08,0.0,0.0,0.0,9e-08
3102910000000,1498,3102910000000,base_link,0.00939489209838,-0.0116878321226,0.0175646569701,-0.999733319775,1.0,0.0,0.0,0.0,1.0,0.0,0.0,0.0,1.0,-0.00126974703744,0.00151766522322,0.00046322849812,1.21846967915e-07,0.0,0.0,0.0,1.21846967915e-07,0.0,0.0,0.0,1.21846967915e-07,-0.202369883657,-0.132893770933,9.73672962189,9e-08,0.0,0.0,0.0,9e-08,0.0,0.0,0.0,9e-08
3102930000000,1499,3102930000000,base_link,0.00937318449576,-0.0118013711227,0.0175611587816,-0.999732266104,1.0,0.0,0.0,0.0,1.0,0.0,0.0,0.0,1.0,0.00339341163635,0.00362771726213,0.00582670699805,1.21846967915e-07,0.0,0.0,0.0,1.21846967915e-07,0.0,0.0,0.0,1.21846967915e-07,-0.21307747066,-0.194222554564,9.78210735321,9e-08,0.0,0.0,0.0,9e-08,0.0,0.0,0.0,9e-08
3102950000000,1500,3102950000000,base_link,0.00946512208353,-0.0118232445139,0.0175170731781,-0.999731928929,1.0,0.0,0.0,0.0,1.0,0.0,0.0,0.0,1.0,-0.0144661692902,-0.00412156712264,0.00945848412812,1.21846967915e-07,0.0,0.0,0.0,1.21846967915e-07,0.0,0.0,0.0,1.21846967915e-07,-0.195504128933,-0.11664455384,9.76342201233,9e-08,0.0,0.0,0.0,9e-08,0.0,0.0,0.0,9e-08
3102970000000,1501,3102970000000,base_link,0.00970580841203,-0.0118848011386,0.0174775394342,-0.999729568706,1.0,0.0,0.0,0.0,1.0,0.0,0.0,0.0,1.0,-0.0209510382265,-0.00141103006899,0.00910682231188,1.21846967915e-07,0.0,0.0,0.0,1.21846967915e-07,0.0,0.0,0.0,1.21846967915e-07,-0.225565552711,-0.178223848343,9.81963253021,9e-08,0.0,0.0,0.0,9e-08,0.0,0.0,0.0,9e-08
3102990000000,1502,3102990000000,base_link,0.00984228550513,-0.0118775857957,0.0174663283725,-0.999728472888,1.0,0.0,0.0,0.0,1.0,0.0,0.0,0.0,1.0,-0.0114213638008,-0.00890145637095,0.00495068542659,1.21846967915e-07,0.0,0.0,0.0,1.21846967915e-07,0.0,0.0,0.0,1.21846967915e-07,-0.127617239952,-0.0849261432886,9.8216342926,9e-08,0.0,0.0,0.0,9e-08,0.0,0.0,0.0,9e-08
3103010000000,1503,3103010000000,base_link,0.00984871034767,-0.0118529706367,0.0174286912368,-0.999729357971,1.0,0.0,0.0,0.0,1.0,0.0,0.0,0.0,1.0,-2.87336297333e-06,-0.0090569704771,0.00935035012662,1.21846967915e-07,0.0,0.0,0.0,1.21846967915e-07,0.0,0.0,0.0,1.21846967915e-07,-0.229606404901,-0.100490942597,9.77703380585,9e-08,0.0,0.0,0.0,9e-08,0.0,0.0,0.0,9e-08
